month,year,station_id,station_name,lat,lng,ebike_start,ebike_end,cbike_start,cbike_end,total_start,total_end,active_days,daily_ebike_start,daily_ebike_end,daily_cbike_start,daily_cbike_end,daily_start,daily_end
8,2021,13157,Aberdeen St & Jackson Blvd,41.87779266666666,-87.65475116666667,359,347,1203,1210,1562,1557,31,11.58,11.19,38.81,39.03,50.39,50.23
8,2021,TA1306000003,Desplaines St & Kinzie St,41.888716036,-87.6444478533,872,823,2469,2357,3341,3180,31,28.13,26.55,79.65,76.03,107.77,102.58
8,2021,TA1309000006,Larrabee St & Armitage Ave,41.918084,-87.643749,297,287,1432,1333,1729,1620,31,9.58,9.26,46.19,43.0,55.77,52.26
8,2021,KA1503000043,Kingsbury St & Kinzie St,41.88907733333333,-87.63842616666666,1128,1131,3381,3409,4509,4540,31,36.39,36.48,109.06,109.97,145.45,146.45
8,2021,13042,Michigan Ave & Oak St,41.90096039,-87.62377664,1455,1417,5550,5493,7005,6910,31,46.94,45.71,179.03,177.19,225.97,222.9
8,2021,TA1306000011,Wells St & Walton St,41.89993001,-87.63443007,168,166,931,885,1099,1051,31,5.42,5.35,30.03,28.55,35.45,33.9
8,2021,TA1309000014,Clark St & Leland Ave,41.967096,-87.667429,389,385,986,1030,1375,1415,31,12.55,12.42,31.81,33.23,44.35,45.65
8,2021,TA1307000127,Clark St & Grace St,41.95078,-87.659172,664,657,1910,1872,2574,2529,31,21.42,21.19,61.61,60.39,83.03,81.58
8,2021,TA1305000006,Dearborn St & Monroe St,41.8810645,-87.6298925,537,528,1570,1577,2107,2105,31,17.32,17.03,50.65,50.87,67.97,67.9
8,2021,TA1306000006,Orleans St & Elm St,41.90291033333333,-87.63761516666666,179,164,755,673,934,837,31,5.77,5.29,24.35,21.71,30.13,27.0
8,2021,653,Cornell Dr & Hayes Dr,41.780595,-87.584846,10,11,45,37,55,48,29,0.34,0.38,1.55,1.28,1.9,1.66
8,2021,20112,Indiana Ave & 103rd St,41.70717027117756,-87.6184719800949,10,10,9,11,19,21,21,0.48,0.48,0.43,0.52,0.9,1.0
8,2021,604,Sheridan Rd & Noyes St (NU),42.05823983333333,-87.67746016666666,70,70,344,329,414,399,31,2.26,2.26,11.1,10.61,13.35,12.87
8,2021,SL-013,State St & 19th St,41.856594,-87.627542,71,68,344,343,415,411,31,2.29,2.19,11.1,11.06,13.39,13.26
8,2021,13285,Wood St & Taylor St (Temp),41.869265218438194,-87.67373085021973,155,168,695,659,850,827,31,5.0,5.42,22.42,21.26,27.42,26.68
8,2021,LP-,Lincoln Park Conservatory,41.92393131136619,-87.63582453131676,392,371,1916,1679,2308,2050,32,12.25,11.59,59.88,52.47,72.12,64.06
8,2021,13304,Racine Ave & 15th St,41.861267,-87.656625,145,138,276,289,421,427,31,4.68,4.45,8.9,9.32,13.58,13.77
8,2021,13431,Adler Planetarium,41.866095,-87.607267,528,469,1649,1682,2177,2151,31,17.03,15.13,53.19,54.26,70.23,69.39
8,2021,TA1307000052,Sheffield Ave & Wellington Ave,41.93629883333333,-87.65250866666666,529,526,2402,2320,2931,2846,31,17.06,16.97,77.48,74.84,94.55,91.81
8,2021,KA1504000164,Keystone Ave & Montrose Ave,41.96110801623,-87.7289701012,67,66,59,57,126,123,31,2.16,2.13,1.9,1.84,4.06,3.97
8,2021,KA1504000158,Oakley Ave & Irving Park Rd,41.95419566666666,-87.6859995,79,79,248,281,327,360,31,2.55,2.55,8.0,9.06,10.55,11.61
8,2021,SL-007,State St & Harrison St,41.874053,-87.627716,270,269,825,800,1095,1069,31,8.71,8.68,26.61,25.81,35.32,34.48
8,2021,13109,Broadway & Berwyn Ave,41.978353,-87.659753,319,320,839,895,1158,1215,31,10.29,10.32,27.06,28.87,37.35,39.19
8,2021,15578,Broadway & Ridge Ave,41.9840446107,-87.6602738295,298,270,726,696,1024,966,31,9.61,8.71,23.42,22.45,33.03,31.16
8,2021,TA1309000012,Damen Ave & Sunnyside Ave,41.96325,-87.679258,73,67,412,327,485,394,31,2.35,2.16,13.29,10.55,15.65,12.71
8,2021,13061,Ashland Ave & Division St,41.90350133333333,-87.66779133333333,942,918,2639,2568,3581,3486,31,30.39,29.61,85.13,82.84,115.52,112.45
8,2021,13136,Damen Ave & Division St,41.903266,-87.678435,435,425,1172,1220,1607,1645,31,14.03,13.71,37.81,39.35,51.84,53.06
8,2021,TA1309000004,LaSalle St & Jackson Blvd,41.8777575,-87.63174116666667,453,461,1101,1089,1554,1550,31,14.61,14.87,35.52,35.13,50.13,50.0
8,2021,13268,Damen Ave & Wellington Ave,41.93588,-87.67842,240,249,568,604,808,853,32,7.5,7.78,17.75,18.88,25.25,26.66
8,2021,13143,Damen Ave & Melrose Ave,41.9406,-87.6785,117,117,450,476,567,593,31,3.77,3.77,14.52,15.35,18.29,19.13
8,2021,18003,Fairbanks St & Superior St,41.895748,-87.620104,340,327,907,955,1247,1282,31,10.97,10.55,29.26,30.81,40.23,41.35
8,2021,TA1309000050,Lincoln Ave & Addison St,41.946176,-87.673308,118,113,439,397,557,510,31,3.81,3.65,14.16,12.81,17.97,16.45
8,2021,E002,Chicago Ave & Washington St,42.032562,-87.679101,156,160,295,301,451,461,31,5.03,5.16,9.52,9.71,14.55,14.87
8,2021,15575,Broadway & Thorndale Ave,41.98974251144,-87.6601406209,247,245,807,833,1054,1078,31,7.97,7.9,26.03,26.87,34.0,34.77
8,2021,15550,Canal St & Taylor St,41.870257,-87.639474,166,154,620,624,786,778,31,5.35,4.97,20.0,20.13,25.35,25.1
8,2021,15542,Clinton St & Polk St,41.87146651779,-87.6409491327,55,36,156,132,211,168,31,1.77,1.16,5.03,4.26,6.81,5.42
8,2021,TA1309000059,Racine Ave & Wrightwood Ave,41.928887,-87.658971,260,255,1135,1101,1395,1356,31,8.39,8.23,36.61,35.52,45.0,43.74
8,2021,545,Kostner Ave & Adams St,41.877917,-87.735737,6,5,15,14,21,19,14,0.43,0.36,1.07,1.0,1.5,1.36
8,2021,TA1309000002,Michigan Ave & Jackson Blvd,41.87785,-87.62408,277,266,1140,1095,1417,1361,31,8.94,8.58,36.77,35.32,45.71,43.9
8,2021,KA1706005015,Kildare Ave & Montrose Ave,41.96108,-87.73569,28,28,65,70,93,98,30,0.93,0.93,2.17,2.33,3.1,3.27
8,2021,15529,Mies van der Rohe Way & Chestnut St,41.8985866514,-87.6219152258,556,553,1672,1644,2228,2197,32,17.38,17.28,52.25,51.38,69.62,68.66
8,2021,KA1503000041,McClurg Ct & Erie St,41.894503,-87.617854,681,641,1850,1831,2531,2472,31,21.97,20.68,59.68,59.06,81.65,79.74
8,2021,TA1306000016,Sheffield Ave & Fullerton Ave,41.9256018819,-87.6537080423,454,449,2101,2085,2555,2534,31,14.65,14.48,67.77,67.26,82.42,81.74
8,2021,TA1307000124,Michigan Ave & 14th St,41.86453566666667,-87.6236155,508,488,1532,1489,2040,1977,32,15.88,15.25,47.88,46.53,63.75,61.78
8,2021,13128,Clark St & North Ave,41.911974,-87.631942,398,396,1614,1619,2012,2015,32,12.44,12.38,50.44,50.59,62.88,62.97
8,2021,13241,Western Ave & Division St,41.902913833333336,-87.68729533333334,311,281,504,450,815,731,32,9.72,8.78,15.75,14.06,25.47,22.84
8,2021,KA1504000135,Wells St & Elm St,41.903222,-87.634324,1307,1296,4313,4305,5620,5601,31,42.16,41.81,139.13,138.87,181.29,180.68
8,2021,KA1504000175,Glenwood Ave & Morse Ave,42.00796266666666,-87.66543183333333,149,157,464,445,613,602,31,4.81,5.06,14.97,14.35,19.77,19.42
8,2021,TA1307000136,Clark St & Wellington Ave,41.93652333333333,-87.64761533333333,543,539,2415,2409,2958,2948,31,17.52,17.39,77.9,77.71,95.42,95.1
8,2021,KA1503000032,Union Ave & Root St,41.819102,-87.643278,26,28,41,44,67,72,30,0.87,0.93,1.37,1.47,2.23,2.4
8,2021,13235,Southport Ave & Waveland Ave,41.94815,-87.66394,663,655,2088,2090,2751,2745,31,21.39,21.13,67.35,67.42,88.74,88.55
8,2021,TA1309000043,Southport Ave & Irving Park Rd,41.954177,-87.664358,207,183,898,808,1105,991,31,6.68,5.9,28.97,26.06,35.65,31.97
8,2021,13139,Throop St & Taylor St,41.868968,-87.659141,211,209,719,718,930,927,31,6.81,6.74,23.19,23.16,30.0,29.9
8,2021,TA1309000039,DuSable Lake Shore Dr & Diversey Pkwy,41.932588,-87.636427,755,744,3074,2999,3829,3743,31,24.35,24.0,99.16,96.74,123.52,120.74
8,2021,13409,Sangamon St & Washington Blvd,41.883165,-87.6511,482,474,1105,1103,1587,1577,31,15.55,15.29,35.65,35.58,51.19,50.87
8,2021,13277,Broadway & Belmont Ave,41.940106,-87.645451,617,616,2214,2213,2831,2829,32,19.28,19.25,69.19,69.16,88.47,88.41
8,2021,TA1306000032,Sheffield Ave & Willow St,41.913688,-87.652855,433,430,1585,1588,2018,2018,31,13.97,13.87,51.13,51.23,65.1,65.1
8,2021,13071,Southport Ave & Roscoe St,41.943741333333335,-87.66396266666666,612,611,2410,2482,3022,3093,32,19.12,19.09,75.31,77.56,94.44,96.66
8,2021,657,Wood St & Augusta Blvd,41.899181,-87.6722,273,234,711,636,984,870,31,8.81,7.55,22.94,20.52,31.74,28.06
8,2021,TA1307000163,Clifton Ave & Armitage Ave,41.918216,-87.656936,383,375,1307,1359,1690,1734,31,12.35,12.1,42.16,43.84,54.52,55.94
8,2021,KA1503000069,Dorchester Ave & 49th St,41.805772,-87.592464,62,58,119,85,181,143,31,2.0,1.87,3.84,2.74,5.84,4.61
8,2021,TA1305000002,Wabash Ave & Roosevelt Rd,41.86702316666667,-87.62592966666666,732,721,2326,2356,3058,3077,31,23.61,23.26,75.03,76.0,98.65,99.26
8,2021,15541,Buckingham Fountain,41.8765351944122,-87.62047290802002,305,292,1057,990,1362,1282,31,9.84,9.42,34.1,31.94,43.94,41.35
8,2021,TA1305000004,McCormick Place,41.8513751729,-87.6188346489,135,136,308,328,443,464,31,4.35,4.39,9.94,10.58,14.29,14.97
8,2021,KA1504000134,Ritchie Ct & Banks St,41.906901833333336,-87.62591383333333,495,483,1622,1585,2117,2068,31,15.97,15.58,52.32,51.13,68.29,66.71
8,2021,TA1306000026,Racine Ave & Fullerton Ave,41.925563,-87.658404,274,270,1428,1429,1702,1699,32,8.56,8.44,44.62,44.66,53.19,53.09
8,2021,TA1307000139,MLK Jr Dr & 29th St,41.842052,-87.617,193,192,726,709,919,901,32,6.03,6.0,22.69,22.16,28.72,28.16
8,2021,E008,Chicago Ave & Sheridan Rd,42.050491,-87.677821,54,53,296,320,350,373,31,1.74,1.71,9.55,10.32,11.29,12.03
8,2021,17660,California Ave & Cortez St,41.900325,-87.696654,278,284,552,565,830,849,31,8.97,9.16,17.81,18.23,26.77,27.39
8,2021,TA1307000166,Halsted St & Willow St,41.913865,-87.648755,421,416,1487,1427,1908,1843,31,13.58,13.42,47.97,46.03,61.55,59.45
8,2021,KP1705001026,LaSalle Dr & Huron St,41.894877,-87.632326,552,536,1585,1479,2137,2015,32,17.25,16.75,49.53,46.22,66.78,62.97
8,2021,KA1504000159,Sheridan Rd & Greenleaf Ave,42.010587,-87.662412,87,84,237,219,324,303,31,2.81,2.71,7.65,7.06,10.45,9.77
8,2021,KA1503000040,Loomis St & Archer Ave,41.84163253965,-87.6574349533,65,63,130,140,195,203,31,2.1,2.03,4.19,4.52,6.29,6.55
8,2021,TA1305000011,Michigan Ave & Lake St,41.886024,-87.624117,721,705,2192,2264,2913,2969,31,23.26,22.74,70.71,73.03,93.97,95.77
8,2021,632,Clark St & Newport St,41.94446816666667,-87.65470666666667,863,859,2616,2634,3479,3493,31,27.84,27.71,84.39,84.97,112.23,112.68
8,2021,KA1503000012,Clark St & Lake St,41.88602082773,-87.6308760584,513,512,1547,1526,2060,2038,31,16.55,16.52,49.9,49.23,66.45,65.74
8,2021,TA1309000061,Halsted St & Wrightwood Ave,41.929143,-87.649077,567,556,2481,2418,3048,2974,31,18.29,17.94,80.03,78.0,98.32,95.94
8,2021,KA1503000020,South Shore Dr & 74th St,41.7622205,-87.55923533333333,45,45,40,44,85,89,30,1.5,1.5,1.33,1.47,2.83,2.97
8,2021,13008,Millennium Park,41.8810317,-87.62408432,1228,1190,3932,3885,5160,5075,31,39.61,38.39,126.84,125.32,166.45,163.71
8,2021,TA1308000050,Wells St & Concord Ln,41.912133,-87.634656,1535,1509,5149,5158,6684,6667,32,47.97,47.16,160.91,161.19,208.88,208.34
8,2021,525,Glenwood Ave & Touhy Ave,42.012701,-87.666058,50,56,250,222,300,278,31,1.61,1.81,8.06,7.16,9.68,8.97
8,2021,TA1307000107,Sheridan Rd & Montrose Ave,41.96167,-87.65464,614,619,1752,1766,2366,2385,31,19.81,19.97,56.52,56.97,76.32,76.94
8,2021,TA1307000113,Southport Ave & Wrightwood Ave,41.928773,-87.663913,403,395,1533,1541,1936,1936,31,13.0,12.74,49.45,49.71,62.45,62.45
8,2021,SL-008,Federal St & Polk St,41.87217883333334,-87.62953633333333,659,652,1845,1848,2504,2500,32,20.59,20.38,57.66,57.75,78.25,78.12
8,2021,RP-008,Clark St & Columbia Ave,42.00445062934,-87.6724024047,160,159,198,199,358,358,31,5.16,5.13,6.39,6.42,11.55,11.55
8,2021,13045,Dearborn St & Erie St,41.893992,-87.629318,1010,991,3296,3205,4306,4196,32,31.56,30.97,103.0,100.16,134.56,131.12
8,2021,13379,Clarendon Ave & Gordon Ter,41.95786652415174,-87.64950513839722,414,410,1427,1377,1841,1787,31,13.35,13.23,46.03,44.42,59.39,57.65
8,2021,15622,California Ave & Montrose Ave,41.961068,-87.695439,137,138,272,284,409,422,31,4.42,4.45,8.77,9.16,13.19,13.61
8,2021,KA1504000080,Washtenaw Ave & Lawrence Ave,41.968987,-87.696027,192,201,275,284,467,485,31,6.19,6.48,8.87,9.16,15.06,15.65
8,2021,13217,Calumet Ave & 33rd St,41.8349,-87.61793,78,77,519,526,597,603,31,2.52,2.48,16.74,16.97,19.26,19.45
8,2021,TA1307000006,Southport Ave & Wellington Ave,41.935575166666666,-87.663731,428,409,1582,1512,2010,1921,31,13.81,13.19,51.03,48.77,64.84,61.97
8,2021,13016,St. Clair St & Erie St,41.89434513742426,-87.62279838323593,1035,1035,2845,2788,3880,3823,31,33.39,33.39,91.77,89.94,125.16,123.32
8,2021,TA1307000156,Lincoln Ave & Sunnyside Ave,41.963006,-87.68482916666666,200,203,534,535,734,738,31,6.45,6.55,17.23,17.26,23.68,23.81
8,2021,TA1309000036,Burling St & Diversey Pkwy,41.93314,-87.64776,398,397,1798,1796,2196,2193,31,12.84,12.81,58.0,57.94,70.84,70.74
8,2021,TA1308000026,Wentworth Ave & 24th St (Temp),41.85008369347577,-87.6321405172348,41,39,209,205,250,244,31,1.32,1.26,6.74,6.61,8.06,7.87
8,2021,TA1309000023,Sheffield Ave & Wrightwood Ave,41.928712,-87.653833,452,449,1743,1777,2195,2226,31,14.58,14.48,56.23,57.32,70.81,71.81
8,2021,661,Evanston Civic Center,42.057044,-87.686554,61,56,143,146,204,202,31,1.97,1.81,4.61,4.71,6.58,6.52
8,2021,TA1307000153,Emerald Ave & 28th St,41.84358,-87.645368,52,51,276,285,328,336,31,1.68,1.65,8.9,9.19,10.58,10.84
8,2021,KA1504000139,Monticello Ave & Irving Park Rd,41.95400483876,-87.7191281797,69,69,101,113,170,182,31,2.23,2.23,3.26,3.65,5.48,5.87
8,2021,331,Halsted St & Clybourn Ave,41.909668,-87.648128,712,692,2198,2118,2910,2810,32,22.25,21.62,68.69,66.19,90.94,87.81
8,2021,13162,Halsted St & 21st St,41.85381566666667,-87.64657583333333,99,99,213,206,312,305,31,3.19,3.19,6.87,6.65,10.06,9.84
8,2021,KA1504000116,Larrabee St & Oak St,41.90021949323,-87.6429854676,211,191,945,812,1156,1003,32,6.59,5.97,29.53,25.38,36.12,31.34
8,2021,16991,Milwaukee Ave & Cuyler Ave,41.9544395,-87.7496065,124,125,50,77,174,202,31,4.0,4.03,1.61,2.48,5.61,6.52
8,2021,13398,Blackstone Ave & Hyde Park Blvd,41.802562,-87.590368,168,166,441,419,609,585,31,5.42,5.35,14.23,13.52,19.65,18.87
8,2021,13307,Laflin St & Cullerton St,41.85491457576575,-87.66355991363525,133,129,241,235,374,364,31,4.29,4.16,7.77,7.58,12.06,11.74
8,2021,13034,Michigan Ave & Pearson St,41.89766,-87.62351,330,323,1232,1185,1562,1508,31,10.65,10.42,39.74,38.23,50.39,48.65
8,2021,TA1305000014,Clark St & Wrightwood Ave,41.929546,-87.643118,681,680,2981,2976,3662,3656,31,21.97,21.94,96.16,96.0,118.13,117.94
8,2021,TA1309000037,Kimbark Ave & 53rd St,41.799568,-87.594747,378,361,1079,1088,1457,1449,31,12.19,11.65,34.81,35.1,47.0,46.74
8,2021,TA1309000027,Sheridan Rd & Buena Ave,41.958494,-87.654966,382,378,1065,964,1447,1342,31,12.32,12.19,34.35,31.1,46.68,43.29
8,2021,15640,Avers Ave & Belmont Ave,41.939403,-87.72354366666667,156,154,191,208,347,362,31,5.03,4.97,6.16,6.71,11.19,11.68
8,2021,600,Dodge Ave & Church St,42.048308,-87.698224,33,30,74,72,107,102,31,1.06,0.97,2.39,2.32,3.45,3.29
8,2021,TA1307000117,Wabash Ave & Grand Ave,41.891466,-87.626761,974,964,3193,3056,4167,4020,31,31.42,31.1,103.0,98.58,134.42,129.68
8,2021,13132,Damen Ave & Chicago Ave,41.895769,-87.67722,524,528,1232,1297,1756,1825,32,16.38,16.5,38.5,40.53,54.88,57.03
8,2021,KA1504000093,Rockwell St & Eastwood Ave,41.96590013976,-87.6936384935,132,133,201,233,333,366,31,4.26,4.29,6.48,7.52,10.74,11.81
8,2021,654,Racine Ave & Washington Blvd,41.883073,-87.656952,232,213,617,529,849,742,31,7.48,6.87,19.9,17.06,27.39,23.94
8,2021,579,Phillips Ave & 79th St,41.75182,-87.565211,13,8,18,18,31,26,25,0.52,0.32,0.72,0.72,1.24,1.04
8,2021,13289,Eckhart Park,41.89637337,-87.66098386,373,353,1086,1096,1459,1449,31,12.03,11.39,35.03,35.35,47.06,46.74
8,2021,TA1309000029,Leavitt St & Armitage Ave,41.917805,-87.682437,251,250,651,664,902,914,31,8.1,8.06,21.0,21.42,29.1,29.48
8,2021,TA1305000022,Orleans St & Merchandise Mart Plaza,41.888243,-87.63639,762,755,1894,1905,2656,2660,31,24.58,24.35,61.1,61.45,85.68,85.81
8,2021,KA1504000148,Clark St & Elmdale Ave,41.99086044812557,-87.66972362995148,150,147,386,391,536,538,31,4.84,4.74,12.45,12.61,17.29,17.35
8,2021,TA1307000062,Sedgwick St & Huron St,41.89458966666667,-87.63821983333334,489,440,1431,1343,1920,1783,32,15.28,13.75,44.72,41.97,60.0,55.72
8,2021,TA1308000019,Racine Ave & Belmont Ave,41.939743,-87.658865,484,486,1734,1700,2218,2186,31,15.61,15.68,55.94,54.84,71.55,70.52
8,2021,KA1504000104,Paulina St & Flournoy St,41.87295,-87.66913,311,289,937,924,1248,1213,31,10.03,9.32,30.23,29.81,40.26,39.13
8,2021,353,Meade Ave & Diversey Ave,41.93,-87.78,31,33,0,0,31,33,19,1.63,1.74,0.0,0.0,1.63,1.74
8,2021,TA1307000128,Dearborn Pkwy & Delaware Pl,41.899134,-87.6298595,802,778,2578,2525,3380,3303,32,25.06,24.31,80.56,78.91,105.62,103.22
8,2021,13258,California Ave & North Ave,41.91044,-87.6972,263,263,550,528,813,791,31,8.48,8.48,17.74,17.03,26.23,25.52
8,2021,TA1305000010,Michigan Ave & Ida B Wells Dr,41.876243,-87.624426,224,224,812,796,1036,1020,31,7.23,7.23,26.19,25.68,33.42,32.9
8,2021,KA1504000126,Kedzie Ave & Leland Ave,41.96668636205,-87.7080519806,77,72,92,97,169,169,31,2.48,2.32,2.97,3.13,5.45,5.45
8,2021,TA1306000008,Larrabee St & North Ave,41.91021,-87.6435,222,219,989,985,1211,1204,32,6.94,6.84,30.91,30.78,37.84,37.62
8,2021,TA1309000041,Sheridan Rd & Lawrence Ave,41.969517,-87.654691,284,291,615,637,899,928,31,9.16,9.39,19.84,20.55,29.0,29.94
8,2021,KA1503000054,Cottage Grove Ave & 63rd St,41.780601,-87.605836,71,65,68,84,139,149,31,2.29,2.1,2.19,2.71,4.48,4.81
8,2021,TA1307000131,Wabash Ave & Wacker Pl,41.886875,-87.62603,551,540,1535,1485,2086,2025,31,17.77,17.42,49.52,47.9,67.29,65.32
8,2021,TA1309000011,Ellis Ave & 58th St,41.788746,-87.601334,194,189,649,670,843,859,31,6.26,6.1,20.94,21.61,27.19,27.71
8,2021,KA1503000072,Wacker Dr & Washington St,41.88325319522858,-87.63651251792908,371,367,736,760,1107,1127,31,11.97,11.84,23.74,24.52,35.71,36.35
8,2021,TA1307000143,Sedgwick St & Schiller St,41.907626,-87.638566,175,166,605,571,780,737,31,5.65,5.35,19.52,18.42,25.16,23.77
8,2021,13063,Sheridan Rd & Irving Park Rd,41.954245,-87.654406,510,515,1752,1772,2262,2287,31,16.45,16.61,56.52,57.16,72.97,73.77
8,2021,KA1503000021,Stony Island Ave & 64th St,41.778881,-87.586647,18,19,33,45,51,64,28,0.64,0.68,1.18,1.61,1.82,2.29
8,2021,13196,Carpenter St & Huron St,41.89455,-87.65340333333333,466,425,1256,1117,1722,1542,31,15.03,13.71,40.52,36.03,55.55,49.74
8,2021,13108,Broadway & Argyle St,41.973815,-87.65966,329,329,946,955,1275,1284,31,10.61,10.61,30.52,30.81,41.13,41.42
8,2021,18067,Walsh Park,41.91461,-87.667968,216,203,1035,918,1251,1121,31,6.97,6.55,33.39,29.61,40.35,36.16
8,2021,KA1504000160,Francisco Ave & Foster Ave,41.97566833333333,-87.70141616666666,124,124,171,174,295,298,31,4.0,4.0,5.52,5.61,9.52,9.61
8,2021,13430,LaSalle St & Illinois St,41.890762,-87.631697,839,837,2674,2624,3513,3461,31,27.06,27.0,86.26,84.65,113.32,111.65
8,2021,KA1503000046,Dorchester Ave & 63rd St,41.7804056457,-87.5914159893,24,25,94,112,118,137,31,0.77,0.81,3.03,3.61,3.81,4.42
8,2021,KA1503000030,Jeffery Blvd & 67th St,41.77351755125,-87.5771428255,47,43,54,48,101,91,31,1.52,1.39,1.74,1.55,3.26,2.94
8,2021,KA1504000143,Leavitt St & Addison St,41.946655,-87.683359,113,114,300,292,413,406,31,3.65,3.68,9.68,9.42,13.32,13.1
8,2021,13138,Canal St & Jackson Blvd,41.877245,-87.639366,300,282,537,528,837,810,32,9.38,8.81,16.78,16.5,26.16,25.31
8,2021,TA1308000029,Stetson Ave & South Water St,41.886835,-87.62232,513,479,1272,1152,1785,1631,31,16.55,15.45,41.03,37.16,57.58,52.61
8,2021,334.0,Lawndale Ave & 30th St,41.84,-87.72,18,15,0,0,18,15,13,1.38,1.15,0.0,0.0,1.38,1.15
8,2021,16937,Ashland Ave & McDowell Ave,41.808867166666666,-87.66449283333333,28,22,47,54,75,76,30,0.93,0.73,1.57,1.8,2.5,2.53
8,2021,KA1504000109,Washtenaw Ave & Ogden Ave,41.86193049278259,-87.69345045089722,84,76,116,126,200,202,31,2.71,2.45,3.74,4.06,6.45,6.52
8,2021,KA1504000117,Halsted St & North Branch St,41.89936843921,-87.6484798752,107,106,306,260,413,366,31,3.45,3.42,9.87,8.39,13.32,11.81
8,2021,KA1504000156,Clark St & Schreiber Ave,41.9993005,-87.67138933333334,153,147,263,280,416,427,31,4.94,4.74,8.48,9.03,13.42,13.77
8,2021,16010,Keystone Ave & Fullerton Ave,41.92459,-87.72785,80,78,85,127,165,205,31,2.58,2.52,2.74,4.1,5.32,6.61
8,2021,KA1504000097,Drake Ave & Montrose Ave,41.96115407569,-87.7165690733,80,78,108,112,188,190,31,2.58,2.52,3.48,3.61,6.06,6.13
8,2021,KA1504000149,Damen Ave & Foster Ave,41.97561480459,-87.6794590387,167,160,332,345,499,505,31,5.39,5.16,10.71,11.13,16.1,16.29
8,2021,527,Western Ave & Howard St,42.018901,-87.690048,56,62,47,57,103,119,31,1.81,2.0,1.52,1.84,3.32,3.84
8,2021,324,Meade Ave & Addison St,41.95,-87.78,28,21,0,0,28,21,19,1.47,1.11,0.0,0.0,1.47,1.11
8,2021,16994,Kilbourn Ave & Milwaukee Ave,41.94707089418471,-87.74000823497772,23,21,32,45,55,66,28,0.82,0.75,1.14,1.61,1.96,2.36
8,2021,20104,State St & 95th St,41.7218499,-87.6228544,50,37,35,22,85,59,29,1.72,1.28,1.21,0.76,2.93,2.03
8,2021,18069,Cherry Ave & Blackhawk St,41.907221,-87.655618,77,73,208,223,285,296,31,2.48,2.35,6.71,7.19,9.19,9.55
8,2021,567,May St & 69th St,41.768938,-87.652934,26,23,2,4,28,27,23,1.13,1.0,0.09,0.17,1.22,1.17
8,2021,20242,Houston Ave & 92nd St,41.72820421535798,-87.54970014095306,6,5,7,11,13,16,16,0.38,0.31,0.44,0.69,0.81,1.0
8,2021,TA1305000029,State St & Randolph St,41.8845995,-87.62737166666666,619,612,1931,1876,2550,2488,31,19.97,19.74,62.29,60.52,82.26,80.26
8,2021,643,Smith Park,41.892048,-87.689397,140,146,214,255,354,401,31,4.52,4.71,6.9,8.23,11.42,12.94
8,2021,20229,Baltimore Ave & 87th St,41.73733560041666,-87.54851460456847,11,6,15,24,26,30,25,0.44,0.24,0.6,0.96,1.04,1.2
8,2021,TA1307000119,Clarendon Ave & Leland Ave,41.96792416666667,-87.64996316666667,281,283,706,727,987,1010,31,9.06,9.13,22.77,23.45,31.84,32.58
8,2021,E007,Central St & Girard Ave,42.06430533333333,-87.68610833333334,45,46,129,137,174,183,31,1.45,1.48,4.16,4.42,5.61,5.9
8,2021,620,Orleans St & Chestnut St (NEXT Apts),41.89813083333333,-87.63745483333334,495,438,1294,1167,1789,1605,31,15.97,14.13,41.74,37.65,57.71,51.77
8,2021,15646,California Ave & Altgeld St,41.92669,-87.697668,217,216,436,458,653,674,31,7.0,6.97,14.06,14.77,21.06,21.74
8,2021,13325,Broadway & Waveland Ave,41.949074,-87.648636,714,710,2559,2531,3273,3241,31,23.03,22.9,82.55,81.65,105.58,104.55
8,2021,13269,Ashland Ave & Wellington Ave,41.936083,-87.669807,220,220,720,717,940,937,31,7.1,7.1,23.23,23.13,30.32,30.23
8,2021,TA1308000001,Theater on the Lake,41.926277,-87.630834,951,914,5441,5442,6392,6356,31,30.68,29.48,175.52,175.55,206.19,205.03
8,2021,13085,Kedzie Ave & Milwaukee Ave,41.9295265,-87.70785083333334,688,687,1141,1264,1829,1951,32,21.5,21.47,35.66,39.5,57.16,60.97
8,2021,13022,Streeter Dr & Grand Ave,41.892278,-87.612043,2231,2103,9440,9163,11671,11266,31,71.97,67.84,304.52,295.58,376.48,363.42
8,2021,13243,Milwaukee Ave & Wabansia Ave,41.912616,-87.681391,534,526,1396,1407,1930,1933,31,17.23,16.97,45.03,45.39,62.26,62.35
8,2021,650,Eggleston Ave & 69th St,41.768929166666666,-87.63576416666666,13,3,4,6,17,9,16,0.81,0.19,0.25,0.38,1.06,0.56
8,2021,13091,Western Ave & 21st St,41.854109,-87.685838,98,99,132,161,230,260,31,3.16,3.19,4.26,5.19,7.42,8.39
8,2021,15544,Shedd Aquarium,41.86722595682,-87.6153553902,896,830,2778,2906,3674,3736,31,28.9,26.77,89.61,93.74,118.52,120.52
8,2021,13081,Ogden Ave & Congress Pkwy,41.87501,-87.67328,123,83,296,224,419,307,31,3.97,2.68,9.55,7.23,13.52,9.9
8,2021,TA1309000018,Ravenswood Ave & Berteau Ave,41.957921,-87.673567,134,125,351,339,485,464,31,4.32,4.03,11.32,10.94,15.65,14.97
8,2021,13292,Kedzie Ave & Palmer Ct,41.921525,-87.707322,189,194,419,441,608,635,31,6.1,6.26,13.52,14.23,19.61,20.48
8,2021,TA1309000064,Wolcott Ave & Polk St,41.87131183333333,-87.67370583333333,295,276,931,954,1226,1230,32,9.22,8.62,29.09,29.81,38.31,38.44
8,2021,RP-001,Warren Park West,42.001785,-87.688829,56,52,93,102,149,154,31,1.81,1.68,3.0,3.29,4.81,4.97
8,2021,KA17018054,Damen Ave & Walnut (Lake) St,41.88593033333333,-87.6770665,127,113,273,334,400,447,31,4.1,3.65,8.81,10.77,12.9,14.42
8,2021,TA1306000007,Larrabee St & Menomonee St,41.91468,-87.64332,167,165,743,714,910,879,31,5.39,5.32,23.97,23.03,29.35,28.35
8,2021,KA1504000103,Western Ave & Walton St,41.89841768945,-87.6865960164,332,304,753,694,1085,998,31,10.71,9.81,24.29,22.39,35.0,32.19
8,2021,15668,Western Ave & Congress Pkwy,41.874749,-87.686445,153,138,282,302,435,440,31,4.94,4.45,9.1,9.74,14.03,14.19
8,2021,15685,Central Park Ave & Ogden Ave,41.854063503874464,-87.71511733531952,41,39,43,40,84,79,30,1.37,1.3,1.43,1.33,2.8,2.63
8,2021,16903,Cicero Ave & Lake St,41.886841,-87.745261,10,6,20,11,30,17,23,0.43,0.26,0.87,0.48,1.3,0.74
8,2021,13099,Halsted St & 18th St (Temp),41.8583706903062,-87.64638841152191,132,125,308,311,440,436,31,4.26,4.03,9.94,10.03,14.19,14.06
8,2021,KA1503000038,Shields Ave & 31st St,41.838464,-87.635406,93,91,350,343,443,434,31,3.0,2.94,11.29,11.06,14.29,14.0
8,2021,KA1503000005,Wentworth Ave & 35th St,41.830777,-87.632504,81,73,206,198,287,271,31,2.61,2.35,6.65,6.39,9.26,8.74
8,2021,546,Damen Ave & Pershing Rd,41.823192,-87.676597,15,14,26,34,41,48,28,0.54,0.5,0.93,1.21,1.46,1.71
8,2021,TA1308000007,MLK Jr Dr & 47th St,41.809877666666665,-87.61633966666666,41,39,70,73,111,112,30,1.37,1.3,2.33,2.43,3.7,3.73
8,2021,KA1503000047,Perry Ave & 69th St,41.76929308995,-87.6281959291,13,9,14,6,27,15,19,0.68,0.47,0.74,0.32,1.42,0.79
8,2021,13134,Damen Ave & Madison St,41.88137,-87.67493,108,104,248,263,356,367,31,3.48,3.35,8.0,8.48,11.48,11.84
8,2021,KA1503000027,Prairie Ave & 43rd St,41.81665889302,-87.6194124619,41,41,119,115,160,156,31,1.32,1.32,3.84,3.71,5.16,5.03
8,2021,13075,Wentworth Ave & Cermak Rd,41.85308455741279,-87.63193130493164,317,313,1007,1098,1324,1411,31,10.23,10.1,32.48,35.42,42.71,45.52
8,2021,RP-009,Sheridan Rd & Loyola Ave,42.00104377979,-87.6611982433,216,210,449,473,665,683,31,6.97,6.77,14.48,15.26,21.45,22.03
8,2021,WL-012,Clinton St & Washington Blvd,41.88338,-87.64117,788,753,1987,1922,2775,2675,31,25.42,24.29,64.1,62.0,89.52,86.29
8,2021,KA1504000151,Clark St & Bryn Mawr Ave,41.983593,-87.669154,321,329,790,869,1111,1198,31,10.35,10.61,25.48,28.03,35.84,38.65
8,2021,18016,Bernard St & Elston Ave,41.949923,-87.713949,71,70,126,109,197,179,31,2.29,2.26,4.06,3.52,6.35,5.77
8,2021,15654,Spaulding Ave & Division St,41.90270659438,-87.709219571,106,106,178,166,284,272,31,3.42,3.42,5.74,5.35,9.16,8.77
8,2021,TA1305000003,Fairbanks Ct & Grand Ave,41.89184737210993,-87.62058019638062,795,790,2646,2633,3441,3423,31,25.65,25.48,85.35,84.94,111.0,110.42
8,2021,13017,Franklin St & Chicago Ave,41.896746973093805,-87.63566762208939,422,422,1442,1411,1864,1833,31,13.61,13.61,46.52,45.52,60.13,59.13
8,2021,20108,Hale Ave & 107th St,41.69923033333333,-87.6689265,65,66,14,15,79,81,31,2.1,2.13,0.45,0.48,2.55,2.61
8,2021,15666,California Ave & Lake St,41.884459,-87.69629016666667,42,33,72,64,114,97,31,1.35,1.06,2.32,2.06,3.68,3.13
8,2021,20123,Western Ave & 104th St,41.704607,-87.68106916666666,32,13,10,7,42,20,22,1.45,0.59,0.45,0.32,1.91,0.91
8,2021,KA1503000052,Ellis Ave & 53rd St,41.79933626261,-87.6009581145,146,146,542,542,688,688,31,4.71,4.71,17.48,17.48,22.19,22.19
8,2021,580,Exchange Ave & 79th St,41.751731,-87.552812,11,10,15,13,26,23,18,0.61,0.56,0.83,0.72,1.44,1.28
8,2021,TA1309000063,Lake Park Ave & 56th St,41.793242,-87.587782,148,146,617,622,765,768,31,4.77,4.71,19.9,20.06,24.68,24.77
8,2021,13164,Racine Ave & 18th St,41.858166,-87.656495,383,378,691,700,1074,1078,31,12.35,12.19,22.29,22.58,34.65,34.77
8,2021,360,Kilbourn & Roscoe,41.94,-87.74,35,31,0,0,35,31,18,1.94,1.72,0.0,0.0,1.94,1.72
8,2021,15491,63rd St Beach,41.78091096424803,-87.57632374763489,70,65,170,194,240,259,31,2.26,2.1,5.48,6.26,7.74,8.35
8,2021,13353,Ada St & Washington Blvd,41.88283,-87.661206,291,287,944,936,1235,1223,32,9.09,8.97,29.5,29.25,38.59,38.22
8,2021,TA1307000121,Halsted St & Polk St,41.87184,-87.64664,237,236,1061,1061,1298,1297,31,7.65,7.61,34.23,34.23,41.87,41.84
8,2021,13303,Clark St & Chicago Ave,41.89675,-87.63089,504,501,1611,1573,2115,2074,31,16.26,16.16,51.97,50.74,68.23,66.9
8,2021,SL-011,Wells St & Polk St,41.872596,-87.633502,512,510,1255,1268,1767,1778,32,16.0,15.94,39.22,39.62,55.22,55.56
8,2021,TA1309000042,Lincoln Ave & Belmont Ave,41.939365,-87.668385,348,345,1291,1297,1639,1642,31,11.23,11.13,41.65,41.84,52.87,52.97
8,2021,TA1307000151,Wells St & Hubbard St,41.889906,-87.634266,800,792,2449,2410,3249,3202,31,25.81,25.55,79.0,77.74,104.81,103.29
8,2021,13265,Kingsbury St & Erie St,41.89380805624359,-87.64169722795485,644,642,2125,2103,2769,2745,31,20.77,20.71,68.55,67.84,89.32,88.55
8,2021,13158,Peoria St & Jackson Blvd,41.877642,-87.649618,558,548,1720,1672,2278,2220,31,18.0,17.68,55.48,53.94,73.48,71.61
8,2021,KA1503000071,University Ave & 57th St,41.791478,-87.599861,294,284,1010,1001,1304,1285,31,9.48,9.16,32.58,32.29,42.06,41.45
8,2021,13247,Ashland Ave & Chicago Ave,41.895966,-87.667747,421,414,1048,1068,1469,1482,31,13.58,13.35,33.81,34.45,47.39,47.81
8,2021,15689,California Ave & 23rd Pl,41.84910969176,-87.6951398068,32,31,65,66,97,97,31,1.03,1.0,2.1,2.13,3.13,3.13
8,2021,15534,Field Blvd & South Water St,41.88634906269,-87.6175165471,584,564,1309,1386,1893,1950,31,18.84,18.19,42.23,44.71,61.06,62.9
8,2021,15634,Western Ave & Roscoe St,41.943034,-87.687288,108,110,282,316,390,426,31,3.48,3.55,9.1,10.19,12.58,13.74
8,2021,16933,Morgan St & Pershing Rd,41.823613,-87.650931,0,0,13,26,13,26,20,0.0,0.0,0.65,1.3,0.65,1.3
8,2021,13135,Blue Island Ave & 18th St,41.857556,-87.661535,230,226,485,517,715,743,31,7.42,7.29,15.65,16.68,23.06,23.97
8,2021,WL-008,Clinton St & Roosevelt Rd,41.867069,-87.64099333333333,322,316,804,827,1126,1143,31,10.39,10.19,25.94,26.68,36.32,36.87
8,2021,15445,Wentworth Ave & 33rd St,41.8345715,-87.63175466666667,72,69,304,318,376,387,31,2.32,2.23,9.81,10.26,12.13,12.48
8,2021,LF-005,DuSable Lake Shore Dr & North Blvd,41.911722,-87.626804,1490,1608,6868,8209,8358,9817,31,48.06,51.87,221.55,264.81,269.61,316.68
8,2021,TA1305000032,Clinton St & Madison St,41.882242,-87.641066,745,737,2339,2352,3084,3089,31,24.03,23.77,75.45,75.87,99.48,99.65
8,2021,644,Western Ave & Fillmore St,41.868563,-87.686234,291,299,332,339,623,638,31,9.39,9.65,10.71,10.94,20.1,20.58
8,2021,13028,900 W Harrison St,41.87470983333333,-87.649808,217,217,817,804,1034,1021,32,6.78,6.78,25.53,25.12,32.31,31.91
8,2021,TA1307000130,Morgan St & Polk St,41.871737,-87.65103,211,208,972,965,1183,1173,31,6.81,6.71,31.35,31.13,38.16,37.84
8,2021,TA1305000001,Wabash Ave & Cermak Rd,41.852619,-87.626488,161,151,389,407,550,558,31,5.19,4.87,12.55,13.13,17.74,18.0
8,2021,20121,Loomis Blvd & 84th St,41.74148652861805,-87.65841007232666,30,21,23,17,53,38,24,1.25,0.88,0.96,0.71,2.21,1.58
8,2021,520,Greenview Ave & Jarvis Ave,42.015962,-87.66857,110,112,324,290,434,402,31,3.55,3.61,10.45,9.35,14.0,12.97
8,2021,RP-002,Warren Park East,42.00455316666667,-87.68065966666667,70,69,103,119,173,188,31,2.26,2.23,3.32,3.84,5.58,6.06
8,2021,KA1504000167,Kedzie Ave & Bryn Mawr Ave,41.98239708485,-87.7089225202,36,34,99,107,135,141,31,1.16,1.1,3.19,3.45,4.35,4.55
8,2021,TA1308000036,Indiana Ave & 31st St,41.838842,-87.621857,72,61,383,354,455,415,31,2.32,1.97,12.35,11.42,14.68,13.39
8,2021,TA1307000158,Damen Ave & Leland Ave,41.967094,-87.679028,222,223,553,537,775,760,31,7.16,7.19,17.84,17.32,25.0,24.52
8,2021,20234,Ashland Ave & 78th St,41.75220484941116,-87.66369938850403,19,8,8,8,27,16,20,0.95,0.4,0.4,0.4,1.35,0.8
8,2021,TA1307000144,Wolcott (Ravenswood) Ave & Montrose Ave,41.961406,-87.676169,234,238,486,481,720,719,31,7.55,7.68,15.68,15.52,23.23,23.19
8,2021,13033,Milwaukee Ave & Grand Ave,41.891578,-87.648384,770,722,2038,1967,2808,2689,31,24.84,23.29,65.74,63.45,90.58,86.74
8,2021,TA1308000047,Southport Ave & Clark St,41.957081,-87.664199,106,103,390,406,496,509,31,3.42,3.32,12.58,13.1,16.0,16.42
8,2021,TA1309000021,Paulina St & Montrose Ave,41.96148583333333,-87.6713735,103,104,376,375,479,479,31,3.32,3.35,12.13,12.1,15.45,15.45
8,2021,13319,Ashland Ave & Grace St,41.950687,-87.6687,283,274,759,750,1042,1024,31,9.13,8.84,24.48,24.19,33.61,33.03
8,2021,596,Benson Ave & Church St,42.048214,-87.683485,196,202,622,634,818,836,31,6.32,6.52,20.06,20.45,26.39,26.97
8,2021,639,Lakefront Trail & Wilson Ave,41.965845,-87.645361,255,252,1301,1302,1556,1554,31,8.23,8.13,41.97,42.0,50.19,50.13
8,2021,582,Phillips Ave & 83rd St,41.744531,-87.56506,16,9,13,10,29,19,16,1.0,0.56,0.81,0.62,1.81,1.19
8,2021,TA1309000051,Commercial Ave & 83rd St,41.744615,-87.551208,11,10,7,6,18,16,16,0.69,0.62,0.44,0.38,1.12,1.0
8,2021,15449,State St & Pershing Rd,41.82305466666666,-87.626579,18,17,32,33,50,50,27,0.67,0.63,1.19,1.22,1.85,1.85
8,2021,15664,Artesian Ave & Hubbard St,41.88949181977,-87.6882193648,124,114,196,161,320,275,31,4.0,3.68,6.32,5.19,10.32,8.87
8,2021,13037,Clinton St & Tilden St,41.875885,-87.640795,126,99,357,337,483,436,31,4.06,3.19,11.52,10.87,15.58,14.06
8,2021,20243,Michigan Ave & 114th St,41.68701479467118,-87.62105226516724,14,10,3,4,17,14,14,1.0,0.71,0.21,0.29,1.21,1.0
8,2021,20207,Major Taylor Trail & 115th St,41.684994333333336,-87.645268,35,27,4,3,39,30,19,1.84,1.42,0.21,0.16,2.05,1.58
8,2021,20126,S Aberdeen St & W 106th St,41.7,-87.65,23,18,0,0,23,18,13,1.77,1.38,0.0,0.0,1.77,1.38
8,2021,20251.0,N Carpenter St & W Lake St,41.89,-87.65,20,13,0,0,20,13,13,1.54,1.0,0.0,0.0,1.54,1.0
8,2021,20125,Halsted St & 104th St,41.705184,-87.64239866666667,41,21,0,2,41,23,25,1.64,0.84,0.0,0.08,1.64,0.92
8,2021,631,Malcolm X College Vaccination Site,41.877618,-87.673895,84,47,198,143,282,190,31,2.71,1.52,6.39,4.61,9.1,6.13
8,2021,20238,Greenwood Ave & 97th St,41.71870315475741,-87.59703576564789,35,33,14,12,49,45,28,1.25,1.18,0.5,0.43,1.75,1.61
8,2021,13326,Canal St & Harrison St,41.874274166666666,-87.63955583333333,112,78,340,282,452,360,31,3.61,2.52,10.97,9.1,14.58,11.61
8,2021,13155,Racine Ave & Randolph St,41.88404766666667,-87.65697383333334,238,213,584,527,822,740,31,7.68,6.87,18.84,17.0,26.52,23.87
8,2021,KA1503000031,Cottage Grove Ave & 67th St,41.773721,-87.605635,4,5,46,49,50,54,28,0.14,0.18,1.64,1.75,1.79,1.93
8,2021,15687,Central Park Ave & 24th St,41.8481,-87.715068,17,9,12,12,29,21,19,0.89,0.47,0.63,0.63,1.53,1.11
8,2021,TA1309000015,Leavitt St & Lawrence Ave,41.968885,-87.684001,109,107,314,306,423,413,31,3.52,3.45,10.13,9.87,13.65,13.32
8,2021,KA1504000086,Kedzie Ave & 24th St,41.84819094491,-87.7054137458,8,8,19,28,27,36,22,0.36,0.36,0.86,1.27,1.23,1.64
8,2021,534,Karlov Ave & Madison St,41.88085,-87.727907,23,12,13,8,36,20,19,1.21,0.63,0.68,0.42,1.89,1.05
8,2021,TA1305000025,Franklin St & Jackson Blvd,41.8777079559,-87.6353211408,607,601,1640,1633,2247,2234,31,19.58,19.39,52.9,52.68,72.48,72.06
8,2021,TA1307000038,Sedgwick St & North Ave,41.91128633333334,-87.63867533333334,463,458,2039,2043,2502,2501,31,14.94,14.77,65.77,65.9,80.71,80.68
8,2021,554,Damen Ave & 51st St,41.800908,-87.674684,1,1,11,8,12,9,13,0.08,0.08,0.85,0.62,0.92,0.69
8,2021,594,Western Blvd & 48th Pl,41.805661,-87.683392,19,19,28,41,47,60,30,0.63,0.63,0.93,1.37,1.57,2.0
8,2021,20235,Greenwood Ave & 91st St,41.728264268162725,-87.59729862213135,5,5,8,10,13,15,16,0.31,0.31,0.5,0.62,0.81,0.94
8,2021,KA1503000068,Leavitt St & Archer Ave,41.82879201994,-87.6806044594,21,20,82,58,103,78,31,0.68,0.65,2.65,1.87,3.32,2.52
8,2021,15546,Calumet Ave & 21st St,41.85418424947,-87.6191537415,149,145,414,385,563,530,31,4.81,4.68,13.35,12.42,18.16,17.1
8,2021,16932,Ashland Ave & Pershing Rd,41.823465,-87.665577,19,13,36,39,55,52,30,0.63,0.43,1.2,1.3,1.83,1.73
8,2021,KA1504000079,Larrabee St & Division St,41.90348607004,-87.6433534936,411,403,1235,1279,1646,1682,31,13.26,13.0,39.84,41.26,53.1,54.26
8,2021,518,Conservatory Dr & Lake St,41.885502,-87.716866,56,54,80,74,136,128,31,1.81,1.74,2.58,2.39,4.39,4.13
8,2021,599,Valli Produce - Evanston Plaza,42.039742,-87.699413,72,73,75,85,147,158,31,2.32,2.35,2.42,2.74,4.74,5.1
8,2021,15530,Rush St & Superior St,41.89576474564,-87.6259080327,699,692,2031,1956,2730,2648,31,22.55,22.32,65.52,63.1,88.06,85.42
8,2021,20254.0,W Armitage Ave & N Sheffield Ave,41.92,-87.65,152,102,0,0,152,102,30,5.07,3.4,0.0,0.0,5.07,3.4
8,2021,18062,Aberdeen St & Randolph St,41.884114,-87.654264,417,406,1019,1041,1436,1447,31,13.45,13.1,32.87,33.58,46.32,46.68
8,2021,13056,Canal St & Monroe St,41.881596,-87.63922283333333,290,273,906,826,1196,1099,31,9.35,8.81,29.23,26.65,38.58,35.45
8,2021,TA1309000024,Clark St & Schiller St,41.907993,-87.631501,662,648,2579,2479,3241,3127,31,21.35,20.9,83.19,79.97,104.55,100.87
8,2021,13278,Broadway & Cornelia Ave,41.945529,-87.646439,766,751,2458,2398,3224,3149,31,24.71,24.23,79.29,77.35,104.0,101.58
8,2021,13154,Sheffield Ave & Kingsbury St,41.910522,-87.653106,461,456,1572,1564,2033,2020,31,14.87,14.71,50.71,50.45,65.58,65.16
8,2021,556,Throop St & 52nd St,41.799659,-87.657195,5,6,10,14,15,20,18,0.28,0.33,0.56,0.78,0.83,1.11
8,2021,16948,Ashland Ave & 63rd St,41.7793725,-87.6649875,24,18,11,15,35,33,26,0.92,0.69,0.42,0.58,1.35,1.27
8,2021,13053,Green St & Randolph St,41.883668,-87.64867,868,865,2716,2697,3584,3562,31,28.0,27.9,87.61,87.0,115.61,114.9
8,2021,TA1305000039,Elston Ave & Cortland St,41.91643342912655,-87.66674637794495,330,313,966,917,1296,1230,31,10.65,10.1,31.16,29.58,41.81,39.68
8,2021,TA1307000111,Franklin St & Lake St,41.885575,-87.6357775,566,558,1563,1522,2129,2080,31,18.26,18.0,50.42,49.1,68.68,67.1
8,2021,15535,Desplaines St & Randolph St,41.88461618962,-87.6445705849,471,473,1320,1338,1791,1811,31,15.19,15.26,42.58,43.16,57.77,58.42
8,2021,16950,Ashland Ave & 66th St,41.77411466666667,-87.66376733333334,14,13,4,5,18,18,16,0.88,0.81,0.25,0.31,1.12,1.12
8,2021,13259,California Ave & Francis Pl (Temp),41.91849115368695,-87.69742280244827,251,244,445,467,696,711,31,8.1,7.87,14.35,15.06,22.45,22.94
8,2021,13288,Damen Ave & Charleston St,41.920101333333335,-87.67784333333333,254,247,648,650,902,897,31,8.19,7.97,20.9,20.97,29.1,28.94
8,2021,RP-005,Western Ave & Lunt Ave,42.008594,-87.690492,103,103,96,136,199,239,31,3.32,3.32,3.1,4.39,6.42,7.71
8,2021,15446,Racine Ave & 35th St,41.830696,-87.655976,37,39,93,77,130,116,31,1.19,1.26,3.0,2.48,4.19,3.74
8,2021,KA1504000129,Western Ave & Granville Ave,41.99416136902,-87.689438282,96,82,113,139,209,221,31,3.1,2.65,3.65,4.48,6.74,7.13
8,2021,15644,Central Park Ave & Elbridge Ave,41.93533728263,-87.7168892935,136,138,176,183,312,321,31,4.39,4.45,5.68,5.9,10.06,10.35
8,2021,RP-006,Ridge Blvd & Touhy Ave,42.01213227742,-87.6829126443,32,33,70,59,102,92,30,1.07,1.1,2.33,1.97,3.4,3.07
8,2021,13354,Ashland Ave & 13th St,41.86528416666667,-87.666564,121,124,286,310,407,434,31,3.9,4.0,9.23,10.0,13.13,14.0
8,2021,TA1306000014,Wilton Ave & Diversey Pkwy,41.932418,-87.652705,559,547,2350,2188,2909,2735,31,18.03,17.65,75.81,70.58,93.84,88.23
8,2021,SL-010,Financial Pl & Ida B Wells Dr,41.8750236280333,-87.6330940425396,207,205,615,601,822,806,31,6.68,6.61,19.84,19.39,26.52,26.0
8,2021,TA1307000142,Clark St & Drummond Pl,41.931248,-87.644336,594,595,2792,2829,3386,3424,31,19.16,19.19,90.06,91.26,109.23,110.45
8,2021,KA1706005007,Delano Ct & Roosevelt Rd,41.867491,-87.63219,236,221,639,589,875,810,31,7.61,7.13,20.61,19.0,28.23,26.13
8,2021,13296,Ashland Ave & Wrightwood Ave,41.92883,-87.668507,247,248,840,856,1087,1104,32,7.72,7.75,26.25,26.75,33.97,34.5
8,2021,13263,Columbus Dr & Randolph St,41.884728,-87.619521,771,758,1726,1721,2497,2479,31,24.87,24.45,55.68,55.52,80.55,79.97
8,2021,20256.0,N Sheffield Ave & W Wellington Ave,41.94,-87.65,43,42,0,0,43,42,24,1.79,1.75,0.0,0.0,1.79,1.75
8,2021,13146,Clark St & Armitage Ave,41.918306,-87.636282,919,910,3725,3665,4644,4575,31,29.65,29.35,120.16,118.23,149.81,147.58
8,2021,TA1307000066,Damen Ave & Coulter St,41.8492,-87.67564,35,31,48,54,83,85,31,1.13,1.0,1.55,1.74,2.68,2.74
8,2021,636,Orleans St & Hubbard St,41.890028,-87.636618,345,338,1091,1020,1436,1358,31,11.13,10.9,35.19,32.9,46.32,43.81
8,2021,13389,Clarendon Ave & Junior Ter,41.961004,-87.649603,517,509,1348,1349,1865,1858,31,16.68,16.42,43.48,43.52,60.16,59.94
8,2021,13294,Greenview Ave & Diversey Pkwy,41.93258963429789,-87.66593635082245,230,218,966,925,1196,1143,31,7.42,7.03,31.16,29.84,38.58,36.87
8,2021,TA1307000070,Damen Ave & Thomas St (Augusta Blvd),41.901356166666666,-87.6776705,278,258,980,827,1258,1085,31,8.97,8.32,31.61,26.68,40.58,35.0
8,2021,TA1307000120,Green St & Madison St,41.881892,-87.648789,1083,1085,2960,2924,4043,4009,31,34.94,35.0,95.48,94.32,130.42,129.32
8,2021,TA1308000013,Halsted St & Archer Ave,41.847203,-87.646795,48,39,175,162,223,201,31,1.55,1.26,5.65,5.23,7.19,6.48
8,2021,TA1307000039,Clark St & Elm St,41.902973,-87.63128,1246,1194,4132,4081,5378,5275,31,40.19,38.52,133.29,131.65,173.48,170.16
8,2021,TA1305000035,State St & Van Buren St,41.87717416666667,-87.6278235,259,229,710,694,969,923,31,8.35,7.39,22.9,22.39,31.26,29.77
8,2021,13290,Noble St & Milwaukee Ave,41.90068,-87.6626,297,289,991,971,1288,1260,31,9.58,9.32,31.97,31.32,41.55,40.65
8,2021,TA1308000046,Morgan St & 31st St,41.8378,-87.65114,142,143,325,346,467,489,31,4.58,4.61,10.48,11.16,15.06,15.77
8,2021,18022,Archer (Damen) Ave & 37th St,41.826712,-87.683144,13,14,37,39,50,53,29,0.45,0.48,1.28,1.34,1.72,1.83
8,2021,TA1309000001,Halsted St & Maxwell St,41.86480466666666,-87.647099,306,297,904,890,1210,1187,31,9.87,9.58,29.16,28.71,39.03,38.29
8,2021,TA1309000007,Franklin St & Monroe St,41.880317,-87.635185,531,507,1160,1142,1691,1649,31,17.13,16.35,37.42,36.84,54.55,53.19
8,2021,WL-011,Jefferson St & Monroe St,41.880422,-87.642746,317,313,1094,1075,1411,1388,32,9.91,9.78,34.19,33.59,44.09,43.38
8,2021,TA1305000030,Clark St & Randolph St,41.88426883333333,-87.631596,632,636,1455,1479,2087,2115,31,20.39,20.52,46.94,47.71,67.32,68.23
8,2021,20246.0,N Green St & W Lake St,41.89,-87.65,224,145,0,0,224,145,31,7.23,4.68,0.0,0.0,7.23,4.68
8,2021,TA1307000005,Indiana Ave & 26th St,41.845687,-87.622481,86,84,274,273,360,357,31,2.77,2.71,8.84,8.81,11.61,11.52
8,2021,TA1308000014,Normal Ave & Archer Ave,41.849527,-87.640591,19,17,168,131,187,148,31,0.61,0.55,5.42,4.23,6.03,4.77
8,2021,13345,Calumet Ave & 35th St,41.831379,-87.618034,65,54,215,201,280,255,31,2.1,1.74,6.94,6.48,9.03,8.23
8,2021,16806,Bosworth Ave & Howard St,42.019537,-87.669563,27,25,132,99,159,124,31,0.87,0.81,4.26,3.19,5.13,4.0
8,2021,351,Mulligan Ave & Wellington Ave,41.93,-87.78,49,39,0,0,49,39,24,2.04,1.62,0.0,0.0,2.04,1.62
8,2021,15632,Talman Ave & Addison St,41.946644166666665,-87.694634,209,214,249,323,458,537,31,6.74,6.9,8.03,10.42,14.77,17.32
8,2021,559,Racine Ave & Garfield Blvd,41.794228,-87.655073,7,4,19,17,26,21,17,0.41,0.24,1.12,1.0,1.53,1.24
8,2021,TA1309000053,Cottage Grove Ave & 47th St,41.809855,-87.606755,53,46,74,92,127,138,31,1.71,1.48,2.39,2.97,4.1,4.45
8,2021,KA1504000155,2112 W Peterson Ave,41.991178,-87.683593,52,54,86,96,138,150,31,1.68,1.74,2.77,3.1,4.45,4.84
8,2021,20211,Eberhart Ave & 131st St,41.65795983333334,-87.6108465,14,12,0,0,14,12,13,1.08,0.92,0.0,0.0,1.08,0.92
8,2021,537,Kenton Ave & Madison St,41.880708,-87.741018,9,8,8,6,17,14,20,0.45,0.4,0.4,0.3,0.85,0.7
8,2021,536,Kostner Ave & Lake St,41.885928,-87.73541,6,6,16,12,22,18,16,0.38,0.38,1.0,0.75,1.38,1.12
8,2021,KA1503000001,Shields Ave & 43rd St,41.8161935,-87.63478516666666,22,21,10,16,32,37,24,0.92,0.88,0.42,0.67,1.33,1.54
8,2021,TA1306000010,Daley Center Plaza,41.88417233333333,-87.62920066666666,613,615,1955,1874,2568,2489,31,19.77,19.84,63.06,60.45,82.84,80.29
8,2021,TA1309000010,Wabash Ave & 9th St,41.8707485,-87.62577716666667,500,499,1513,1484,2013,1983,31,16.13,16.1,48.81,47.87,64.94,63.97
8,2021,TA1306000015,Morgan St & Lake St,41.88548866666667,-87.6522495,964,953,2171,2265,3135,3218,31,31.1,30.74,70.03,73.06,101.13,103.81
8,2021,13427,Cityfront Plaza Dr & Pioneer Ct,41.89039816666666,-87.6220405,397,345,1244,1171,1641,1516,31,12.81,11.13,40.13,37.77,52.94,48.9
8,2021,TA1306000013,New St & Illinois St,41.89084704062381,-87.61861681938171,923,895,2705,2723,3628,3618,31,29.77,28.87,87.26,87.84,117.03,116.71
8,2021,15653,Troy St & North Ave,41.90976930169,-87.7052804871,114,96,326,298,440,394,31,3.68,3.1,10.52,9.61,14.19,12.71
8,2021,KA1503000075,DuSable Museum,41.791568,-87.607852,31,30,53,53,84,83,31,1.0,0.97,1.71,1.71,2.71,2.68
8,2021,13242,Milwaukee Ave & Rockwell St,41.92019556200566,-87.69265919923781,188,190,598,546,786,736,31,6.06,6.13,19.29,17.61,25.35,23.74
8,2021,13089,Damen Ave & Cullerton St,41.854963833333336,-87.6755935,175,171,279,332,454,503,31,5.65,5.52,9.0,10.71,14.65,16.23
8,2021,557,Seeley Ave & Garfield Blvd,41.7941445,-87.67551733333333,2,6,1,2,3,8,8,0.25,0.75,0.12,0.25,0.38,1.0
8,2021,13432,Wood St & Hubbard St,41.889899,-87.671473,209,192,562,546,771,738,31,6.74,6.19,18.13,17.61,24.87,23.81
8,2021,16913,Cicero Ave & Quincy St,41.87762116666666,-87.74538766666667,13,11,4,5,17,16,23,0.57,0.48,0.17,0.22,0.74,0.7
8,2021,RP-007,Clark St & Touhy Ave,42.01256011541,-87.6743671152,80,80,117,98,197,178,31,2.58,2.58,3.77,3.16,6.35,5.74
8,2021,560,Marshfield Ave & 59th St,41.786833,-87.666215,7,3,1,7,8,10,12,0.58,0.25,0.08,0.58,0.67,0.83
8,2021,KA1504000130,Maplewood Ave & Peterson Ave,41.990236,-87.69337,32,30,61,77,93,107,31,1.03,0.97,1.97,2.48,3.0,3.45
8,2021,13249,Ashland Ave & Belle Plaine Ave,41.956057,-87.668835,133,128,311,323,444,451,31,4.29,4.13,10.03,10.42,14.32,14.55
8,2021,354,Parkside Ave & Armitage Ave,41.92,-87.77,13,9,0,0,13,9,13,1.0,0.69,0.0,0.0,1.0,0.69
8,2021,20224,Calumet Park,41.71370983035615,-87.53084421157837,12,10,23,22,35,32,20,0.6,0.5,1.15,1.1,1.75,1.6
8,2021,KA1504000142,Drake Ave & Addison St,41.947326,-87.717582,53,54,76,90,129,144,31,1.71,1.74,2.45,2.9,4.16,4.65
8,2021,TA1308000031,Logan Blvd & Elston Ave,41.929465,-87.684158,357,356,563,691,920,1047,31,11.52,11.48,18.16,22.29,29.68,33.77
8,2021,TA1309000049,DuSable Lake Shore Dr & Belmont Ave,41.940775,-87.639192,795,778,3071,3047,3866,3825,31,25.65,25.1,99.06,98.29,124.71,123.39
8,2021,312,Lockwood Ave & Wrightwood Ave,41.93,-87.76,53,41,0,0,53,41,22,2.41,1.86,0.0,0.0,2.41,1.86
8,2021,15631,Troy St & Elston Ave,41.94524356848,-87.7066499009,116,118,232,254,348,372,31,3.74,3.81,7.48,8.19,11.23,12.0
8,2021,16906,Austin Blvd & Lake St,41.8878915,-87.774446,91,97,12,27,103,124,31,2.94,3.13,0.39,0.87,3.32,4.0
8,2021,20206,Homewood Ave & 115th St,41.6845335,-87.670749,17,12,3,5,20,17,13,1.31,0.92,0.23,0.38,1.54,1.31
8,2021,20103,Prospect Sq & 91st St,41.7282338,-87.6675239,31,26,14,17,45,43,25,1.24,1.04,0.56,0.68,1.8,1.72
8,2021,20205,Western Ave & 111th St,41.691211034981045,-87.68129736185074,40,18,11,14,51,32,24,1.67,0.75,0.46,0.58,2.12,1.33
8,2021,KA1503000045,Stony Island Ave & 71st St,41.7664929373,-87.5864608775,20,15,30,48,50,63,30,0.67,0.5,1.0,1.6,1.67,2.1
8,2021,KA1504000161,St. Louis Ave & Balmoral Ave,41.98039423475,-87.7161149615,56,55,67,72,123,127,31,1.81,1.77,2.16,2.32,3.97,4.1
8,2021,13215,Rhodes Ave & 32nd St,41.8367245,-87.61329066666667,150,145,334,334,484,479,31,4.84,4.68,10.77,10.77,15.61,15.45
8,2021,20109,Vernon Ave & 107th St,41.70012137923888,-87.61225998401642,14,11,9,6,23,17,18,0.78,0.61,0.5,0.33,1.28,0.94
8,2021,20129,Ada St & 113th St,41.687561623357375,-87.65547573566435,3,4,7,6,10,10,9,0.33,0.44,0.78,0.67,1.11,1.11
8,2021,KA1504000147,Winchester (Ravenswood) Ave & Balmoral Ave,41.979762,-87.67753,72,73,176,189,248,262,31,2.32,2.35,5.68,6.1,8.0,8.45
8,2021,15621,Albany Ave & Montrose Ave,41.961041,-87.705866,122,120,184,176,306,296,31,3.94,3.87,5.94,5.68,9.87,9.55
8,2021,TA1308000012,Montrose Harbor,41.963982,-87.638181,730,721,2735,2823,3465,3544,31,23.55,23.26,88.23,91.06,111.77,114.32
8,2021,KA1503000065,Woodlawn Ave & Lake Park Ave,41.814086333333336,-87.59701383333334,66,63,139,127,205,190,31,2.13,2.03,4.48,4.1,6.61,6.13
8,2021,605,University Library (NU),42.052939,-87.673447,62,59,241,251,303,310,31,2.0,1.9,7.77,8.1,9.77,10.0
8,2021,13059,Bissell St & Armitage Ave,41.91844,-87.65222,547,543,2388,2433,2935,2976,31,17.65,17.52,77.03,78.48,94.68,96.0
8,2021,13206,Loomis St & Jackson Blvd,41.877945,-87.662007,196,181,767,757,963,938,31,6.32,5.84,24.74,24.42,31.06,30.26
8,2021,TA1306000025,Racine Ave & Congress Pkwy,41.87464,-87.65703,125,92,538,447,663,539,31,4.03,2.97,17.35,14.42,21.39,17.39
8,2021,20127,Halsted St & 111th St,41.69226255589166,-87.64261186122894,15,13,10,3,25,16,24,0.62,0.54,0.42,0.12,1.04,0.67
8,2021,TA1309000033,Sheffield Ave & Webster Ave,41.92154,-87.653818,490,487,2022,2002,2512,2489,31,15.81,15.71,65.23,64.58,81.03,80.29
8,2021,13083,Indiana Ave & 40th St,41.82167266666666,-87.62141583333333,65,56,38,28,103,84,31,2.1,1.81,1.23,0.9,3.32,2.71
8,2021,583,Stony Island Ave & 82nd St,41.746559,-87.586005,20,23,13,16,33,39,24,0.83,0.96,0.54,0.67,1.38,1.62
8,2021,KA1504000146,Clark St & Berwyn Ave,41.97803566666666,-87.66807783333333,502,503,1067,1124,1569,1627,32,15.69,15.72,33.34,35.12,49.03,50.84
8,2021,13192,Halsted St & Dickens Ave,41.919936,-87.64883,584,581,2064,2134,2648,2715,31,18.84,18.74,66.58,68.84,85.42,87.58
8,2021,TA1307000161,Halsted St & 37th St,41.82715216666666,-87.645796,31,30,74,87,105,117,28,1.11,1.07,2.64,3.11,3.75,4.18
8,2021,TA1305000020,Ogden Ave & Chicago Ave,41.896362458,-87.6540612729,495,488,1314,1258,1809,1746,31,15.97,15.74,42.39,40.58,58.35,56.32
8,2021,20110,Eberhart Ave & 91st St,41.729285157254864,-87.6110315322876,9,6,16,19,25,25,24,0.38,0.25,0.67,0.79,1.04,1.04
8,2021,13073,Ashland Ave & Lake St,41.88592616666666,-87.66718533333334,162,143,451,445,613,588,32,5.06,4.47,14.09,13.91,19.16,18.38
8,2021,652,Rhodes Ave & 71st St,41.766,-87.611726,6,5,16,15,22,20,17,0.35,0.29,0.94,0.88,1.29,1.18
8,2021,655,Hoyne Ave & Balmoral Ave,41.979851,-87.681932,104,109,239,253,343,362,31,3.35,3.52,7.71,8.16,11.06,11.68
8,2021,KA1503000074,Museum of Science and Industry,41.79172820953,-87.583945009,166,161,499,439,665,600,31,5.35,5.19,16.1,14.16,21.45,19.35
8,2021,TA1308000035,Lake Park Ave & 47th St,41.809443,-87.591875,134,134,252,245,386,379,31,4.32,4.32,8.13,7.9,12.45,12.23
8,2021,KA1503000028,Jeffery Blvd & 76th St,41.75712006802,-87.5758393587,16,13,15,14,31,27,23,0.7,0.57,0.65,0.61,1.35,1.17
8,2021,16921,Austin Blvd & Chicago Ave,41.894887,-87.774704,49,52,16,11,65,63,28,1.75,1.86,0.57,0.39,2.32,2.25
8,2021,16905,Central Ave & Lake St,41.887664,-87.765469,23,17,14,12,37,29,25,0.92,0.68,0.56,0.48,1.48,1.16
8,2021,549,Marshfield Ave & 44th St,41.813996,-87.666589,29,27,34,26,63,53,29,1.0,0.93,1.17,0.9,2.17,1.83
8,2021,15585,Budlong Woods Library,41.98366470886,-87.6964225611,54,54,68,79,122,133,31,1.74,1.74,2.19,2.55,3.94,4.29
8,2021,KA1503000066,Wood St & 35th St,41.83015683333333,-87.67045933333333,23,21,52,57,75,78,31,0.74,0.68,1.68,1.84,2.42,2.52
8,2021,KA1504000171,Marine Dr & Ainslie St,41.9716,-87.650154,380,378,981,966,1361,1344,31,12.26,12.19,31.65,31.16,43.9,43.35
8,2021,15597,Halsted St & 69th St,41.76906172032,-87.6446135779,2,2,10,8,12,10,17,0.12,0.12,0.59,0.47,0.71,0.59
8,2021,13420,MLK Jr Dr & Pershing Rd,41.8246,-87.61678,77,75,126,124,203,199,31,2.48,2.42,4.06,4.0,6.55,6.42
8,2021,649,Stewart Ave & 63rd St,41.779835,-87.634774,10,8,20,19,30,27,22,0.45,0.36,0.91,0.86,1.36,1.23
8,2021,KA1503000055,Halsted & 63rd - Kennedy-King Vaccination Site,41.779381,-87.644621,10,9,27,13,37,22,25,0.4,0.36,1.08,0.52,1.48,0.88
8,2021,TA1308000021,Winthrop Ave & Lawrence Ave,41.968812,-87.657659,324,325,616,612,940,937,31,10.45,10.48,19.87,19.74,30.32,30.23
8,2021,KA1504000113,Sacramento Blvd & Franklin Blvd,41.89046879243862,-87.70260751247406,6,7,39,32,45,39,23,0.26,0.3,1.7,1.39,1.96,1.7
8,2021,KA1504000078,Lincoln Ave & Winona St,41.97491129677,-87.6925025594,169,168,199,251,368,419,32,5.28,5.25,6.22,7.84,11.5,13.09
8,2021,TA1306000029,DuSable Lake Shore Dr & Ohio St,41.89257,-87.614492,744,730,2215,2230,2959,2960,31,24.0,23.55,71.45,71.94,95.45,95.48
8,2021,13163,Morgan St & 18th St,41.85805783333333,-87.65114933333334,245,248,452,482,697,730,31,7.9,8.0,14.58,15.55,22.48,23.55
8,2021,592,Knox Ave & Montrose Ave,41.960631,-87.745359,51,41,43,54,94,95,31,1.65,1.32,1.39,1.74,3.03,3.06
8,2021,13341,Canal St & Madison St,41.882091,-87.639833,401,404,1355,1312,1756,1716,31,12.94,13.03,43.71,42.32,56.65,55.35
8,2021,13338,Mies van der Rohe Way & Chicago Ave,41.89691,-87.621743,557,550,1813,1798,2370,2348,31,17.97,17.74,58.48,58.0,76.45,75.74
8,2021,KA1503000010,Halsted St & 51st St,41.80183164049,-87.645213904,4,4,7,11,11,15,12,0.33,0.33,0.58,0.92,0.92,1.25
8,2021,TA1307000044,Clinton St & 18th St,41.85795,-87.640826,128,125,258,278,386,403,31,4.13,4.03,8.32,8.97,12.45,13.0
8,2021,TA1307000164,Woodlawn Ave & 55th St,41.795264,-87.596471,222,200,550,504,772,704,31,7.16,6.45,17.74,16.26,24.9,22.71
8,2021,KA1503000014,Ellis Ave & 60th St,41.78509714636,-87.6010727606,182,177,1144,1162,1326,1339,31,5.87,5.71,36.9,37.48,42.77,43.19
8,2021,TA1307000061,State St & Pearson St,41.897448,-87.628722,399,387,1231,1071,1630,1458,31,12.87,12.48,39.71,34.55,52.58,47.03
8,2021,327,Plainfield & Irving Park,41.95,-87.83,25,21,0,0,25,21,7,3.57,3.0,0.0,0.0,3.57,3.0
8,2021,KA1504000162,Clark St & Lunt Ave,42.009074,-87.67419,156,155,243,212,399,367,31,5.03,5.0,7.84,6.84,12.87,11.84
8,2021,662,Dodge Ave & Mulford St,42.023713,-87.699645,35,34,35,45,70,79,30,1.17,1.13,1.17,1.5,2.33,2.63
8,2021,515,Paulina St & Howard St,42.019159,-87.673573,93,92,156,184,249,276,31,3.0,2.97,5.03,5.94,8.03,8.9
8,2021,13221,Wood St & Milwaukee Ave,41.907655,-87.672552,683,676,1808,1866,2491,2542,31,22.03,21.81,58.32,60.19,80.35,82.0
8,2021,13011,Canal St & Adams St,41.879255,-87.639904,637,601,1664,1643,2301,2244,31,20.55,19.39,53.68,53.0,74.23,72.39
8,2021,13084,California Ave & Milwaukee Ave,41.92267383333333,-87.69717633333333,607,598,1082,1089,1689,1687,31,19.58,19.29,34.9,35.13,54.48,54.42
8,2021,13271,Damen Ave & Clybourn Ave,41.931931,-87.677856,248,254,515,562,763,816,31,8.0,8.19,16.61,18.13,24.61,26.32
8,2021,TA1305000034,Honore St & Division St,41.90314433333333,-87.67384316666667,556,559,1191,1241,1747,1800,31,17.94,18.03,38.42,40.03,56.35,58.06
8,2021,20203,Lawndale Ave & 111th St,41.69131919221066,-87.71288573741913,19,14,14,18,33,32,24,0.79,0.58,0.58,0.75,1.38,1.33
8,2021,20105,Halsted St & 96th St,41.71967466666667,-87.64284549999999,12,11,3,4,15,15,17,0.71,0.65,0.18,0.24,0.88,0.88
8,2021,TA1308000043,Halsted St & 35th St,41.830661,-87.647172,90,87,163,173,253,260,31,2.9,2.81,5.26,5.58,8.16,8.39
8,2021,397,Narragansett Ave & School St,41.94,-87.79,32,34,0,0,32,34,21,1.52,1.62,0.0,0.0,1.52,1.62
8,2021,396,Central Ave & Roscoe St,41.94,-87.77,28,20,0,0,28,20,18,1.56,1.11,0.0,0.0,1.56,1.11
8,2021,13248,Ashland Ave & Augusta Blvd,41.89966016666666,-87.66848083333333,307,309,868,871,1175,1180,31,9.9,9.97,28.0,28.1,37.9,38.06
8,2021,15648,Campbell Ave & Fullerton Ave,41.92463247165,-87.6893070063,171,168,364,363,535,531,31,5.52,5.42,11.74,11.71,17.26,17.13
8,2021,15667,Western Ave & Monroe St,41.87976366666667,-87.6860585,116,98,246,245,362,343,31,3.74,3.16,7.94,7.9,11.68,11.06
8,2021,TA1309000058,Lincoln Ave & Fullerton Ave,41.925905,-87.64926,856,858,3066,3105,3922,3963,32,26.75,26.81,95.81,97.03,122.56,123.84
8,2021,13050,State St & Kinzie St,41.8892055,-87.627837,737,730,1996,1998,2733,2728,31,23.77,23.55,64.39,64.45,88.16,88.0
8,2021,TA1307000048,Fort Dearborn Dr & 31st St,41.838556,-87.608218,274,266,1090,1047,1364,1313,31,8.84,8.58,35.16,33.77,44.0,42.35
8,2021,TA1308000022,Pine Grove Ave & Irving Park Rd,41.95430133333333,-87.647923,628,622,1706,1710,2334,2332,31,20.26,20.06,55.03,55.16,75.29,75.23
8,2021,KA1503000004,Lake Park Ave & 35th St,41.831274,-87.608799,117,111,265,262,382,373,31,3.77,3.58,8.55,8.45,12.32,12.03
8,2021,322,Cicero Ave & Grace St,41.95,-87.75,10,10,0,0,10,10,12,0.83,0.83,0.0,0.0,0.83,0.83
8,2021,16916,Central Ave & Madison St,41.880121,-87.763238,6,7,31,39,37,46,29,0.21,0.24,1.07,1.34,1.28,1.59
8,2021,13124,Cannon Dr & Fullerton Ave,41.926756,-87.634429,192,179,857,820,1049,999,31,6.19,5.77,27.65,26.45,33.84,32.23
8,2021,20213,Commercial Ave & 130th St,41.65916133333333,-87.55079683333334,16,15,6,1,22,16,17,0.94,0.88,0.35,0.06,1.29,0.94
8,2021,20214,Avenue O & 134th St,41.6519595,-87.53955066666667,20,12,1,5,21,17,14,1.43,0.86,0.07,0.36,1.5,1.21
8,2021,593,Halsted St & 59th St,41.787539,-87.644874,1,1,7,11,8,12,13,0.08,0.08,0.54,0.85,0.62,0.92
8,2021,519,Wolcott Ave & Fargo Ave,42.016977,-87.677725,29,31,42,30,71,61,29,1.0,1.07,1.45,1.03,2.45,2.1
8,2021,KA1503000073,MLK Jr Dr & 56th St,41.79342945658,-87.6158532619,15,9,58,35,73,44,28,0.54,0.32,2.07,1.25,2.61,1.57
8,2021,15651,Humboldt Blvd & Armitage Ave,41.91751339399,-87.7018089555,343,329,617,546,960,875,32,10.72,10.28,19.28,17.06,30.0,27.34
8,2021,13096,California Ave & 21st St,41.8538040657915,-87.69574239850043,79,82,134,138,213,220,31,2.55,2.65,4.32,4.45,6.87,7.1
8,2021,590,Kilbourn Ave & Irving Park Rd,41.953733,-87.740569,33,34,38,37,71,71,29,1.14,1.17,1.31,1.28,2.45,2.45
8,2021,15643,Kosciuszko Park,41.93044983333333,-87.72380583333333,130,132,212,227,342,359,31,4.19,4.26,6.84,7.32,11.03,11.58
8,2021,564,Racine Ave & 65th St,41.775393,-87.654308,2,4,6,1,8,5,11,0.18,0.36,0.55,0.09,0.73,0.45
8,2021,20228,Constance Ave & 95th St,41.72229074095262,-87.57896840572357,6,6,16,10,22,16,14,0.43,0.43,1.14,0.71,1.57,1.14
8,2021,SL-005,Indiana Ave & Roosevelt Rd,41.867888,-87.623041,930,913,2754,2860,3684,3773,31,30.0,29.45,88.84,92.26,118.84,121.71
8,2021,577,Stony Island Ave & South Chicago Ave,41.751173,-87.585337,5,4,14,8,19,12,19,0.26,0.21,0.74,0.42,1.0,0.63
8,2021,665,South Chicago Ave & Elliot Ave,41.747363,-87.580046,4,2,1,2,5,4,5,0.8,0.4,0.2,0.4,1.0,0.8
8,2021,15692,California Ave & 26th St,41.844058833333335,-87.695358,37,36,15,16,52,52,29,1.28,1.24,0.52,0.55,1.79,1.79
8,2021,KA1503000025,Wentworth Ave & 63rd St,41.78005616666667,-87.629786,51,52,20,13,71,65,31,1.65,1.68,0.65,0.42,2.29,2.1
8,2021,329.0,Central Park Ave & Douglas Blvd,41.86,-87.72,12,3,0,0,12,3,7,1.71,0.43,0.0,0.0,1.71,0.43
8,2021,KA1503000029,South Shore Dr & 67th St,41.773643,-87.567514,48,50,90,91,138,141,31,1.55,1.61,2.9,2.94,4.45,4.55
8,2021,20245,Ashland Ave & 74th St,41.75923602425868,-87.66347408294678,12,9,9,9,21,18,23,0.52,0.39,0.39,0.39,0.91,0.78
8,2021,364.0,Homan Ave & Fillmore St,41.87,-87.71,25,24,0,0,25,24,23,1.09,1.04,0.0,0.0,1.09,1.04
8,2021,571,Vernon Ave & 75th St,41.758361,-87.614138,15,13,7,5,22,18,21,0.71,0.62,0.33,0.24,1.05,0.86
8,2021,637,Wood St & Chicago Ave,41.895634,-87.672069,326,329,706,747,1032,1076,31,10.52,10.61,22.77,24.1,33.29,34.71
8,2021,13006,LaSalle St & Washington St,41.882664,-87.63253,407,401,834,838,1241,1239,31,13.13,12.94,26.9,27.03,40.03,39.97
8,2021,TA1308000002,Greenwood Ave & 47th St,41.809750666666666,-87.59940183333333,98,98,200,194,298,292,31,3.16,3.16,6.45,6.26,9.61,9.42
8,2021,15470,Calumet Ave & 51st St,41.802295,-87.618054,39,38,76,64,115,102,31,1.26,1.23,2.45,2.06,3.71,3.29
8,2021,585,Cottage Grove Ave & 83rd St,41.743441,-87.604836,12,14,19,16,31,30,23,0.52,0.61,0.83,0.7,1.35,1.3
8,2021,KA17018068,Leavitt St & Belmont Ave,41.939354,-87.683282,207,183,456,469,663,652,31,6.68,5.9,14.71,15.13,21.39,21.03
8,2021,20118,Eggleston Ave & 92nd St,41.727588833333336,-87.6348995,59,54,1,5,60,59,28,2.11,1.93,0.04,0.18,2.14,2.11
8,2021,562,Racine Ave & 61st St,41.783189,-87.654372,2,1,10,16,12,17,15,0.13,0.07,0.67,1.07,0.8,1.13
8,2021,SL-006,Wells St & 19th St,41.856802,-87.633879,90,85,230,242,320,327,31,2.9,2.74,7.42,7.81,10.32,10.55
8,2021,TA1306000009,Larrabee St & Kingsbury St,41.897764,-87.642884,661,642,1562,1511,2223,2153,31,21.32,20.71,50.39,48.74,71.71,69.45
8,2021,598,Elmwood Ave & Austin St,42.025784,-87.684107,52,45,111,96,163,141,31,1.68,1.45,3.58,3.1,5.26,4.55
8,2021,13001,Michigan Ave & Washington St,41.8839840647265,-87.6246839761734,687,682,2152,2167,2839,2849,31,22.16,22.0,69.42,69.9,91.58,91.9
8,2021,KA1503000070,Harper Ave & 59th St,41.787968166666666,-87.58828166666666,97,96,274,261,371,357,31,3.13,3.1,8.84,8.42,11.97,11.52
8,2021,13160,May St & Taylor St,41.8694821,-87.6554864,253,244,1029,1007,1282,1251,31,8.16,7.87,33.19,32.48,41.35,40.35
8,2021,TA1307000115,Clybourn Ave & Division St,41.904613,-87.640552,177,172,792,724,969,896,32,5.53,5.38,24.75,22.62,30.28,28.0
8,2021,316,Lamon Ave & Belmont Ave,41.94,-87.75,52,45,0,0,52,45,24,2.17,1.88,0.0,0.0,2.17,1.88
8,2021,528,Pulaski Rd & Lake St,41.885409,-87.726491,32,29,17,16,49,45,26,1.23,1.12,0.65,0.62,1.88,1.73
8,2021,KA1504000102,Fairfield Ave & Roosevelt Rd,41.866624,-87.694521,36,23,47,45,83,68,26,1.38,0.88,1.81,1.73,3.19,2.62
8,2021,KA1504000101,Ogden Ave & Roosevelt Rd,41.8665205,-87.684537,48,42,176,166,224,208,31,1.55,1.35,5.68,5.35,7.23,6.71
8,2021,20130,Wentworth Ave & 104th St,41.705307996998194,-87.62921690940857,7,3,10,5,17,8,12,0.58,0.25,0.83,0.42,1.42,0.67
8,2021,13133,Damen Ave & Cortland St,41.915983,-87.677335,488,485,1511,1523,1999,2008,31,15.74,15.65,48.74,49.13,64.48,64.77
8,2021,398,Long & Irving Park,41.95,-87.76,56,54,0,0,56,54,20,2.8,2.7,0.0,0.0,2.8,2.7
8,2021,20212,Altgeld Gardens,41.657077,-87.59887266666667,14,10,1,0,15,10,13,1.08,0.77,0.08,0.0,1.15,0.77
8,2021,KA1504000110,Millard Ave & 26th St,41.84453112462163,-87.71592199802399,16,14,29,41,45,55,29,0.55,0.48,1.0,1.41,1.55,1.9
8,2021,16940,Ashland Ave & 50th St,41.803023,-87.664699,5,4,24,21,29,25,26,0.19,0.15,0.92,0.81,1.12,0.96
8,2021,584,Ellis Ave & 83rd St,41.744123,-87.599034,13,12,15,13,28,25,24,0.54,0.5,0.62,0.54,1.17,1.04
8,2021,13253,Lincoln Ave & Waveland Ave,41.948797,-87.675278,208,205,553,567,761,772,31,6.71,6.61,17.84,18.29,24.55,24.9
8,2021,KA1504000076,Ellis Ave & 55th St,41.794301,-87.60145,226,223,1160,1148,1386,1371,31,7.29,7.19,37.42,37.03,44.71,44.23
8,2021,TA1307000129,State St & 35th St,41.8310363140161,-87.62679755687714,128,121,408,433,536,554,31,4.13,3.9,13.16,13.97,17.29,17.87
8,2021,13276,Stockton Dr & Wrightwood Ave,41.93132,-87.638742,552,549,2150,2157,2702,2706,32,17.25,17.16,67.19,67.41,84.44,84.56
8,2021,TA1305000017,Halsted St & Roosevelt Rd,41.867324,-87.648625,87,82,528,525,615,607,31,2.81,2.65,17.03,16.94,19.84,19.58
8,2021,16912,Cicero Ave & Flournoy St,41.872131,-87.746619,7,2,9,6,16,8,17,0.41,0.12,0.53,0.35,0.94,0.47
8,2021,642,Latrobe Ave & Chicago Ave,41.8947395,-87.75680266666667,18,18,6,10,24,28,24,0.75,0.75,0.25,0.42,1.0,1.17
8,2021,20232,Big Marsh Park,41.685870666666666,-87.573765,22,19,7,9,29,28,12,1.83,1.58,0.58,0.75,2.42,2.33
8,2021,20237,Yates Blvd & 93rd St,41.726129666666665,-87.56629966666667,16,17,9,6,25,23,20,0.8,0.85,0.45,0.3,1.25,1.15
8,2021,KA1504000106,Kedzie Ave & Lake St,41.88460328501,-87.7063037436,47,45,44,50,91,95,30,1.57,1.5,1.47,1.67,3.03,3.17
8,2021,20208,Major Taylor Trail & 124th St,41.66872683333333,-87.6372635,20,18,4,6,24,24,11,1.82,1.64,0.36,0.55,2.18,2.18
8,2021,16970,Bennett Ave & 79th St,41.751785,-87.578496,7,4,6,6,13,10,14,0.5,0.29,0.43,0.43,0.93,0.71
8,2021,KA1504000082,Kedzie Ave & Harrison St,41.87359967462,-87.7048707493,17,16,31,29,48,45,29,0.59,0.55,1.07,1.0,1.66,1.55
8,2021,588,South Chicago Ave & 83rd St,41.74389716666667,-87.57524516666666,14,13,9,9,23,22,21,0.67,0.62,0.43,0.43,1.1,1.05
8,2021,16943,Ashland Ave & Garfield Blvd,41.792822,-87.664429,5,4,12,8,17,12,18,0.28,0.22,0.67,0.44,0.94,0.67
8,2021,16915,Central Ave & Harrison St,41.872993,-87.764499,18,10,12,14,30,24,21,0.86,0.48,0.57,0.67,1.43,1.14
8,2021,20134,Maryland Ave & 104th St,41.71,-87.6,13,7,0,0,13,7,11,1.18,0.64,0.0,0.0,1.18,0.64
8,2021,569,Woodlawn Ave & 75th St,41.75917916666667,-87.59579433333333,6,5,3,2,9,7,11,0.55,0.45,0.27,0.18,0.82,0.64
8,2021,20253.0,N Paulina St & Lincoln Ave,41.94,-87.67,11,11,0,0,11,11,12,0.92,0.92,0.0,0.0,0.92,0.92
8,2021,335.0,Komensky Ave & 31st St,41.84,-87.73,12,6,0,0,12,6,9,1.33,0.67,0.0,0.0,1.33,0.67
8,2021,368.0,Tripp Ave & 31st St,41.84,-87.73,12,12,0,0,12,12,11,1.09,1.09,0.0,0.0,1.09,1.09
8,2021,651,Michigan Ave & 71st St,41.76529816666667,-87.62167133333334,17,12,8,3,25,15,21,0.81,0.57,0.38,0.14,1.19,0.71
8,2021,20204,Kedzie Ave & 110th St,41.692390333333336,-87.70096733333334,16,7,11,9,27,16,15,1.07,0.47,0.73,0.6,1.8,1.07
8,2021,20202,W 103rd St & S Avers Ave,41.71,-87.72,20,9,0,0,20,9,12,1.67,0.75,0.0,0.0,1.67,0.75
8,2021,330.0,Keeler Ave & Roosevelt Rd,41.87,-87.73,20,8,0,0,20,8,14,1.43,0.57,0.0,0.0,1.43,0.57
8,2021,20106,Chicago State University,41.7189895,-87.6082695,21,12,14,14,35,26,23,0.91,0.52,0.61,0.61,1.52,1.13
8,2021,KA1503000051,Halsted St & 47th Pl,41.80820916666666,-87.645629,48,50,58,50,106,100,30,1.6,1.67,1.93,1.67,3.53,3.33
8,2021,20244,Halsted St & 73rd St,41.76153133333333,-87.64402783333334,7,5,9,13,16,18,18,0.39,0.28,0.5,0.72,0.89,1.0
8,2021,359,Kilbourn & Belden,41.92,-87.74,12,6,0,0,12,6,6,2.0,1.0,0.0,0.0,2.0,1.0
8,2021,16953,Vincennes Ave & 75th St,41.7579125,-87.63122183333333,15,8,3,2,18,10,15,1.0,0.53,0.2,0.13,1.2,0.67
8,2021,15645,Richmond St & Diversey Ave,41.93190196886,-87.7011951301,104,101,239,302,343,403,31,3.35,3.26,7.71,9.74,11.06,13.0
8,2021,KA1503000024,Yates Blvd & 75th St,41.758768,-87.56644,7,7,26,21,33,28,26,0.27,0.27,1.0,0.81,1.27,1.08
8,2021,13165,Racine Ave & 13th St,41.865054,-87.656959,43,39,118,125,161,164,31,1.39,1.26,3.81,4.03,5.19,5.29
8,2021,20227,Bradley Park,41.71793983333333,-87.564621,13,8,12,11,25,19,15,0.87,0.53,0.8,0.73,1.67,1.27
8,2021,18025,Carpenter St & 63rd St,41.77990533333333,-87.65090583333334,5,1,0,4,5,5,8,0.62,0.12,0.0,0.5,0.62,0.62
8,2021,317,Long Ave & Belmont Ave,41.94,-87.76,29,26,0,0,29,26,26,1.12,1.0,0.0,0.0,1.12,1.0
8,2021,20233,Halsted St & 78th St,41.75246116666667,-87.64376433333334,11,1,8,7,19,8,14,0.79,0.07,0.57,0.5,1.36,0.57
8,2021,KA1503000022,Clark St & Montrose Ave,41.961588,-87.666036,207,207,675,624,882,831,31,6.68,6.68,21.77,20.13,28.45,26.81
8,2021,KA1503000034,LaSalle St & Adams St,41.87934437346,-87.6319852213,229,214,524,542,753,756,31,7.39,6.9,16.9,17.48,24.29,24.39
8,2021,13245,Claremont Ave & Hirsch St,41.907781,-87.685854,75,70,300,330,375,400,31,2.42,2.26,9.68,10.65,12.1,12.9
8,2021,KA1504000140,Winchester Ave & Elston Ave,41.92409085038,-87.6764600747,158,153,440,476,598,629,31,5.1,4.94,14.19,15.35,19.29,20.29
8,2021,201022,Loomis St & 89th St,41.73249233333333,-87.6580855,31,14,4,9,35,23,24,1.29,0.58,0.17,0.38,1.46,0.96
8,2021,KA1504000168,Western & 28th - Velasquez Institute Vaccination Site,41.84151770807,-87.6851314409,11,12,5,2,16,14,15,0.73,0.8,0.33,0.13,1.07,0.93
8,2021,20222,Burnham Greenway & 105th St,41.7045750872071,-87.52823173999786,15,15,13,14,28,29,19,0.79,0.79,0.68,0.74,1.47,1.53
8,2021,16907,Central Park Blvd & 5th Ave,41.875679,-87.71547,26,24,11,15,37,39,27,0.96,0.89,0.41,0.56,1.37,1.44
8,2021,321,Kostner Ave & Wrightwood Ave,41.93,-87.74,43,43,0,0,43,43,25,1.72,1.72,0.0,0.0,1.72,1.72
8,2021,561,Damen Ave & 59th St,41.78604433333334,-87.67413916666666,6,0,3,8,9,8,10,0.6,0.0,0.3,0.8,0.9,0.8
8,2021,E014,Lincolnwood Dr & Central St,42.06472383333333,-87.7153275,44,46,59,72,103,118,31,1.42,1.48,1.9,2.32,3.32,3.81
8,2021,Hubbard Bike-checking (LBS-WH-TEST),Base - 2132 W Hubbard Warehouse,41.889973833333336,-87.680251,39,37,2,28,41,65,32,1.22,1.16,0.06,0.88,1.28,2.03
8,2021,KA1503000053,MLK Jr Dr & 63rd St,41.780032,-87.6159415,79,83,14,13,93,96,28,2.82,2.96,0.5,0.46,3.32,3.43
8,2021,576,Greenwood Ave & 79th St,41.751299,-87.59744366666666,6,5,13,12,19,17,20,0.3,0.25,0.65,0.6,0.95,0.85
8,2021,15682,Kedzie Ave & Roosevelt Rd,41.86649278172,-87.7064961757,22,19,44,53,66,72,25,0.88,0.76,1.76,2.12,2.64,2.88
8,2021,20247.0,W Washington Blvd & N Peoria St,41.88,-87.65,4,9,0,0,4,9,8,0.5,1.12,0.0,0.0,0.5,1.12
8,2021,TA1309000025,Halsted St & Roscoe St,41.94367,-87.64895,963,954,2535,2531,3498,3485,31,31.06,30.77,81.77,81.65,112.84,112.42
8,2021,E011,Dodge Ave & Main St,42.03463185161588,-87.69918769598006,36,32,40,39,76,71,28,1.29,1.14,1.43,1.39,2.71,2.54
8,2021,KA150400009X,Kimball Ave & Belmont Ave,41.939398,-87.711561,151,148,223,219,374,367,31,4.87,4.77,7.19,7.06,12.06,11.84
8,2021,13102,Calumet Ave & 18th St,41.857611,-87.619407,344,340,1095,1097,1439,1437,31,11.1,10.97,35.32,35.39,46.42,46.35
8,2021,13144,Seeley Ave & Roscoe St,41.943403,-87.679618,217,213,631,647,848,860,31,7.0,6.87,20.35,20.87,27.35,27.74
8,2021,TA1307000041,DuSable Lake Shore Dr & Wellington Ave,41.93671616666666,-87.6368225,666,646,3128,3173,3794,3819,32,20.81,20.19,97.75,99.16,118.56,119.34
8,2021,TA1305000041,Damen Ave & Pierce Ave,41.9093960065,-87.6776919292,870,870,2360,2460,3230,3330,31,28.06,28.06,76.13,79.35,104.19,107.42
8,2021,TA1309000030,Southport Ave & Clybourn Ave,41.920771,-87.663712,397,401,1095,1203,1492,1604,31,12.81,12.94,35.32,38.81,48.13,51.74
8,2021,KA1504000152,Lakefront Trail & Bryn Mawr Ave,41.98403669612,-87.6523104689,689,684,2239,2276,2928,2960,31,22.23,22.06,72.23,73.42,94.45,95.48
8,2021,TA1309000019,Lakeview Ave & Fullerton Pkwy,41.92594583333333,-87.63906,793,785,2907,2941,3700,3726,32,24.78,24.53,90.84,91.91,115.62,116.44
8,2021,15615,Christiana Ave & Lawrence Ave,41.96835449363,-87.7118306675,77,77,140,146,217,223,32,2.41,2.41,4.38,4.56,6.78,6.97
8,2021,13300,DuSable Lake Shore Dr & Monroe St,41.880958,-87.616743,1158,1012,4091,4147,5249,5159,31,37.35,32.65,131.97,133.77,169.32,166.42
8,2021,15628,California Ave & Byron St,41.95216219326,-87.698051113,120,123,221,256,341,379,31,3.87,3.97,7.13,8.26,11.0,12.23
8,2021,TA1308000049,Wells St & Evergreen Ave,41.906724,-87.63483,863,843,2772,2765,3635,3608,32,26.97,26.34,86.62,86.41,113.59,112.75
8,2021,TA1308000045,Wallace St & 35th St,41.830629,-87.64129,81,80,249,234,330,314,31,2.61,2.58,8.03,7.55,10.65,10.13
8,2021,TA1309000055,Emerald Ave & 31st St,41.838237166666666,-87.6450795,162,159,570,626,732,785,32,5.06,4.97,17.81,19.56,22.88,24.53
8,2021,SL-009,Clark St & 9th St (AMLI),41.870816,-87.631246,269,264,617,592,886,856,32,8.41,8.25,19.28,18.5,27.69,26.75
8,2021,13224,Ashland Ave & Blackhawk St,41.907066,-87.667252,389,383,1173,1201,1562,1584,31,12.55,12.35,37.84,38.74,50.39,51.1
8,2021,13229,Southport Ave & Belmont Ave,41.93947775040509,-87.6637476682663,348,342,1206,1222,1554,1564,31,11.23,11.03,38.9,39.42,50.13,50.45
8,2021,TA1307000126,Sheffield Ave & Waveland Ave,41.949399,-87.654529,755,894,2068,2682,2823,3576,31,24.35,28.84,66.71,86.52,91.06,115.35
8,2021,KA1503000064,Dusable Harbor,41.886976,-87.612813,611,598,1881,2017,2492,2615,31,19.71,19.29,60.68,65.06,80.39,84.35
8,2021,RP-004,Oakley Ave & Touhy Ave,42.012342,-87.688243,25,23,39,57,64,80,31,0.81,0.74,1.26,1.84,2.06,2.58
8,2021,13156,Aberdeen St & Monroe St,41.88046816666667,-87.65557133333333,322,322,1197,1233,1519,1555,31,10.39,10.39,38.61,39.77,49.0,50.16
8,2021,13137,Broadway & Barry Ave,41.93758231600629,-87.6440978050232,1054,1048,3835,3865,4889,4913,31,34.0,33.81,123.71,124.68,157.71,158.48
8,2021,TA1307000138,Lincoln Ave & Roscoe St,41.94334,-87.67097,494,499,1330,1411,1824,1910,32,15.44,15.59,41.56,44.09,57.0,59.69
8,2021,13191,Sedgwick St & Webster Ave,41.922167,-87.638888,513,509,1796,1788,2309,2297,32,16.03,15.91,56.12,55.88,72.16,71.78
8,2021,KA1504000091,Hoyne Ave & 47th St,41.808227,-87.67718,9,7,21,23,30,30,24,0.38,0.29,0.88,0.96,1.25,1.25
8,2021,TA1309000032,Elston Ave & Wabansia Ave,41.912919,-87.664169,152,151,355,368,507,519,31,4.9,4.87,11.45,11.87,16.35,16.74
8,2021,13074,Broadway & Wilson - Truman College Vaccination Site,41.965221,-87.658139,407,411,1092,1089,1499,1500,31,13.13,13.26,35.23,35.13,48.35,48.39
8,2021,TA1309000066,Ravenswood Ave & Lawrence Ave,41.9691185,-87.674186,682,673,1307,1265,1989,1938,31,22.0,21.71,42.16,40.81,64.16,62.52
8,2021,13150,Michigan Ave & 18th St,41.857813,-87.62455,297,296,1027,986,1324,1282,31,9.58,9.55,33.13,31.81,42.71,41.35
8,2021,660,Sheridan Rd & Columbia Ave,42.0044975,-87.66148716666666,142,140,436,447,578,587,31,4.58,4.52,14.06,14.42,18.65,18.94
8,2021,13257,Campbell Ave & North Ave,41.9105165,-87.68951666666666,367,367,603,603,970,970,31,11.84,11.84,19.45,19.45,31.29,31.29
8,2021,KA1504000127,Manor Ave & Leland Ave,41.965875,-87.700825,135,130,152,157,287,287,31,4.35,4.19,4.9,5.06,9.26,9.26
8,2021,TA1308000009,Shore Dr & 55th St,41.79529466666666,-87.58090566666667,407,381,1118,1110,1525,1491,31,13.13,12.29,36.06,35.81,49.19,48.1
8,2021,13266,Stave St & Armitage Ave,41.917670666666666,-87.69153616666667,261,259,472,475,733,734,31,8.42,8.35,15.23,15.32,23.65,23.68
8,2021,20101,Summit Ave & 86th St,41.73782083333333,-87.644985,14,10,17,17,31,27,20,0.7,0.5,0.85,0.85,1.55,1.35
8,2021,13331,May St & Cullerton St,41.855136,-87.654127,67,69,214,241,281,310,31,2.16,2.23,6.9,7.77,9.06,10.0
8,2021,15442,Ashland Ave & Archer Ave,41.83920868403,-87.6656098589,46,45,94,120,140,165,31,1.48,1.45,3.03,3.87,4.52,5.32
8,2021,TA1307000001,Greenview Ave & Fullerton Ave,41.92533,-87.6658,430,428,1451,1539,1881,1967,31,13.87,13.81,46.81,49.65,60.68,63.45
8,2021,15539,Desplaines St & Jackson Blvd,41.87828,-87.64414816666667,328,311,1148,1167,1476,1478,31,10.58,10.03,37.03,37.65,47.61,47.68
8,2021,638,Clinton St & Jackson Blvd,41.87831661183069,-87.64098107814789,486,465,1301,1225,1787,1690,32,15.19,14.53,40.66,38.28,55.84,52.81
8,2021,15642,California Ave & Fletcher St,41.93842879148,-87.698007756,231,233,298,376,529,609,31,7.45,7.52,9.61,12.13,17.06,19.65
8,2021,TA1309000035,Clark St & Winnemac Ave,41.97334764047304,-87.6678554713726,590,589,1350,1360,1940,1949,31,19.03,19.0,43.55,43.87,62.58,62.87
8,2021,20252.0,W Oakdale Ave & N Broadway,41.94,-87.64,251,161,0,0,251,161,31,8.1,5.19,0.0,0.0,8.1,5.19
8,2021,13179,Clark St & Lincoln Ave,41.915689,-87.6346,1027,1017,3929,3963,4956,4980,31,33.13,32.81,126.74,127.84,159.87,160.65
8,2021,TA1307000064,Lincoln Ave & Diversey Pkwy,41.932225,-87.658617,498,495,1835,1877,2333,2372,32,15.56,15.47,57.34,58.66,72.91,74.12
8,2021,TA1308000005,Leavitt St & North Ave,41.910160833333336,-87.68239916666667,237,229,762,740,999,969,31,7.65,7.39,24.58,23.87,32.23,31.26
8,2021,13058,Dayton St & North Ave,41.9105780349,-87.6494219288,507,504,1420,1374,1927,1878,32,15.84,15.75,44.38,42.94,60.22,58.69
8,2021,TA1307000149,Ravenswood Ave & Irving Park Rd,41.95469,-87.67393,185,183,606,621,791,804,31,5.97,5.9,19.55,20.03,25.52,25.94
8,2021,13193,Larrabee St & Webster Ave,41.921822,-87.64414,886,866,3350,3337,4236,4203,31,28.58,27.94,108.06,107.65,136.65,135.58
8,2021,13021,Clinton St & Lake St,41.88515,-87.640207,646,644,1769,1774,2415,2418,31,20.84,20.77,57.06,57.23,77.9,78.0
8,2021,13332,Loomis St & Lexington St,41.872187,-87.661501,405,375,1678,1659,2083,2034,31,13.06,12.1,54.13,53.52,67.19,65.61
8,2021,TA1307000159,Paulina St & 18th St,41.857901,-87.668745,123,121,410,409,533,530,31,3.97,3.9,13.23,13.19,17.19,17.1
8,2021,13029,Field Museum,41.86529816666667,-87.6182625,304,238,812,768,1116,1006,31,9.81,7.68,26.19,24.77,36.0,32.45
8,2021,TA1306000002,Morgan Ave & 14th Pl,41.862378,-87.651062,165,165,595,615,760,780,31,5.32,5.32,19.19,19.84,24.52,25.16
8,2021,13216,State St & 33rd St,41.834734,-87.625813,202,195,952,923,1154,1118,32,6.31,6.09,29.75,28.84,36.06,34.94
8,2021,595,Wabash Ave & 87th St,41.736646,-87.622634,29,27,21,18,50,45,27,1.07,1.0,0.78,0.67,1.85,1.67
8,2021,15623,Campbell Ave & Montrose Ave,41.96152593287,-87.6911650414,154,155,255,271,409,426,31,4.97,5.0,8.23,8.74,13.19,13.74
8,2021,TA1307000150,Pine Grove Ave & Waveland Ave,41.94947274088333,-87.64645278453827,560,558,2598,2522,3158,3080,32,17.5,17.44,81.19,78.81,98.69,96.25
8,2021,KA1504000128,Kedzie Ave & Foster Ave,41.97566316666666,-87.70923016666667,56,51,94,110,150,161,31,1.81,1.65,3.03,3.55,4.84,5.19
8,2021,TA1307000140,Western Ave & Leland Ave,41.966399801840986,-87.68870428204536,285,286,674,695,959,981,31,9.19,9.23,21.74,22.42,30.94,31.65
8,2021,13068,Western Ave & Winnebago Ave,41.91552,-87.687022,400,392,1031,1002,1431,1394,31,12.9,12.65,33.26,32.32,46.16,44.97
8,2021,KA1504000133,Rush St & Cedar St,41.90230870122,-87.627690528,798,799,2359,2309,3157,3108,31,25.74,25.77,76.1,74.48,101.84,100.26
8,2021,15545,Burnham Harbor,41.856268,-87.613348,277,269,1537,1574,1814,1843,31,8.94,8.68,49.58,50.77,58.52,59.45
8,2021,RN-,Franklin St & Illinois St,41.89102331025185,-87.63547986745834,606,581,1926,1821,2532,2402,31,19.55,18.74,62.13,58.74,81.68,77.48
8,2021,15655,Albany Ave & Bloomingdale Ave,41.913963333333335,-87.7051555,299,301,400,394,699,695,31,9.65,9.71,12.9,12.71,22.55,22.42
8,2021,TA1307000134,Wilton Ave & Belmont Ave,41.94018,-87.65304,940,929,3249,3172,4189,4101,31,30.32,29.97,104.81,102.32,135.13,132.29
8,2021,TA1306000012,Wells St & Huron St,41.894722,-87.634362,1115,1112,3165,3155,4280,4267,31,35.97,35.87,102.1,101.77,138.06,137.65
8,2021,KA1503000009,Princeton Ave & 47th St,41.80931770924,-87.633449288,23,18,33,42,56,60,30,0.77,0.6,1.1,1.4,1.87,2.0
8,2021,TA1308000023,Cottage Grove Ave & 43rd St,41.816499,-87.606582,36,28,51,53,87,81,30,1.2,0.93,1.7,1.77,2.9,2.7
8,2021,KA1503000059,Lake Park Ave & 53rd St,41.799602,-87.5862475,229,219,536,531,765,750,31,7.39,7.06,17.29,17.13,24.68,24.19
8,2021,E006,Central St Metra,42.063598,-87.69873,60,59,121,133,181,192,31,1.94,1.9,3.9,4.29,5.84,6.19
8,2021,SL-012,Wabash Ave & 16th St,41.860358833333336,-87.62580483333333,266,267,986,995,1252,1262,31,8.58,8.61,31.81,32.1,40.39,40.71
8,2021,623,Michigan Ave & 8th St,41.872773,-87.623981,573,517,1900,1760,2473,2277,31,18.48,16.68,61.29,56.77,79.77,73.45
8,2021,TA1309000067,Cottage Grove Ave & 51st St,41.803038,-87.606615,77,64,83,86,160,150,31,2.48,2.06,2.68,2.77,5.16,4.84
8,2021,KA1504000090,St. Louis Ave & Fullerton Ave,41.92481559681187,-87.71449506282805,120,120,282,330,402,450,31,3.87,3.87,9.1,10.65,12.97,14.52
8,2021,523,Eastlake Ter & Rogers Ave,42.02085366666667,-87.66500883333333,102,101,181,176,283,277,31,3.29,3.26,5.84,5.68,9.13,8.94
8,2021,20223,Ewing Ave & Burnham Greenway,41.712749,-87.534814,2,3,3,1,5,4,7,0.29,0.43,0.43,0.14,0.71,0.57
8,2021,514,Ridge Blvd & Howard St,42.0193035,-87.68460283333333,38,42,44,33,82,75,31,1.23,1.35,1.42,1.06,2.65,2.42
8,2021,517,Clark St & Jarvis Ave,42.0159795,-87.675008,28,27,91,82,119,109,31,0.9,0.87,2.94,2.65,3.84,3.52
8,2021,15571,Broadway & Granville Ave,41.9947796884,-87.6602845349,251,254,783,808,1034,1062,31,8.1,8.19,25.26,26.06,33.35,34.26
8,2021,KA1503000019,Stony Island Ave & 75th St,41.7586696704,-87.586882871,26,22,16,19,42,41,26,1.0,0.85,0.62,0.73,1.62,1.58
8,2021,18017,Central Park Ave & Bloomingdale Ave,41.914166,-87.716755,85,88,339,341,424,429,31,2.74,2.84,10.94,11.0,13.68,13.84
8,2021,KA1503000044,Rush St & Hubbard St,41.890173,-87.626185,334,318,898,835,1232,1153,31,10.77,10.26,28.97,26.94,39.74,37.19
8,2021,KA1504000141,Pulaski Rd & Eddy St (Temp),41.946264,-87.731023,15,17,51,51,66,68,30,0.5,0.57,1.7,1.7,2.2,2.27
8,2021,574,Vernon Ave & 79th St,41.75094,-87.61379,6,8,21,18,27,26,23,0.26,0.35,0.91,0.78,1.17,1.13
8,2021,15443,Shields Ave & 28th Pl,41.842733,-87.635491,37,36,142,172,179,208,31,1.19,1.16,4.58,5.55,5.77,6.71
8,2021,KA1503000023,Stony Island Ave & 67th St,41.77345849948,-87.5853397391,7,6,48,38,55,44,25,0.28,0.24,1.92,1.52,2.2,1.76
8,2021,KA1503000002,South Shore Dr & 71st St,41.766409,-87.565688,149,141,143,151,292,292,31,4.81,4.55,4.61,4.87,9.42,9.42
8,2021,TA1305000009,Clark St & Ida B Wells Dr,41.8759326655,-87.6305845355,160,148,523,467,683,615,32,5.0,4.62,16.34,14.59,21.34,19.22
8,2021,13036,Michigan Ave & Madison St,41.882134,-87.625125,416,389,1118,1108,1534,1497,31,13.42,12.55,36.06,35.74,49.48,48.29
8,2021,TA1308000006,Damen Ave & Grand Ave,41.89129116666667,-87.67681333333333,249,225,579,560,828,785,31,8.03,7.26,18.68,18.06,26.71,25.32
8,2021,13434,Ashland Ave & Grand Ave,41.891072,-87.666611,293,263,800,789,1093,1052,31,9.45,8.48,25.81,25.45,35.26,33.94
8,2021,573,State St & 79th St,41.750794,-87.624424,27,24,20,11,47,35,25,1.08,0.96,0.8,0.44,1.88,1.4
8,2021,20257.0,N Southport Ave & W Newport Ave,41.94,-87.66,48,37,0,0,48,37,24,2.0,1.54,0.0,0.0,2.0,1.54
8,2021,658,Leavitt St & Division St,41.90292916666667,-87.68369,171,149,503,402,674,551,31,5.52,4.81,16.23,12.97,21.74,17.77
8,2021,586,MLK Jr Dr & 83rd St,41.743116,-87.6148,2,2,6,7,8,9,14,0.14,0.14,0.43,0.5,0.57,0.64
8,2021,624,Dearborn St & Van Buren St,41.876268,-87.629155,224,186,814,734,1038,920,32,7.0,5.81,25.44,22.94,32.44,28.75
8,2021,15691,Albany Ave & 26th St,41.84447501366,-87.7020130128,18,16,28,26,46,42,27,0.67,0.59,1.04,0.96,1.7,1.56
8,2021,13213,State St & 29th St,41.8417035,-87.62698683333333,22,22,81,68,103,90,31,0.71,0.71,2.61,2.19,3.32,2.9
8,2021,15624,Avondale Ave & Irving Park Rd,41.953393,-87.732002,138,125,88,76,226,201,31,4.45,4.03,2.84,2.45,7.29,6.48
8,2021,15652,Central Park Ave & North Ave,41.90965687563,-87.7166319516,93,93,86,96,179,189,31,3.0,3.0,2.77,3.1,5.77,6.1
8,2021,18058,Leavitt St & Chicago Ave,41.89548666666666,-87.6820635,185,190,527,595,712,785,31,5.97,6.13,17.0,19.19,22.97,25.32
8,2021,20131,Cottage Grove Ave & 111th Pl,41.691651666666665,-87.6100265,25,13,9,17,34,30,24,1.04,0.54,0.38,0.71,1.42,1.25
8,2021,646,State St & 54th St,41.796586833333336,-87.62597733333334,9,8,22,10,31,18,20,0.45,0.4,1.1,0.5,1.55,0.9
8,2021,20236,Stony Island Ave & 90th St,41.731416333333335,-87.5857885,30,28,9,10,39,38,25,1.2,1.12,0.36,0.4,1.56,1.52
8,2021,530,Laramie Ave & Kinzie St,41.887832,-87.755527,11,12,27,18,38,30,29,0.38,0.41,0.93,0.62,1.31,1.03
8,2021,TA1309000008,Franklin St & Adams St (Temp),41.87943409140013,-87.63550400733948,329,319,879,916,1208,1235,31,10.61,10.29,28.35,29.55,38.97,39.84
8,2021,KA1503000015,Wabash Ave & Adams St,41.87947235235,-87.6256886059,279,273,981,976,1260,1249,32,8.72,8.53,30.66,30.5,39.38,39.03
8,2021,13197,Elizabeth (May) St & Fulton St,41.886616486027656,-87.6580399274826,212,210,649,598,861,808,31,6.84,6.77,20.94,19.29,27.77,26.06
8,2021,16918,Austin Blvd & Madison St,41.88026766666667,-87.77443483333333,32,28,13,14,45,42,27,1.19,1.04,0.48,0.52,1.67,1.56
8,2021,20.0,Damen Ave & Wabansia Ave,41.91,-87.68,136,130,0,0,136,130,31,4.39,4.19,0.0,0.0,4.39,4.19
8,2021,15650,Spaulding Ave & Armitage Ave,41.9171195,-87.71024583333333,243,238,395,448,638,686,31,7.84,7.68,12.74,14.45,20.58,22.13
8,2021,TA1309000003,Western Ave & 24th St,41.84845816666667,-87.68515583333334,52,48,64,87,116,135,31,1.68,1.55,2.06,2.81,3.74,4.35
8,2021,16920,Central Ave & Chicago Ave,41.894958,-87.764902,31,32,41,43,72,75,30,1.03,1.07,1.37,1.43,2.4,2.5
8,2021,20119,Elizabeth St & 92nd St,41.72679896370119,-87.65429019927979,9,7,10,10,19,17,17,0.53,0.41,0.59,0.59,1.12,1.0
8,2021,540,Laramie Ave & Madison St,41.880207,-87.755337,14,5,16,16,30,21,22,0.64,0.23,0.73,0.73,1.36,0.95
8,2021,362.0,Lawndale Ave & 16th St,41.86,-87.72,4,4,0,0,4,4,6,0.67,0.67,0.0,0.0,0.67,0.67
8,2021,535,Pulaski Rd & Congress Pkwy,41.874325,-87.725704,12,10,8,10,20,20,18,0.67,0.56,0.44,0.56,1.11,1.11
8,2021,358,Kilpatrick Ave & Parker Ave,41.93,-87.74,15,14,0,0,15,14,10,1.5,1.4,0.0,0.0,1.5,1.4
8,2021,13080,Hermitage Ave & Polk St,41.871514,-87.669886,1,6,0,15,1,21,17,0.06,0.35,0.0,0.88,0.06,1.24
8,2021,473,Mason Ave & Belmont Ave,41.94,-87.77,31,24,0,0,31,24,12,2.58,2.0,0.0,0.0,2.58,2.0
8,2021,13256,California Ave & Division St,41.903029,-87.697474,154,151,432,451,586,602,31,4.97,4.87,13.94,14.55,18.9,19.42
8,2021,KA1504000114,Kedzie Ave & Chicago Ave,41.89546530305,-87.7061278837,48,39,64,97,112,136,31,1.55,1.26,2.06,3.13,3.61,4.39
8,2021,20107,Walden Pkwy & 100th St,41.712200333333335,-87.66774283333334,27,19,25,16,52,35,27,1.0,0.7,0.93,0.59,1.93,1.3
8,2021,KA1504000096,Sawyer Ave & Irving Park Rd,41.95358617895,-87.7093107999,67,71,124,127,191,198,31,2.16,2.29,4.0,4.1,6.16,6.39
8,2021,553,Elizabeth St & 47th St,41.80839,-87.656526,2,2,12,13,14,15,11,0.18,0.18,1.09,1.18,1.27,1.36
8,2021,543,Laramie Ave & Gladys Ave,41.875797166666665,-87.7553165,15,2,7,7,22,9,18,0.83,0.11,0.39,0.39,1.22,0.5
8,2021,KA1503000011,Halsted St & 56th St,41.79292964599,-87.6449900565,1,1,11,11,12,12,16,0.06,0.06,0.69,0.69,0.75,0.75
8,2021,20113,Dauphin Ave & 103rd St,41.7072503677818,-87.60766267776489,5,2,9,9,14,11,16,0.31,0.12,0.56,0.56,0.88,0.69
8,2021,20116,Dauphin Ave & 87th St,41.73655902282214,-87.60125756263733,10,9,22,19,32,28,24,0.42,0.38,0.92,0.79,1.33,1.17
8,2021,20215,Hegewisch Metra Station,41.6485795,-87.546238,11,14,5,6,16,20,15,0.73,0.93,0.33,0.4,1.07,1.33
8,2021,20217,Torrence Ave & 126th Pl,41.66631200825726,-87.55721569061278,7,2,4,3,11,5,9,0.78,0.22,0.44,0.33,1.22,0.56
8,2021,KA1503000049,Rainbow Beach,41.75787144829,-87.54938625,34,29,25,24,59,53,26,1.31,1.12,0.96,0.92,2.27,2.04
8,2021,20218,Avenue O & 118th St,41.68100566666666,-87.53803133333334,12,11,1,3,13,14,13,0.92,0.85,0.08,0.23,1.0,1.08
8,2021,20120,Stewart Ave & 83rd St,41.74371716666667,-87.6341075,19,9,24,17,43,26,26,0.73,0.35,0.92,0.65,1.65,1.0
8,2021,KA1503000018,Jeffery Blvd & 71st St,41.76663823695,-87.5764501141,17,17,18,20,35,37,27,0.63,0.63,0.67,0.74,1.3,1.37
8,2021,575,Cottage Grove Ave & 78th St,41.75316883333333,-87.60501333333333,17,12,13,14,30,26,22,0.77,0.55,0.59,0.64,1.36,1.18
8,2021,KA1503000033,Eberhart Ave & 61st St,41.784096,-87.61325716666667,63,61,28,39,91,100,30,2.1,2.03,0.93,1.3,3.03,3.33
8,2021,355,Central Ave & Parker Ave,41.93,-87.77,31,23,0,0,31,23,21,1.48,1.1,0.0,0.0,1.48,1.1
8,2021,KA1503000013,Princeton Ave & Garfield Blvd,41.794982,-87.633124,20,17,21,21,41,38,25,0.8,0.68,0.84,0.84,1.64,1.52
8,2021,572,State St & 76th St,41.75698216666667,-87.62460516666667,11,5,1,3,12,8,9,1.22,0.56,0.11,0.33,1.33,0.89
8,2021,TA1307000160,Prairie Ave & Garfield Blvd,41.794853,-87.618691,69,57,99,96,168,153,31,2.23,1.84,3.19,3.1,5.42,4.94
8,2021,20133,Woodlawn & 103rd - Olive Harvey Vaccination Site,41.71,-87.59,7,6,0,0,7,6,6,1.17,1.0,0.0,0.0,1.17,1.0
8,2021,20210,State St & 123rd St,41.67064383687979,-87.62258648872375,40,36,2,2,42,38,26,1.54,1.38,0.08,0.08,1.62,1.46
8,2021,20225,Commercial Ave & 100th St,41.71331739547703,-87.55109757184982,3,2,4,5,7,7,7,0.43,0.29,0.57,0.71,1.0,1.0
8,2021,20230,Clyde Ave & 87th St,41.737193833333336,-87.57263783333333,11,7,11,11,22,18,16,0.69,0.44,0.69,0.69,1.38,1.12
8,2021,20231,East End Ave & 87th St,41.73681521440671,-87.58280128240585,3,3,20,14,23,17,19,0.16,0.16,1.05,0.74,1.21,0.89
8,2021,15599,Calumet Ave & 71st St,41.76550800581,-87.616917925,1,2,7,8,8,10,11,0.09,0.18,0.64,0.73,0.73,0.91
8,2021,20226,Oglesby Ave & 100th St,41.713397,-87.565842,6,6,3,6,9,12,16,0.38,0.38,0.19,0.38,0.56,0.75
8,2021,20221,Torrence Ave & 106th St,41.70280085022591,-87.55972623825073,13,3,2,2,15,5,13,1.0,0.23,0.15,0.15,1.15,0.38
8,2021,13323,Broadway & Sheridan Rd,41.952833,-87.649993,526,525,1596,1539,2122,2064,32,16.44,16.41,49.88,48.09,66.31,64.5
8,2021,TA1305000037,Paulina Ave & North Ave,41.90985465216731,-87.66993016004562,268,272,1046,1063,1314,1335,31,8.65,8.77,33.74,34.29,42.39,43.06
8,2021,587,Wabash Ave & 83rd St,41.743316,-87.622849,0,0,3,4,3,4,9,0.0,0.0,0.33,0.44,0.33,0.44
8,2021,310,North Ave & New England Ave,41.91,-87.8,1,2,0,0,1,2,1,1.0,2.0,0.0,0.0,1.0,2.0
8,2021,647,Elizabeth St & 59th St,41.789696880483376,-87.65469789505005,5,4,4,2,9,6,10,0.5,0.4,0.4,0.2,0.9,0.6
8,2021,313,Long Ave & Belden Ave,41.92,-87.76,28,25,0,0,28,25,24,1.17,1.04,0.0,0.0,1.17,1.04
8,2021,332.0,Harding Ave & 26th St,41.84,-87.72,7,7,0,0,7,7,10,0.7,0.7,0.0,0.0,0.7,0.7
8,2021,331.0,Pulaski Rd & 21st St,41.85,-87.72,3,2,0,0,3,2,4,0.75,0.5,0.0,0.0,0.75,0.5
8,2021,325,Harlem Ave & Grace St,41.95,-87.81,2,1,0,0,2,1,1,2.0,1.0,0.0,0.0,2.0,1.0
8,2021,393,Oketo Ave & Addison St,41.94,-87.81,19,16,0,0,19,16,6,3.17,2.67,0.0,0.0,3.17,2.67
8,2021,20201,Kedzie Ave & 104th St,41.7,-87.7,3,0,0,0,3,0,2,1.5,0.0,0.0,0.0,1.5,0.0
8,2021,20249.0,N Clark St & W Elm St,41.9,-87.63,1,1,0,0,1,1,2,0.5,0.5,0.0,0.0,0.5,0.5
8,2021,365.0,Kildare Ave & 26th St,41.84,-87.73,1,1,0,0,1,1,2,0.5,0.5,0.0,0.0,0.5,0.5
8,2021,20220,Avenue L & 114th St,41.69,-87.54,4,1,0,0,4,1,3,1.33,0.33,0.0,0.0,1.33,0.33
8,2021,366.0,Spaulding Ave & 16th St,41.86,-87.71,7,6,0,0,7,6,9,0.78,0.67,0.0,0.0,0.78,0.67
8,2021,TA1308000038,Cottage Grove Ave & Oakwood Blvd,41.82293083333333,-87.60715483333334,76,72,162,172,238,244,31,2.45,2.32,5.23,5.55,7.68,7.87
8,2021,TA1309000026,Lincoln Ave & Belle Plaine Ave,41.95600355078549,-87.68016144633293,253,245,629,643,882,888,31,8.16,7.9,20.29,20.74,28.45,28.65
8,2021,KA1503000007,Cornell Ave & Hyde Park Blvd,41.802406,-87.586924,360,358,671,665,1031,1023,32,11.25,11.19,20.97,20.78,32.22,31.97
8,2021,15686,Kedzie Ave & 21st St,41.85353363213,-87.7050730318,23,25,33,46,56,71,25,0.92,1.0,1.32,1.84,2.24,2.84
8,2021,319,Roscoe & Harlem,41.94,-87.81,10,6,0,0,10,6,5,2.0,1.2,0.0,0.0,2.0,1.2
8,2021,13194,Ogden Ave & Race Ave,41.891795,-87.658751,427,423,1135,1156,1562,1579,31,13.77,13.65,36.61,37.29,50.39,50.94
8,2021,KA1503000003,Cottage Grove Ave & 71st St,41.76571903697,-87.604959713,2,2,24,21,26,23,21,0.1,0.1,1.14,1.0,1.24,1.1
8,2021,TA1305000005,Dearborn St & Adams St,41.87866733333333,-87.6301535,263,263,846,879,1109,1142,31,8.48,8.48,27.29,28.35,35.77,36.84
8,2021,356,Lavergne & Fullerton,41.92,-87.75,29,24,0,0,29,24,21,1.38,1.14,0.0,0.0,1.38,1.14
8,2021,20124,Vincennes Ave & 104th St,41.70492556499764,-87.65686810958869,14,9,5,3,19,12,18,0.78,0.5,0.28,0.17,1.06,0.67
8,2021,570,Evans Ave & 75th St,41.75849,-87.60641,21,18,16,17,37,35,28,0.75,0.64,0.57,0.61,1.32,1.25
8,2021,357,Lamon Ave & Armitage Ave,41.92,-87.75,28,16,0,0,28,16,19,1.47,0.84,0.0,0.0,1.47,0.84
8,2021,20239,Marquette Ave & 89th St,41.73368366666666,-87.558482,16,15,11,11,27,26,19,0.84,0.79,0.58,0.58,1.42,1.37
8,2021,202480.0,Hampden Ct & Diversey Ave,41.93,-87.64,6,30,0,0,6,30,22,0.27,1.36,0.0,0.0,0.27,1.36
8,2021,352,Sayre & Diversey,41.93,-87.8,7,5,0,0,7,5,3,2.33,1.67,0.0,0.0,2.33,1.67
8,2021,20128,S Wentworth Ave & W 111th St,41.69,-87.63,0,1,0,0,0,1,1,0.0,1.0,0.0,0.0,0.0,1.0
8,2021,363.0,Tripp Ave & 15th St,41.86,-87.73,0,1,0,0,0,1,1,0.0,1.0,0.0,0.0,0.0,1.0
