month,year,station_id,station_name,lat,lng,ebike_start,ebike_end,cbike_start,cbike_end,total_start,total_end,active_days,daily_ebike_start,daily_ebike_end,daily_cbike_start,daily_cbike_end,daily_start,daily_end
2,2021,525,Glenwood Ave & Touhy Ave,42.012701,-87.666058,2,2,44,49,46,51,24,0.08,0.08,1.83,2.04,1.92,2.12
2,2021,KA1503000012,Clark St & Lake St,41.88579466666667,-87.63110066666667,42,39,129,110,171,149,27,1.56,1.44,4.78,4.07,6.33,5.52
2,2021,637,Wood St & Chicago Ave,41.895634,-87.672069,12,12,85,83,97,95,27,0.44,0.44,3.15,3.07,3.59,3.52
2,2021,13216,State St & 33rd St,41.8347335,-87.6258275,15,14,98,105,113,119,28,0.54,0.5,3.5,3.75,4.04,4.25
2,2021,18003,Fairbanks St & Superior St,41.89580766666667,-87.62025316666667,45,46,141,137,186,183,27,1.67,1.7,5.22,5.07,6.89,6.78
2,2021,KP1705001026,LaSalle Dr & Huron St,41.894877,-87.632326,42,37,158,167,200,204,27,1.56,1.37,5.85,6.19,7.41,7.56
2,2021,13253,Lincoln Ave & Waveland Ave,41.948797,-87.675278,25,16,34,43,59,59,21,1.19,0.76,1.62,2.05,2.81,2.81
2,2021,KA1503000044,Rush St & Hubbard St,41.890173,-87.626185,16,17,102,108,118,125,27,0.59,0.63,3.78,4.0,4.37,4.63
2,2021,KA1504000140,Winchester Ave & Elston Ave,41.92403733333333,-87.67641483333334,9,5,21,22,30,27,19,0.47,0.26,1.11,1.16,1.58,1.42
2,2021,TA1305000032,Clinton St & Madison St,41.882242,-87.641066,60,54,301,315,361,369,28,2.14,1.93,10.75,11.25,12.89,13.18
2,2021,TA1306000012,Wells St & Huron St,41.89475366666667,-87.634402,94,85,248,234,342,319,28,3.36,3.04,8.86,8.36,12.21,11.39
2,2021,13133,Damen Ave & Cortland St,41.915983,-87.677335,30,23,83,78,113,101,27,1.11,0.85,3.07,2.89,4.19,3.74
2,2021,SL-005,Indiana Ave & Roosevelt Rd,41.867888,-87.623041,53,48,166,175,219,223,27,1.96,1.78,6.15,6.48,8.11,8.26
2,2021,13235,Southport Ave & Waveland Ave,41.94815,-87.66394,30,24,149,138,179,162,28,1.07,0.86,5.32,4.93,6.39,5.79
2,2021,TA1307000139,MLK Jr Dr & 29th St,41.842052,-87.617,9,9,54,43,63,52,22,0.41,0.41,2.45,1.95,2.86,2.36
2,2021,TA1305000009,Clark St & Ida B Wells Dr,41.8759326655,-87.6305845355,13,6,58,51,71,57,22,0.59,0.27,2.64,2.32,3.23,2.59
2,2021,13276,Stockton Dr & Wrightwood Ave,41.9313455,-87.63869133333333,29,33,102,118,131,151,28,1.04,1.18,3.64,4.21,4.68,5.39
2,2021,TA1307000107,Sheridan Rd & Montrose Ave,41.96167,-87.65464,49,44,124,127,173,171,27,1.81,1.63,4.59,4.7,6.41,6.33
2,2021,13193,Larrabee St & Webster Ave,41.921822,-87.64414,39,36,155,154,194,190,28,1.39,1.29,5.54,5.5,6.93,6.79
2,2021,KA1503000072,Wacker Dr & Washington St,41.883132,-87.637321,60,44,104,115,164,159,28,2.14,1.57,3.71,4.11,5.86,5.68
2,2021,TA1307000166,Halsted St & Willow St,41.913865,-87.648755,21,20,93,93,114,113,27,0.78,0.74,3.44,3.44,4.22,4.19
2,2021,13285,Wood St & Taylor St (Temp),41.869265218438194,-87.67373085021973,11,14,132,135,143,149,28,0.39,0.5,4.71,4.82,5.11,5.32
2,2021,TA1306000016,Sheffield Ave & Fullerton Ave,41.92552516666667,-87.65368583333333,22,19,102,105,124,124,25,0.88,0.76,4.08,4.2,4.96,4.96
2,2021,13303,Clark St & Chicago Ave,41.89675,-87.63089,52,41,155,146,207,187,28,1.86,1.46,5.54,5.21,7.39,6.68
2,2021,15575,Broadway & Thorndale Ave,41.98974251144,-87.6601406209,7,7,37,31,44,38,17,0.41,0.41,2.18,1.82,2.59,2.24
2,2021,623,Michigan Ave & 8th St,41.872287666666665,-87.6239145,25,22,108,104,133,126,28,0.89,0.79,3.86,3.71,4.75,4.5
2,2021,TA1309000050,Lincoln Ave & Addison St,41.946176,-87.673308,9,4,18,28,27,32,16,0.56,0.25,1.12,1.75,1.69,2.0
2,2021,15445,Wentworth Ave & 33rd St,41.83452988563,-87.6318229814,0,0,15,18,15,18,14,0.0,0.0,1.07,1.29,1.07,1.29
2,2021,13164,Racine Ave & 18th St,41.858166,-87.656495,22,17,80,87,102,104,28,0.79,0.61,2.86,3.11,3.64,3.71
2,2021,TA1307000151,Wells St & Hubbard St,41.889906,-87.634266,68,67,270,265,338,332,28,2.43,2.39,9.64,9.46,12.07,11.86
2,2021,13158,Peoria St & Jackson Blvd,41.8776415962753,-87.64961779117584,36,33,108,114,144,147,28,1.29,1.18,3.86,4.07,5.14,5.25
2,2021,13150,Michigan Ave & 18th St,41.857813,-87.62455,17,14,93,89,110,103,26,0.65,0.54,3.58,3.42,4.23,3.96
2,2021,TA1308000036,Indiana Ave & 31st St,41.83884433333333,-87.62183783333333,3,3,66,52,69,55,25,0.12,0.12,2.64,2.08,2.76,2.2
2,2021,TA1308000013,Halsted St & Archer Ave,41.847203,-87.646795,1,3,13,12,14,15,16,0.06,0.19,0.81,0.75,0.88,0.94
2,2021,TA1306000013,New St & Illinois St,41.89084704062381,-87.61861681938171,56,51,113,139,169,190,28,2.0,1.82,4.04,4.96,6.04,6.79
2,2021,13061,Ashland Ave & Division St,41.90345,-87.667747,84,73,173,170,257,243,28,3.0,2.61,6.18,6.07,9.18,8.68
2,2021,TA1307000048,Fort Dearborn Dr & 31st St,41.838556,-87.608218,2,2,47,46,49,48,13,0.15,0.15,3.62,3.54,3.77,3.69
2,2021,TA1308000045,Wallace St & 35th St,41.830629,-87.64129,6,4,30,32,36,36,19,0.32,0.21,1.58,1.68,1.89,1.89
2,2021,13206,Loomis St & Jackson Blvd,41.877945,-87.662007,8,5,44,40,52,45,21,0.38,0.24,2.1,1.9,2.48,2.14
2,2021,13156,Aberdeen St & Monroe St,41.880419,-87.655519,18,18,124,126,142,144,27,0.67,0.67,4.59,4.67,5.26,5.33
2,2021,TA1306000015,Morgan St & Lake St,41.8854833079,-87.6523048564,36,37,120,138,156,175,28,1.29,1.32,4.29,4.93,5.57,6.25
2,2021,13058,Dayton St & North Ave,41.9105780349,-87.6494219288,17,16,87,84,104,100,25,0.68,0.64,3.48,3.36,4.16,4.0
2,2021,TA1309000008,Franklin St & Adams St (Temp),41.87943409140013,-87.63550400733948,38,36,116,127,154,163,28,1.36,1.29,4.14,4.54,5.5,5.82
2,2021,KA1504000135,Wells St & Elm St,41.90320733333333,-87.63461616666666,94,90,313,312,407,402,28,3.36,3.21,11.18,11.14,14.54,14.36
2,2021,KA1503000064,Dusable Harbor,41.886976,-87.612813,10,11,73,61,83,72,17,0.59,0.65,4.29,3.59,4.88,4.24
2,2021,TA1305000022,Orleans St & Merchandise Mart Plaza,41.888243,-87.63639,51,31,146,133,197,164,28,1.82,1.11,5.21,4.75,7.04,5.86
2,2021,KA1504000079,Larrabee St & Division St,41.90348607004,-87.6433534936,44,44,91,85,135,129,28,1.57,1.57,3.25,3.04,4.82,4.61
2,2021,KA1503000022,Clark St & Montrose Ave,41.961588,-87.666036,8,8,33,26,41,34,20,0.4,0.4,1.65,1.3,2.05,1.7
2,2021,13109,Broadway & Berwyn Ave,41.978353,-87.659753,14,12,82,78,96,90,27,0.52,0.44,3.04,2.89,3.56,3.33
2,2021,15530,Rush St & Superior St,41.89576474564,-87.6259080327,41,37,154,142,195,179,26,1.58,1.42,5.92,5.46,7.5,6.88
2,2021,TA1306000010,Daley Center Plaza,41.884241,-87.629634,59,38,225,218,284,256,28,2.11,1.36,8.04,7.79,10.14,9.14
2,2021,13146,Clark St & Armitage Ave,41.918306,-87.636282,51,41,164,159,215,200,28,1.82,1.46,5.86,5.68,7.68,7.14
2,2021,15578,Broadway & Ridge Ave,41.9840446107,-87.6602738295,6,5,49,45,55,50,23,0.26,0.22,2.13,1.96,2.39,2.17
2,2021,KA1503000034,LaSalle St & Adams St,41.87934437346,-87.6319852213,22,13,68,61,90,74,24,0.92,0.54,2.83,2.54,3.75,3.08
2,2021,KA1503000059,Lake Park Ave & 53rd St,41.79949429373,-87.5864498959,11,11,40,53,51,64,26,0.42,0.42,1.54,2.04,1.96,2.46
2,2021,TA1305000011,Michigan Ave & Lake St,41.886024,-87.624117,27,24,135,138,162,162,22,1.23,1.09,6.14,6.27,7.36,7.36
2,2021,TA1307000061,State St & Pearson St,41.897448,-87.628722,23,23,86,82,109,105,27,0.85,0.85,3.19,3.04,4.04,3.89
2,2021,SL-011,Wells St & Polk St,41.872596,-87.633502,34,32,152,144,186,176,27,1.26,1.19,5.63,5.33,6.89,6.52
2,2021,TA1309000010,Wabash Ave & 9th St,41.8702615,-87.62538516666666,55,58,157,160,212,218,28,1.96,2.07,5.61,5.71,7.57,7.79
2,2021,15534,Field Blvd & South Water St,41.88634906269,-87.6175165471,80,74,115,105,195,179,27,2.96,2.74,4.26,3.89,7.22,6.63
2,2021,TA1307000119,Clarendon Ave & Leland Ave,41.967968,-87.650001,12,12,65,63,77,75,21,0.57,0.57,3.1,3.0,3.67,3.57
2,2021,TA1305000029,State St & Randolph St,41.8847302006,-87.6277335692,50,46,209,206,259,252,28,1.79,1.64,7.46,7.36,9.25,9.0
2,2021,TA1309000063,Lake Park Ave & 56th St,41.793242,-87.587782,2,2,111,103,113,105,28,0.07,0.07,3.96,3.68,4.04,3.75
2,2021,KA1504000133,Rush St & Cedar St,41.90230870122,-87.627690528,57,56,122,134,179,190,28,2.04,2.0,4.36,4.79,6.39,6.79
2,2021,624,Dearborn St & Van Buren St,41.87619516666667,-87.62913033333334,17,14,54,48,71,62,26,0.65,0.54,2.08,1.85,2.73,2.38
2,2021,KA1503000029,South Shore Dr & 67th St,41.773643,-87.567514,1,0,23,17,24,17,20,0.05,0.0,1.15,0.85,1.2,0.85
2,2021,13323,Broadway & Sheridan Rd,41.952833,-87.649993,28,29,132,108,160,137,28,1.0,1.04,4.71,3.86,5.71,4.89
2,2021,KA1504000149,Damen Ave & Foster Ave,41.97561480459,-87.6794590387,9,7,14,18,23,25,13,0.69,0.54,1.08,1.38,1.77,1.92
2,2021,TA1309000004,LaSalle St & Jackson Blvd,41.878166,-87.631929,68,65,171,164,239,229,26,2.62,2.5,6.58,6.31,9.19,8.81
2,2021,18058,Leavitt St & Chicago Ave,41.895437,-87.68198466666666,22,20,63,68,85,88,27,0.81,0.74,2.33,2.52,3.15,3.26
2,2021,WL-008,Clinton St & Roosevelt Rd,41.867053166666665,-87.64109383333333,25,22,49,52,74,74,24,1.04,0.92,2.04,2.17,3.08,3.08
2,2021,13221,Wood St & Milwaukee Ave,41.907655,-87.672552,28,26,84,88,112,114,27,1.04,0.96,3.11,3.26,4.15,4.22
2,2021,523,Eastlake Ter & Rogers Ave,42.0208872805206,-87.66505792737007,11,11,38,34,49,45,21,0.52,0.52,1.81,1.62,2.33,2.14
2,2021,TA1309000025,Halsted St & Roscoe St,41.94367,-87.64895,32,32,105,122,137,154,27,1.19,1.19,3.89,4.52,5.07,5.7
2,2021,13288,Damen Ave & Charleston St,41.9200765,-87.67794466666666,19,12,19,18,38,30,17,1.12,0.71,1.12,1.06,2.24,1.76
2,2021,658,Leavitt St & Division St,41.902997,-87.683825,11,8,40,33,51,41,18,0.61,0.44,2.22,1.83,2.83,2.28
2,2021,TA1307000070,Damen Ave & Thomas St (Augusta Blvd),41.901315,-87.677409,16,18,46,44,62,62,23,0.7,0.78,2.0,1.91,2.7,2.7
2,2021,TA1305000041,Damen Ave & Pierce Ave,41.9093960065,-87.6776919292,54,55,113,128,167,183,26,2.08,2.12,4.35,4.92,6.42,7.04
2,2021,13268,Damen Ave & Wellington Ave,41.935837,-87.67849433333333,6,5,13,11,19,16,16,0.38,0.31,0.81,0.69,1.19,1.0
2,2021,15667,Western Ave & Monroe St,41.8797877089,-87.686112808,5,3,13,12,18,15,10,0.5,0.3,1.3,1.2,1.8,1.5
2,2021,13084,California Ave & Milwaukee Ave,41.922695,-87.697153,27,23,42,44,69,67,26,1.04,0.88,1.62,1.69,2.65,2.58
2,2021,15655,Albany Ave & Bloomingdale Ave,41.91393833333333,-87.70515433333334,12,14,17,21,29,35,16,0.75,0.88,1.06,1.31,1.81,2.19
2,2021,17660,California Ave & Cortez St,41.900363,-87.696704,14,16,47,49,61,65,26,0.54,0.62,1.81,1.88,2.35,2.5
2,2021,15651,Humboldt Blvd & Armitage Ave,41.91751339399,-87.7018089555,14,14,31,28,45,42,24,0.58,0.58,1.29,1.17,1.88,1.75
2,2021,KA1504000146,Clark St & Berwyn Ave,41.9779966544,-87.6680471047,28,29,98,85,126,114,27,1.04,1.07,3.63,3.15,4.67,4.22
2,2021,KA1504000151,Clark St & Bryn Mawr Ave,41.983593,-87.669154,9,9,73,72,82,81,26,0.35,0.35,2.81,2.77,3.15,3.12
2,2021,KA1503000041,McClurg Ct & Erie St,41.894503,-87.617854,55,53,262,254,317,307,28,1.96,1.89,9.36,9.07,11.32,10.96
2,2021,TA1308000046,Morgan St & 31st St,41.83783666666667,-87.65113033333333,5,2,15,13,20,15,16,0.31,0.12,0.94,0.81,1.25,0.94
2,2021,13266,Stave St & Armitage Ave,41.917741,-87.691392,13,13,28,28,41,41,21,0.62,0.62,1.33,1.33,1.95,1.95
2,2021,TA1307000124,Michigan Ave & 14th St,41.864059,-87.623727,13,13,119,120,132,133,26,0.5,0.5,4.58,4.62,5.08,5.12
2,2021,13196,Carpenter St & Huron St,41.894515166666665,-87.65350183333334,20,17,69,59,89,76,27,0.74,0.63,2.56,2.19,3.3,2.81
2,2021,TA1306000029,Lake Shore Dr & Ohio St,41.89257,-87.614492,25,26,144,149,169,175,28,0.89,0.93,5.14,5.32,6.04,6.25
2,2021,TA1307000052,Sheffield Ave & Wellington Ave,41.936266,-87.652662,27,28,145,157,172,185,27,1.0,1.04,5.37,5.81,6.37,6.85
2,2021,13021,Clinton St & Lake St,41.885637,-87.641823,32,29,179,177,211,206,27,1.19,1.07,6.63,6.56,7.81,7.63
2,2021,TA1305000002,Wabash Ave & Roosevelt Rd,41.867227,-87.625961,50,46,212,248,262,294,28,1.79,1.64,7.57,8.86,9.36,10.5
2,2021,KA1504000116,Larrabee St & Oak St,41.90021949323,-87.6429854676,24,20,82,62,106,82,26,0.92,0.77,3.15,2.38,4.08,3.15
2,2021,TA1305000025,Franklin St & Jackson Blvd,41.87801183333333,-87.6355415,29,29,107,98,136,127,23,1.26,1.26,4.65,4.26,5.91,5.52
2,2021,TA1305000034,Honore St & Division St,41.903119,-87.673935,10,11,55,59,65,70,20,0.5,0.55,2.75,2.95,3.25,3.5
2,2021,15644,Central Park Ave & Elbridge Ave,41.93533728263,-87.7168892935,12,14,17,16,29,30,15,0.8,0.93,1.13,1.07,1.93,2.0
2,2021,TA1309000030,Southport Ave & Clybourn Ave,41.920771,-87.663712,12,11,38,47,50,58,20,0.6,0.55,1.9,2.35,2.5,2.9
2,2021,13432,Wood St & Hubbard St,41.889899,-87.671473,16,13,25,24,41,37,22,0.73,0.59,1.14,1.09,1.86,1.68
2,2021,TA1308000049,Wells St & Evergreen Ave,41.906698,-87.63511366666667,61,56,134,127,195,183,27,2.26,2.07,4.96,4.7,7.22,6.78
2,2021,KA1504000117,Halsted St & North Branch St,41.89936843921,-87.6484798752,1,2,20,22,21,24,15,0.07,0.13,1.33,1.47,1.4,1.6
2,2021,RP-007,Clark St & Touhy Ave,42.01256011541,-87.6743671152,0,1,4,1,4,2,5,0.0,0.2,0.8,0.2,0.8,0.4
2,2021,15529,Mies van der Rohe Way & Chestnut St,41.8985866514,-87.6219152258,35,35,163,185,198,220,28,1.25,1.25,5.82,6.61,7.07,7.86
2,2021,SL-008,Federal St & Polk St,41.87207763285,-87.6295437729,33,30,195,192,228,222,28,1.18,1.07,6.96,6.86,8.14,7.93
2,2021,TA1307000005,Indiana Ave & 26th St,41.845687,-87.622481,5,6,60,57,65,63,24,0.21,0.25,2.5,2.38,2.71,2.62
2,2021,13068,Western Ave & Winnebago Ave,41.915541,-87.68713016666666,19,18,57,62,76,80,24,0.79,0.75,2.38,2.58,3.17,3.33
2,2021,TA1307000039,Clark St & Elm St,41.902973,-87.63128,85,80,435,434,520,514,28,3.04,2.86,15.54,15.5,18.57,18.36
2,2021,13045,Dearborn St & Erie St,41.893992,-87.629318,167,160,333,357,500,517,28,5.96,5.71,11.89,12.75,17.86,18.46
2,2021,SL-012,Wabash Ave & 16th St,41.860384,-87.625813,13,14,137,141,150,155,28,0.46,0.5,4.89,5.04,5.36,5.54
2,2021,TA1307000117,Wabash Ave & Grand Ave,41.891466,-87.626761,69,65,182,210,251,275,27,2.56,2.41,6.74,7.78,9.3,10.19
2,2021,15654,Spaulding Ave & Division St,41.90270659438,-87.709219571,4,3,13,7,17,10,12,0.33,0.25,1.08,0.58,1.42,0.83
2,2021,13263,Columbus Dr & Randolph St,41.884728,-87.619521,109,64,289,237,398,301,28,3.89,2.29,10.32,8.46,14.21,10.75
2,2021,13247,Ashland Ave & Chicago Ave,41.895966,-87.667747,13,13,52,45,65,58,24,0.54,0.54,2.17,1.88,2.71,2.42
2,2021,13132,Damen Ave & Chicago Ave,41.89566683333334,-87.67708133333333,30,31,75,80,105,111,24,1.25,1.29,3.12,3.33,4.38,4.62
2,2021,TA1308000006,Damen Ave & Grand Ave,41.891264346481535,-87.676842212677,14,5,23,27,37,32,20,0.7,0.25,1.15,1.35,1.85,1.6
2,2021,KA1503000069,Dorchester Ave & 49th St,41.805830666666665,-87.592499,2,2,8,6,10,8,4,0.5,0.5,2.0,1.5,2.5,2.0
2,2021,15623,Campbell Ave & Montrose Ave,41.96153733333333,-87.6911475,13,9,15,19,28,28,20,0.65,0.45,0.75,0.95,1.4,1.4
2,2021,13006,LaSalle St & Washington St,41.882664,-87.63253,55,50,134,124,189,174,25,2.2,2.0,5.36,4.96,7.56,6.96
2,2021,15550,Canal St & Taylor St,41.870257,-87.639474,14,15,57,68,71,83,27,0.52,0.56,2.11,2.52,2.63,3.07
2,2021,13016,St. Clair St & Erie St,41.89434513742426,-87.62279838323593,72,67,388,392,460,459,28,2.57,2.39,13.86,14.0,16.43,16.39
2,2021,TA1308000021,Winthrop Ave & Lawrence Ave,41.968812,-87.657659,18,15,43,40,61,55,24,0.75,0.62,1.79,1.67,2.54,2.29
2,2021,LF-005,Lake Shore Dr & North Blvd,41.911722,-87.626804,15,16,116,110,131,126,24,0.62,0.67,4.83,4.58,5.46,5.25
2,2021,TA1309000002,Michigan Ave & Jackson Blvd,41.87785,-87.62408,16,16,94,72,110,88,22,0.73,0.73,4.27,3.27,5.0,4.0
2,2021,TA1305000037,Paulina Ave & North Ave,41.910337,-87.670072,20,20,51,52,71,72,24,0.83,0.83,2.12,2.17,2.96,3.0
2,2021,15541,Buckingham Fountain,41.87651122881695,-87.62054800987242,5,7,32,31,37,38,10,0.5,0.7,3.2,3.1,3.7,3.8
2,2021,13022,Streeter Dr & Grand Ave,41.892278,-87.612043,19,18,119,117,138,135,24,0.79,0.75,4.96,4.88,5.75,5.62
2,2021,KA1706005007,Delano Ct & Roosevelt Rd,41.867491,-87.63219,12,13,31,36,43,49,22,0.55,0.59,1.41,1.64,1.95,2.23
2,2021,TA1308000001,Theater on the Lake,41.926277,-87.630834,30,26,146,146,176,172,22,1.36,1.18,6.64,6.64,8.0,7.82
2,2021,13294,Greenview Ave & Diversey Pkwy,41.932573,-87.6659865,11,6,40,47,51,53,20,0.55,0.3,2.0,2.35,2.55,2.65
2,2021,15542,Clinton St & Polk St,41.87146651779,-87.6409491327,2,3,15,17,17,20,16,0.12,0.19,0.94,1.06,1.06,1.25
2,2021,13245,Claremont Ave & Hirsch St,41.907781,-87.685854,1,1,10,10,11,11,11,0.09,0.09,0.91,0.91,1.0,1.0
2,2021,13001,Michigan Ave & Washington St,41.8839840647265,-87.6246839761734,30,30,222,204,252,234,28,1.07,1.07,7.93,7.29,9.0,8.36
2,2021,TA1309000042,Lincoln Ave & Belmont Ave,41.939408666666665,-87.6683635,22,18,94,109,116,127,27,0.81,0.67,3.48,4.04,4.3,4.7
2,2021,13033,Milwaukee Ave & Grand Ave,41.891578,-87.648384,61,58,122,113,183,171,28,2.18,2.07,4.36,4.04,6.54,6.11
2,2021,TA1309000024,Clark St & Schiller St,41.90810066666667,-87.63155916666666,40,35,156,134,196,169,26,1.54,1.35,6.0,5.15,7.54,6.5
2,2021,13265,Kingsbury St & Erie St,41.89380805624359,-87.64169722795485,44,44,181,176,225,220,25,1.76,1.76,7.24,7.04,9.0,8.8
2,2021,13071,Southport Ave & Roscoe St,41.943739,-87.66402,30,29,132,133,162,162,26,1.15,1.12,5.08,5.12,6.23,6.23
2,2021,13085,Kedzie Ave & Milwaukee Ave,41.92960383333333,-87.70789566666667,25,11,78,79,103,90,26,0.96,0.42,3.0,3.04,3.96,3.46
2,2021,KA1504000090,St. Louis Ave & Fullerton Ave,41.92481559681187,-87.71449506282805,4,5,10,23,14,28,16,0.25,0.31,0.62,1.44,0.88,1.75
2,2021,535,Pulaski Rd & Congress Pkwy,41.874325,-87.725704,0,1,8,4,8,5,6,0.0,0.17,1.33,0.67,1.33,0.83
2,2021,13277,Broadway & Belmont Ave,41.940106,-87.645451,25,27,157,166,182,193,28,0.89,0.96,5.61,5.93,6.5,6.89
2,2021,KA1504000152,Lakefront Trail & Bryn Mawr Ave,41.98403669612,-87.6523104689,24,16,118,105,142,121,26,0.92,0.62,4.54,4.04,5.46,4.65
2,2021,TA1309000058,Lincoln Ave & Fullerton Ave,41.92593,-87.64926666666666,60,57,187,190,247,247,28,2.14,2.04,6.68,6.79,8.82,8.82
2,2021,16994,Kilbourn Ave & Milwaukee Ave,41.948803,-87.73998116666667,3,1,1,3,4,4,3,1.0,0.33,0.33,1.0,1.33,1.33
2,2021,13278,Broadway & Cornelia Ave,41.945529,-87.646439,50,46,163,161,213,207,22,2.27,2.09,7.41,7.32,9.68,9.41
2,2021,E002,Chicago Ave & Washington St,42.032562,-87.679101,11,11,40,44,51,55,24,0.46,0.46,1.67,1.83,2.12,2.29
2,2021,KA1504000080,Washtenaw Ave & Lawrence Ave,41.96867133333333,-87.6961615,6,6,16,21,22,27,11,0.55,0.55,1.45,1.91,2.0,2.45
2,2021,TA1308000022,Pine Grove Ave & Irving Park Rd,41.954316166666665,-87.64809816666667,18,18,170,137,188,155,26,0.69,0.69,6.54,5.27,7.23,5.96
2,2021,TA1309000027,Sheridan Rd & Buena Ave,41.958494,-87.654966,11,11,46,45,57,56,19,0.58,0.58,2.42,2.37,3.0,2.95
2,2021,KA1504000155,2112 W Peterson Ave,41.991178,-87.683593,1,1,7,4,8,5,8,0.12,0.12,0.88,0.5,1.0,0.62
2,2021,TA1305000014,Clark St & Wrightwood Ave,41.929571,-87.64309033333333,42,39,121,129,163,168,27,1.56,1.44,4.48,4.78,6.04,6.22
2,2021,TA1308000031,Logan Blvd & Elston Ave,41.929405,-87.68418683333333,18,16,35,43,53,59,22,0.82,0.73,1.59,1.95,2.41,2.68
2,2021,KA1504000164,Keystone Ave & Montrose Ave,41.96110801623,-87.7289701012,1,1,3,5,4,6,2,0.5,0.5,1.5,2.5,2.0,3.0
2,2021,15640,Avers Ave & Belmont Ave,41.939408,-87.723574,1,0,15,7,16,7,11,0.09,0.0,1.36,0.64,1.45,0.64
2,2021,620,Orleans St & Chestnut St (NEXT Apts),41.898203,-87.637536,19,15,73,77,92,92,23,0.83,0.65,3.17,3.35,4.0,4.0
2,2021,TA1309000061,Halsted St & Wrightwood Ave,41.929143,-87.649077,31,28,100,88,131,116,27,1.15,1.04,3.7,3.26,4.85,4.3
2,2021,TA1308000050,Wells St & Concord Ln,41.912133,-87.634656,54,54,236,240,290,294,26,2.08,2.08,9.08,9.23,11.15,11.31
2,2021,13379,Clarendon Ave & Gordon Ter,41.95786233333333,-87.649478,17,17,106,103,123,120,24,0.71,0.71,4.42,4.29,5.12,5.0
2,2021,13389,Clarendon Ave & Junior Ter,41.961004,-87.649603,35,32,149,137,184,169,28,1.25,1.14,5.32,4.89,6.57,6.04
2,2021,KA1504000161,St. Louis Ave & Balmoral Ave,41.98039423475,-87.7161149615,1,1,5,2,6,3,6,0.17,0.17,0.83,0.33,1.0,0.5
2,2021,TA1307000149,Ravenswood Ave & Irving Park Rd,41.95469,-87.67393,15,15,48,49,63,64,24,0.62,0.62,2.0,2.04,2.62,2.67
2,2021,13224,Ashland Ave & Blackhawk St,41.907066,-87.667252,11,11,69,57,80,68,22,0.5,0.5,3.14,2.59,3.64,3.09
2,2021,TA1306000009,Larrabee St & Kingsbury St,41.897764,-87.642884,55,52,183,181,238,233,28,1.96,1.86,6.54,6.46,8.5,8.32
2,2021,605,University Library (NU),42.052939,-87.673447,3,5,35,31,38,36,17,0.18,0.29,2.06,1.82,2.24,2.12
2,2021,KA1504000134,Ritchie Ct & Banks St,41.90704933333333,-87.62598233333334,20,20,118,106,138,126,25,0.8,0.8,4.72,4.24,5.52,5.04
2,2021,KA1503000007,Cornell Ave & Hyde Park Blvd,41.802406,-87.586924,16,10,100,96,116,106,26,0.62,0.38,3.85,3.69,4.46,4.08
2,2021,520,Greenview Ave & Jarvis Ave,42.015962,-87.66857,6,5,35,37,41,42,18,0.33,0.28,1.94,2.06,2.28,2.33
2,2021,13144,Seeley Ave & Roscoe St,41.943403,-87.679618,13,11,26,30,39,41,16,0.81,0.69,1.62,1.88,2.44,2.56
2,2021,517,Clark St & Jarvis Ave,42.0159715,-87.67504016666666,5,5,12,8,17,13,12,0.42,0.42,1.0,0.67,1.42,1.08
2,2021,638,Clinton St & Jackson Blvd,41.878063833333336,-87.64004366666667,46,36,150,143,196,179,27,1.7,1.33,5.56,5.3,7.26,6.63
2,2021,KA1503000070,Harper Ave & 59th St,41.78794281287,-87.5883151702,4,4,76,74,80,78,28,0.14,0.14,2.71,2.64,2.86,2.79
2,2021,13197,Elizabeth (May) St & Fulton St,41.886616486027656,-87.6580399274826,11,9,29,25,40,34,18,0.61,0.5,1.61,1.39,2.22,1.89
2,2021,13191,Sedgwick St & Webster Ave,41.922167,-87.638888,36,38,131,131,167,169,27,1.33,1.41,4.85,4.85,6.19,6.26
2,2021,KA1504000175,Glenwood Ave & Morse Ave,42.00797192287,-87.6655023944,9,7,27,23,36,30,16,0.56,0.44,1.69,1.44,2.25,1.88
2,2021,13008,Millennium Park,41.8810317,-87.62408432,26,24,144,148,170,172,27,0.96,0.89,5.33,5.48,6.3,6.37
2,2021,TA1307000006,Southport Ave & Wellington Ave,41.935733,-87.663576,15,16,63,55,78,71,23,0.65,0.7,2.74,2.39,3.39,3.09
2,2021,13338,Mies van der Rohe Way & Chicago Ave,41.89691,-87.621743,43,41,200,203,243,244,28,1.54,1.46,7.14,7.25,8.68,8.71
2,2021,13011,Canal St & Adams St,41.879255,-87.639904,30,27,159,161,189,188,28,1.07,0.96,5.68,5.75,6.75,6.71
2,2021,KA1504000159,Sheridan Rd & Greenleaf Ave,42.01058656284,-87.6624120948,1,1,20,20,21,21,18,0.06,0.06,1.11,1.11,1.17,1.17
2,2021,13292,Kedzie Ave & Palmer Ct,41.921525,-87.707322,8,11,34,25,42,36,18,0.44,0.61,1.89,1.39,2.33,2.0
2,2021,RN-,Franklin St & Illinois St,41.89102331025185,-87.63547986745834,47,47,162,163,209,210,25,1.88,1.88,6.48,6.52,8.36,8.4
2,2021,13256,California Ave & Division St,41.903029,-87.697474,12,11,32,40,44,51,23,0.52,0.48,1.39,1.74,1.91,2.22
2,2021,TA1308000029,Stetson Ave & South Water St,41.886835,-87.62232,60,52,88,71,148,123,27,2.22,1.93,3.26,2.63,5.48,4.56
2,2021,15491,63rd St Beach,41.78101637196,-87.5761197602,0,0,4,8,4,8,6,0.0,0.0,0.67,1.33,0.67,1.33
2,2021,TA1309000021,Paulina St & Montrose Ave,41.961507,-87.671387,3,4,12,12,15,16,10,0.3,0.4,1.2,1.2,1.5,1.6
2,2021,13354,Ashland Ave & 13th St,41.865234,-87.666507,10,8,27,21,37,29,19,0.53,0.42,1.42,1.11,1.95,1.53
2,2021,TA1307000159,Paulina St & 18th St,41.857901,-87.668745,11,10,40,36,51,46,21,0.52,0.48,1.9,1.71,2.43,2.19
2,2021,TA1309000037,Kimbark Ave & 53rd St,41.799568,-87.594747,14,12,160,148,174,160,29,0.48,0.41,5.52,5.1,6.0,5.52
2,2021,KA1504000158,Oakley Ave & Irving Park Rd,41.95434085219,-87.6860796243,5,3,15,17,20,20,9,0.56,0.33,1.67,1.89,2.22,2.22
2,2021,13332,Loomis St & Lexington St,41.872187,-87.661501,26,20,115,117,141,137,26,1.0,0.77,4.42,4.5,5.42,5.27
2,2021,TA1308000005,Leavitt St & North Ave,41.91014,-87.68235233333333,22,19,42,30,64,49,22,1.0,0.86,1.91,1.36,2.91,2.23
2,2021,TA1307000138,Lincoln Ave & Roscoe St,41.94334,-87.67097,19,18,70,79,89,97,28,0.68,0.64,2.5,2.82,3.18,3.46
2,2021,KA1503000040,Loomis St & Archer Ave,41.84163253965,-87.6574349533,2,2,7,6,9,8,9,0.22,0.22,0.78,0.67,1.0,0.89
2,2021,TA1307000134,Wilton Ave & Belmont Ave,41.94018,-87.65304,44,36,186,204,230,240,28,1.57,1.29,6.64,7.29,8.21,8.57
2,2021,13136,Damen Ave & Division St,41.903266,-87.678435,15,14,86,82,101,96,26,0.58,0.54,3.31,3.15,3.88,3.69
2,2021,TA1308000035,Lake Park Ave & 47th St,41.809443,-87.591875,5,4,24,21,29,25,20,0.25,0.2,1.2,1.05,1.45,1.25
2,2021,TA1309000029,Leavitt St & Armitage Ave,41.917805,-87.682437,11,9,25,30,36,39,15,0.73,0.6,1.67,2.0,2.4,2.6
2,2021,13154,Sheffield Ave & Kingsbury St,41.910522,-87.653106,59,59,170,168,229,227,27,2.19,2.19,6.3,6.22,8.48,8.41
2,2021,13135,Blue Island Ave & 18th St,41.857556,-87.661535,11,11,54,57,65,68,24,0.46,0.46,2.25,2.38,2.71,2.83
2,2021,13096,California Ave & 21st St,41.853804,-87.695742,1,0,5,6,6,6,7,0.14,0.0,0.71,0.86,0.86,0.86
2,2021,TA1309000012,Damen Ave & Sunnyside Ave,41.96325,-87.679258,5,4,14,14,19,18,13,0.38,0.31,1.08,1.08,1.46,1.38
2,2021,13304,Racine Ave & 15th St,41.861267,-87.656625,1,5,34,25,35,30,21,0.05,0.24,1.62,1.19,1.67,1.43
2,2021,KA1504000076,Ellis Ave & 55th St,41.79430062054,-87.6014497734,16,13,222,218,238,231,28,0.57,0.46,7.93,7.79,8.5,8.25
2,2021,SL-007,State St & Harrison St,41.874053,-87.627716,15,13,61,56,76,69,23,0.65,0.57,2.65,2.43,3.3,3.0
2,2021,657,Wood St & Augusta Blvd,41.899181,-87.6722,3,6,27,20,30,26,15,0.2,0.4,1.8,1.33,2.0,1.73
2,2021,TA1309000018,Ravenswood Ave & Berteau Ave,41.957921,-87.673567,17,15,37,39,54,54,22,0.77,0.68,1.68,1.77,2.45,2.45
2,2021,13029,Field Museum,41.865312,-87.617867,9,6,25,30,34,36,14,0.64,0.43,1.79,2.14,2.43,2.57
2,2021,TA1306000002,Morgan Ave & 14th Pl,41.862378,-87.651062,8,7,23,23,31,30,20,0.4,0.35,1.15,1.15,1.55,1.5
2,2021,TA1309000035,Clark St & Winnemac Ave,41.97338333333333,-87.66773616666667,31,29,91,88,122,117,26,1.19,1.12,3.5,3.38,4.69,4.5
2,2021,13307,Laflin St & Cullerton St,41.85491457576575,-87.66355991363525,3,2,15,13,18,15,15,0.2,0.13,1.0,0.87,1.2,1.0
2,2021,643,Smith Park,41.891996166666665,-87.689383,14,18,8,11,22,29,19,0.74,0.95,0.42,0.58,1.16,1.53
2,2021,13325,Broadway & Waveland Ave,41.949074,-87.648636,68,66,299,306,367,372,28,2.43,2.36,10.68,10.93,13.11,13.29
2,2021,TA1305000039,Marshfield Ave & Cortland St,41.91604933333333,-87.6689225,25,25,54,57,79,82,26,0.96,0.96,2.08,2.19,3.04,3.15
2,2021,TA1307000144,Wolcott (Ravenswood) Ave & Montrose Ave,41.96144316666667,-87.67620366666667,11,6,29,34,40,40,19,0.58,0.32,1.53,1.79,2.11,2.11
2,2021,18062,Aberdeen St & Randolph St,41.884114,-87.654264,22,19,66,79,88,98,27,0.81,0.7,2.44,2.93,3.26,3.63
2,2021,13073,Ashland Ave & Lake St,41.88585116666667,-87.6671645,15,5,20,22,35,27,18,0.83,0.28,1.11,1.22,1.94,1.5
2,2021,TA1309000026,Lincoln Ave & Belle Plaine Ave,41.95602616666667,-87.68023516666666,15,13,69,57,84,70,25,0.6,0.52,2.76,2.28,3.36,2.8
2,2021,15621,Albany Ave & Montrose Ave,41.961041,-87.705866,1,1,11,7,12,8,8,0.12,0.12,1.38,0.88,1.5,1.0
2,2021,TA1308000009,Shore Dr & 55th St,41.795212,-87.580715,32,17,72,84,104,101,20,1.6,0.85,3.6,4.2,5.2,5.05
2,2021,TA1307000044,Clinton St & 18th St,41.85795,-87.640826,4,2,51,52,55,54,24,0.17,0.08,2.12,2.17,2.29,2.25
2,2021,13143,Damen Ave & Melrose Ave,41.94057166666666,-87.67868916666667,7,8,16,8,23,16,18,0.39,0.44,0.89,0.44,1.28,0.89
2,2021,20121,Loomis Blvd & 84th St,41.741487,-87.65841,0,0,0,0,0,0,1,0.0,0.0,0.0,0.0,0.0,0.0
2,2021,TA1309000007,Franklin St & Monroe St,41.880317,-87.635185,52,36,144,112,196,148,26,2.0,1.38,5.54,4.31,7.54,5.69
2,2021,KA1504000127,Manor Ave & Leland Ave,41.965875,-87.700825,1,1,8,10,9,11,6,0.17,0.17,1.33,1.67,1.5,1.83
2,2021,13063,Sheridan Rd & Irving Park Rd,41.954245,-87.654406,35,32,180,171,215,203,27,1.3,1.19,6.67,6.33,7.96,7.52
2,2021,TA1307000150,Pine Grove Ave & Waveland Ave,41.94947274088333,-87.64645278453827,19,20,138,140,157,160,25,0.76,0.8,5.52,5.6,6.28,6.4
2,2021,13341,Canal St & Madison St,41.882091,-87.639833,68,51,141,178,209,229,26,2.62,1.96,5.42,6.85,8.04,8.81
2,2021,13179,Clark St & Lincoln Ave,41.9157335,-87.63461466666666,44,33,165,163,209,196,28,1.57,1.18,5.89,5.82,7.46,7.0
2,2021,13296,Ashland Ave & Wrightwood Ave,41.92883,-87.668507,11,9,37,50,48,59,22,0.5,0.41,1.68,2.27,2.18,2.68
2,2021,TA1309000023,Sheffield Ave & Wrightwood Ave,41.928712,-87.653833,28,22,101,98,129,120,27,1.04,0.81,3.74,3.63,4.78,4.44
2,2021,13108,Broadway & Argyle St,41.973815,-87.65966,15,16,71,69,86,85,26,0.58,0.62,2.73,2.65,3.31,3.27
2,2021,TA1307000142,Clark St & Drummond Pl,41.931248,-87.644336,46,45,172,180,218,225,28,1.64,1.61,6.14,6.43,7.79,8.04
2,2021,TA1309000039,Lake Shore Dr & Diversey Pkwy,41.932588,-87.636427,18,18,99,119,117,137,26,0.69,0.69,3.81,4.58,4.5,5.27
2,2021,TA1309000043,Southport Ave & Irving Park Rd,41.954177,-87.664358,14,13,92,92,106,105,27,0.52,0.48,3.41,3.41,3.93,3.89
2,2021,KA17018054,Damen Ave & Walnut (Lake) St,41.885919666666666,-87.67707300000001,11,5,26,30,37,35,18,0.61,0.28,1.44,1.67,2.06,1.94
2,2021,SL-006,Wells St & 19th St,41.856802,-87.633879,2,4,10,11,12,15,8,0.25,0.5,1.25,1.38,1.5,1.88
2,2021,13192,Halsted St & Dickens Ave,41.919936,-87.64883,18,13,89,96,107,109,27,0.67,0.48,3.3,3.56,3.96,4.04
2,2021,TA1308000014,Normal Ave & Archer Ave,41.849556666666665,-87.64060433333333,1,2,3,5,4,7,5,0.2,0.4,0.6,1.0,0.8,1.4
2,2021,331,Halsted St & Clybourn Ave,41.909668,-87.648128,48,46,184,181,232,227,28,1.71,1.64,6.57,6.46,8.29,8.11
2,2021,TA1307000158,Damen Ave & Leland Ave,41.96710316666667,-87.6790435,6,6,24,30,30,36,17,0.35,0.35,1.41,1.76,1.76,2.12
2,2021,13128,Clark St & North Ave,41.911974,-87.631942,17,13,108,101,125,114,27,0.63,0.48,4.0,3.74,4.63,4.22
2,2021,TA1305000005,Dearborn St & Adams St,41.8793563587,-87.6297910363,32,29,83,81,115,110,25,1.28,1.16,3.32,3.24,4.6,4.4
2,2021,TA1306000014,Wilton Ave & Diversey Pkwy,41.932418,-87.652705,25,24,130,122,155,146,24,1.04,1.0,5.42,5.08,6.46,6.08
2,2021,TA1307000131,Wabash Ave & Wacker Pl,41.886875,-87.62603,37,33,112,102,149,135,28,1.32,1.18,4.0,3.64,5.32,4.82
2,2021,TA1306000032,Sheffield Ave & Willow St,41.913688,-87.652855,31,29,134,135,165,164,27,1.15,1.07,4.96,5.0,6.11,6.07
2,2021,KA1504000082,Kedzie Ave & Harrison St,41.8736,-87.704871,0,0,1,0,1,0,2,0.0,0.0,0.5,0.0,0.5,0.0
2,2021,SL-009,Clark St & 9th St (AMLI),41.870816,-87.631246,23,21,87,91,110,112,28,0.82,0.75,3.11,3.25,3.93,4.0
2,2021,TA1307000041,Lake Shore Dr & Wellington Ave,41.9366884494997,-87.63682901859283,19,20,124,126,143,146,28,0.68,0.71,4.43,4.5,5.11,5.21
2,2021,TA1309000019,Lakeview Ave & Fullerton Pkwy,41.92582616666667,-87.63898233333333,36,39,145,130,181,169,27,1.33,1.44,5.37,4.81,6.7,6.26
2,2021,13137,Broadway & Barry Ave,41.93761283333333,-87.64412966666667,50,48,265,268,315,316,28,1.79,1.71,9.46,9.57,11.25,11.29
2,2021,13434,Ashland Ave & Grand Ave,41.89108216666666,-87.6667135,30,21,44,44,74,65,22,1.36,0.95,2.0,2.0,3.36,2.95
2,2021,TA1307000126,Sheffield Ave & Waveland Ave,41.949399,-87.654529,20,20,106,96,126,116,27,0.74,0.74,3.93,3.56,4.67,4.3
2,2021,13194,Ogden Ave & Race Ave,41.89182266666667,-87.65879433333333,57,49,72,86,129,135,28,2.04,1.75,2.57,3.07,4.61,4.82
2,2021,13017,Franklin St & Chicago Ave,41.896746973093805,-87.63566762208939,31,31,179,173,210,204,26,1.19,1.19,6.88,6.65,8.08,7.85
2,2021,TA1307000140,Western Ave & Leland Ave,41.96649453206122,-87.68841862678528,13,9,31,39,44,48,21,0.62,0.43,1.48,1.86,2.1,2.29
2,2021,15622,California Ave & Montrose Ave,41.961068,-87.695439,5,2,13,12,18,14,13,0.38,0.15,1.0,0.92,1.38,1.08
2,2021,13430,LaSalle St & Illinois St,41.89080633333333,-87.63156666666667,29,23,69,81,98,104,23,1.26,1.0,3.0,3.52,4.26,4.52
2,2021,KA1503000002,South Shore Dr & 71st St,41.7664094567,-87.5656875719,10,11,15,16,25,27,10,1.0,1.1,1.5,1.6,2.5,2.7
2,2021,TA1305000003,Fairbanks Ct & Grand Ave,41.89184737210993,-87.62058019638062,30,29,122,113,152,142,23,1.3,1.26,5.3,4.91,6.61,6.17
2,2021,13431,Adler Planetarium,41.866095,-87.607267,12,13,69,71,81,84,19,0.63,0.68,3.63,3.74,4.26,4.42
2,2021,TA1307000120,Green St & Madison St,41.881892,-87.648789,46,44,165,189,211,233,28,1.64,1.57,5.89,6.75,7.54,8.32
2,2021,WL-012,Clinton St & Washington Blvd,41.88338,-87.64117,62,56,161,162,223,218,26,2.38,2.15,6.19,6.23,8.58,8.38
2,2021,18069,Cherry Ave & Blackhawk St,41.907221,-87.655618,1,1,24,23,25,24,22,0.05,0.05,1.09,1.05,1.14,1.09
2,2021,TA1309000067,Cottage Grove Ave & 51st St,41.803038,-87.606615,7,2,6,7,13,9,10,0.7,0.2,0.6,0.7,1.3,0.9
2,2021,KA1504000097,Drake Ave & Montrose Ave,41.96115407569,-87.7165690733,3,3,9,6,12,9,12,0.25,0.25,0.75,0.5,1.0,0.75
2,2021,15571,Broadway & Granville Ave,41.99473316666667,-87.660209,11,10,75,80,86,90,24,0.46,0.42,3.12,3.33,3.58,3.75
2,2021,15689,California Ave & 23rd Pl,41.84910969176,-87.6951398068,0,1,3,3,3,4,4,0.0,0.25,0.75,0.75,0.75,1.0
2,2021,TA1307000064,Lincoln Ave & Diversey Pkwy,41.932225,-87.658617,17,18,99,110,116,128,22,0.77,0.82,4.5,5.0,5.27,5.82
2,2021,KA1503000047,Perry Ave & 69th St,41.76929308995,-87.6281959291,0,0,3,3,3,3,1,0.0,0.0,3.0,3.0,3.0,3.0
2,2021,13102,Calumet Ave & 18th St,41.857611,-87.619407,9,12,51,58,60,70,22,0.41,0.55,2.32,2.64,2.73,3.18
2,2021,TA1307000111,Franklin St & Lake St,41.885837,-87.6355,42,38,121,95,163,133,26,1.62,1.46,4.65,3.65,6.27,5.12
2,2021,13056,Canal St & Monroe St,41.88169,-87.63953,14,13,29,36,43,49,22,0.64,0.59,1.32,1.64,1.95,2.23
2,2021,13036,Michigan Ave & Madison St,41.881901166666665,-87.6251145,34,32,100,87,134,119,26,1.31,1.23,3.85,3.35,5.15,4.58
2,2021,13427,Cityfront Plaza Dr & Pioneer Ct,41.890573,-87.622072,66,62,146,133,212,195,28,2.36,2.21,5.21,4.75,7.57,6.96
2,2021,SL-010,Financial Pl & Ida B Wells Dr,41.8750236280333,-87.6330940425396,32,29,62,63,94,92,25,1.28,1.16,2.48,2.52,3.76,3.68
2,2021,18067,Walsh Park,41.91461,-87.667968,6,5,91,74,97,79,25,0.24,0.2,3.64,2.96,3.88,3.16
2,2021,13398,Blackstone Ave & Hyde Park Blvd,41.802562,-87.590368,6,5,88,79,94,84,28,0.21,0.18,3.14,2.82,3.36,3.0
2,2021,13353,Ada St & Washington Blvd,41.882857,-87.6611585,31,30,97,98,128,128,27,1.15,1.11,3.59,3.63,4.74,4.74
2,2021,TA1305000006,Dearborn St & Monroe St,41.881319815,-87.6295209193,48,41,252,218,300,259,28,1.71,1.46,9.0,7.79,10.71,9.25
2,2021,TA1309000036,Burling St & Diversey Pkwy,41.93314,-87.64776,14,13,142,148,156,161,28,0.5,0.46,5.07,5.29,5.57,5.75
2,2021,TA1305000030,Clark St & Randolph St,41.884576228,-87.63188991,40,39,161,161,201,200,27,1.48,1.44,5.96,5.96,7.44,7.41
2,2021,TA1305000010,Michigan Ave & Ida B Wells Dr,41.87618783333333,-87.624402,22,20,72,72,94,92,26,0.85,0.77,2.77,2.77,3.62,3.54
2,2021,TA1306000026,Racine Ave & Fullerton Ave,41.92556258,-87.65840426,30,28,181,181,211,209,28,1.07,1.0,6.46,6.46,7.54,7.46
2,2021,654,Racine Ave & Washington Blvd,41.883073,-87.656952,5,4,36,36,41,40,19,0.26,0.21,1.89,1.89,2.16,2.11
2,2021,TA1308000019,Racine Ave & Belmont Ave,41.93974733333334,-87.65883216666667,26,16,62,60,88,76,24,1.08,0.67,2.58,2.5,3.67,3.17
2,2021,13165,Racine Ave & 13th St,41.865054,-87.656959,1,0,9,5,10,5,10,0.1,0.0,0.9,0.5,1.0,0.5
2,2021,13409,Sangamon St & Washington Blvd,41.883165,-87.6511,14,14,37,39,51,53,18,0.78,0.78,2.06,2.17,2.83,2.94
2,2021,WL-011,Jefferson St & Monroe St,41.880422,-87.642746,6,9,55,45,61,54,17,0.35,0.53,3.24,2.65,3.59,3.18
2,2021,15646,California Ave & Altgeld St,41.926641833333335,-87.69780033333333,35,30,18,15,53,45,19,1.84,1.58,0.95,0.79,2.79,2.37
2,2021,KA1504000104,Paulina St & Flournoy St,41.87295,-87.66913,34,30,169,150,203,180,26,1.31,1.15,6.5,5.77,7.81,6.92
2,2021,13300,Lake Shore Dr & Monroe St,41.880958,-87.616743,21,17,115,107,136,124,19,1.11,0.89,6.05,5.63,7.16,6.53
2,2021,13269,Ashland Ave & Wellington Ave,41.936083,-87.669807,17,18,34,41,51,59,21,0.81,0.86,1.62,1.95,2.43,2.81
2,2021,TA1308000026,Wentworth Ave & 24th St (Temp),41.85008369347577,-87.6321405172348,2,3,17,24,19,27,18,0.11,0.17,0.94,1.33,1.06,1.5
2,2021,644,Western Ave & Fillmore St,41.868563,-87.686234,28,29,30,25,58,54,26,1.08,1.12,1.15,0.96,2.23,2.08
2,2021,15650,Spaulding Ave & Armitage Ave,41.91710803478932,-87.71022096276283,7,6,22,22,29,28,17,0.41,0.35,1.29,1.29,1.71,1.65
2,2021,TA1307000113,Southport Ave & Wrightwood Ave,41.928773,-87.663913,19,15,55,63,74,78,24,0.79,0.62,2.29,2.62,3.08,3.25
2,2021,TA1307000128,Dearborn Pkwy & Delaware Pl,41.8990475,-87.62992833333334,48,39,182,192,230,231,28,1.71,1.39,6.5,6.86,8.21,8.25
2,2021,TA1306000008,Larrabee St & North Ave,41.91021,-87.6435,30,29,43,31,73,60,26,1.15,1.12,1.65,1.19,2.81,2.31
2,2021,636,Orleans St & Hubbard St,41.890028,-87.636618,40,40,122,121,162,161,27,1.48,1.48,4.52,4.48,6.0,5.96
2,2021,TA1307000143,Sedgwick St & Schiller St,41.9075635,-87.6385625,17,8,32,22,49,30,21,0.81,0.38,1.52,1.05,2.33,1.43
2,2021,KA150400009X,Kimball Ave & Belmont Ave,41.939398,-87.711561,8,9,17,20,25,29,19,0.42,0.47,0.89,1.05,1.32,1.53
2,2021,TA1307000130,Morgan St & Polk St,41.871737,-87.65103,12,14,100,89,112,103,26,0.46,0.54,3.85,3.42,4.31,3.96
2,2021,18016,Bernard St & Elston Ave,41.949923,-87.713949,2,0,16,14,18,14,12,0.17,0.0,1.33,1.17,1.5,1.17
2,2021,TA1307000062,Sedgwick St & Huron St,41.894666,-87.638437,32,32,162,167,194,199,27,1.19,1.19,6.0,6.19,7.19,7.37
2,2021,LP-,Lincoln Park Conservatory,41.92393131136619,-87.63582453131676,14,12,55,54,69,66,22,0.64,0.55,2.5,2.45,3.14,3.0
2,2021,13050,State St & Kinzie St,41.889187,-87.627754,32,26,153,153,185,179,28,1.14,0.93,5.46,5.46,6.61,6.39
2,2021,13243,Milwaukee Ave & Wabansia Ave,41.912616,-87.681391,25,23,70,65,95,88,26,0.96,0.88,2.69,2.5,3.65,3.38
2,2021,E011,Dodge Ave & Main St,42.034832,-87.6991795,4,2,2,3,6,5,6,0.67,0.33,0.33,0.5,1.0,0.83
2,2021,KA1503000014,Ellis Ave & 60th St,41.78509714636,-87.6010727606,23,18,221,218,244,236,27,0.85,0.67,8.19,8.07,9.04,8.74
2,2021,RP-009,Sheridan Rd & Loyola Ave,42.00104377979,-87.6611982433,17,17,29,27,46,44,19,0.89,0.89,1.53,1.42,2.42,2.32
2,2021,KA1504000129,Western Ave & Granville Ave,41.9941845,-87.68942416666667,9,5,6,9,15,14,12,0.75,0.42,0.5,0.75,1.25,1.17
2,2021,13138,Canal St & Jackson Blvd,41.877245,-87.639366,7,8,20,18,27,26,18,0.39,0.44,1.11,1.0,1.5,1.44
2,2021,KA1503000052,Ellis Ave & 53rd St,41.79933626261,-87.6009581145,11,10,113,103,124,113,26,0.42,0.38,4.35,3.96,4.77,4.35
2,2021,18017,Central Park Ave & Bloomingdale Ave,41.914166,-87.716755,4,1,41,41,45,42,24,0.17,0.04,1.71,1.71,1.88,1.75
2,2021,TA1309000032,Elston Ave & Wabansia Ave,41.91294716666667,-87.66418416666667,3,2,28,29,31,31,17,0.18,0.12,1.65,1.71,1.82,1.82
2,2021,TA1307000160,Prairie Ave & Garfield Blvd,41.794853,-87.618691,1,1,8,3,9,4,8,0.12,0.12,1.0,0.38,1.12,0.5
2,2021,15632,Talman Ave & Addison St,41.946638666666665,-87.69468766666667,5,4,7,4,12,8,9,0.56,0.44,0.78,0.44,1.33,0.89
2,2021,15545,Burnham Harbor,41.856268,-87.613348,4,3,82,77,86,80,14,0.29,0.21,5.86,5.5,6.14,5.71
2,2021,20239,Marquette Ave & 89th St,41.73366879071472,-87.55834221839905,0,0,1,1,1,1,2,0.0,0.0,0.5,0.5,0.5,0.5
2,2021,TA1308000002,Greenwood Ave & 47th St,41.809835,-87.599383,3,1,17,17,20,18,21,0.14,0.05,0.81,0.81,0.95,0.86
2,2021,TA1309000049,Lake Shore Dr & Belmont Ave,41.940775,-87.639192,17,18,92,100,109,118,25,0.68,0.72,3.68,4.0,4.36,4.72
2,2021,13289,Eckhart Park,41.89637337,-87.66098386,21,17,84,75,105,92,25,0.84,0.68,3.36,3.0,4.2,3.68
2,2021,TA1307000121,Halsted St & Polk St,41.87184,-87.64664,7,7,95,95,102,102,25,0.28,0.28,3.8,3.8,4.08,4.08
2,2021,13139,Throop St & Taylor St,41.868968,-87.659141,11,10,80,73,91,83,21,0.52,0.48,3.81,3.48,4.33,3.95
2,2021,13053,Green St & Randolph St,41.883668,-87.64867,40,35,90,107,130,142,27,1.48,1.3,3.33,3.96,4.81,5.26
2,2021,632,Clark St & Newport St,41.94454,-87.654678,23,23,119,114,142,137,25,0.92,0.92,4.76,4.56,5.68,5.48
2,2021,536,Kostner Ave & Lake St,41.885928,-87.73541,1,1,1,0,2,1,4,0.25,0.25,0.25,0.0,0.5,0.25
2,2021,13271,Damen Ave & Clybourn Ave,41.931931,-87.677856,9,10,33,36,42,46,14,0.64,0.71,2.36,2.57,3.0,3.29
2,2021,13034,Michigan Ave & Pearson St,41.89766,-87.62351,17,15,87,88,104,103,25,0.68,0.6,3.48,3.52,4.16,4.12
2,2021,TA1307000001,Greenview Ave & Fullerton Ave,41.92533,-87.6658,30,28,145,163,175,191,28,1.07,1.0,5.18,5.82,6.25,6.82
2,2021,13290,Noble St & Milwaukee Ave,41.90068,-87.6626,15,14,99,97,114,111,26,0.58,0.54,3.81,3.73,4.38,4.27
2,2021,TA1307000115,Clybourn Ave & Division St,41.904613,-87.640552,19,14,80,84,99,98,26,0.73,0.54,3.08,3.23,3.81,3.77
2,2021,Hubbard Bike-checking (LBS-WH-TEST),Base - 2132 W Hubbard Warehouse,41.88995451607409,-87.68065094947815,1,0,2,3,3,3,5,0.2,0.0,0.4,0.6,0.6,0.6
2,2021,15652,Central Park Ave & North Ave,41.90965687563,-87.7166319516,4,2,7,6,11,8,8,0.5,0.25,0.88,0.75,1.38,1.0
2,2021,KA1503000015,Wabash Ave & Adams St,41.87947235235,-87.6256886059,30,23,95,87,125,110,28,1.07,0.82,3.39,3.11,4.46,3.93
2,2021,TA1307000066,Damen Ave & Coulter St,41.8491195,-87.67570183333333,2,0,7,3,9,3,8,0.25,0.0,0.88,0.38,1.12,0.38
2,2021,KA1504000162,Clark St & Lunt Ave,42.009074,-87.67419,13,11,12,8,25,19,16,0.81,0.69,0.75,0.5,1.56,1.19
2,2021,TA1305000035,State St & Van Buren St,41.877181,-87.627844,16,17,85,71,101,88,23,0.7,0.74,3.7,3.09,4.39,3.83
2,2021,15443,Shields Ave & 28th Pl,41.84284333333333,-87.63548,3,1,16,22,19,23,13,0.23,0.08,1.23,1.69,1.46,1.77
2,2021,13059,Bissell St & Armitage Ave,41.91844,-87.65222,29,30,134,137,163,167,26,1.12,1.15,5.15,5.27,6.27,6.42
2,2021,KA1503000038,Shields Ave & 31st St,41.838464,-87.635406,8,8,35,30,43,38,19,0.42,0.42,1.84,1.58,2.26,2.0
2,2021,KA1503000066,Wood St & 35th St,41.83010465416,-87.6702983089,1,1,7,4,8,5,6,0.17,0.17,1.17,0.67,1.33,0.83
2,2021,TA1307000163,Clifton Ave & Armitage Ave,41.918216,-87.656936,19,17,95,102,114,119,27,0.7,0.63,3.52,3.78,4.22,4.41
2,2021,TA1309000001,Halsted St & Maxwell St,41.864883,-87.647071,7,6,56,47,63,53,24,0.29,0.25,2.33,1.96,2.62,2.21
2,2021,TA1309000055,Emerald Ave & 31st St,41.838198,-87.645143,3,3,49,45,52,48,21,0.14,0.14,2.33,2.14,2.48,2.29
2,2021,514,Ridge Blvd & Howard St,42.019276,-87.68452,1,0,2,2,3,2,4,0.25,0.0,0.5,0.5,0.75,0.5
2,2021,KA1504000103,Western Ave & Walton St,41.89841768945,-87.6865960164,9,9,57,54,66,63,22,0.41,0.41,2.59,2.45,3.0,2.86
2,2021,15535,Desplaines St & Randolph St,41.88461618962,-87.6445705849,23,23,127,125,150,148,28,0.82,0.82,4.54,4.46,5.36,5.29
2,2021,TA1307000153,Emerald Ave & 28th St,41.84358,-87.645368,5,4,18,15,23,19,13,0.38,0.31,1.38,1.15,1.77,1.46
2,2021,13217,Calumet Ave & 33rd St,41.8349,-87.61793,3,1,38,34,41,35,20,0.15,0.05,1.9,1.7,2.05,1.75
2,2021,15446,Racine Ave & 35th St,41.83069611252,-87.6559759116,2,1,18,29,20,30,24,0.08,0.04,0.75,1.21,0.83,1.25
2,2021,13160,May St & Taylor St,41.8694821,-87.6554864,12,9,67,58,79,67,24,0.5,0.38,2.79,2.42,3.29,2.79
2,2021,KA1503000043,Kingsbury St & Kinzie St,41.88917683258,-87.6385057718,96,87,293,283,389,370,28,3.43,3.11,10.46,10.11,13.89,13.21
2,2021,TA1306000003,Desplaines St & Kinzie St,41.888716036,-87.6444478533,74,68,216,216,290,284,28,2.64,2.43,7.71,7.71,10.36,10.14
2,2021,15442,Ashland Ave & Archer Ave,41.83920868403,-87.6656098589,3,3,7,5,10,8,10,0.3,0.3,0.7,0.5,1.0,0.8
2,2021,15539,Desplaines St & Jackson Blvd,41.878161166666665,-87.64428766666667,42,41,184,186,226,227,28,1.5,1.46,6.57,6.64,8.07,8.11
2,2021,KA1503000032,Union Ave & Root St,41.819102,-87.643278,0,0,2,1,2,1,2,0.0,0.0,1.0,0.5,1.0,0.5
2,2021,13345,Calumet Ave & 35th St,41.831379,-87.618034,0,0,21,13,21,13,14,0.0,0.0,1.5,0.93,1.5,0.93
2,2021,13162,Halsted St & 21st St,41.85377981072743,-87.6466029882431,2,2,14,12,16,14,13,0.15,0.15,1.08,0.92,1.23,1.08
2,2021,13157,Aberdeen St & Jackson Blvd,41.87772613,-87.65478743,40,27,116,125,156,152,27,1.48,1.0,4.3,4.63,5.78,5.63
2,2021,TA1307000129,State St & 35th St,41.8310363140161,-87.62679755687714,4,3,42,55,46,58,24,0.17,0.12,1.75,2.29,1.92,2.42
2,2021,RP-005,Western Ave & Lunt Ave,42.0085943972,-87.6904922389,5,5,8,4,13,9,9,0.56,0.56,0.89,0.44,1.44,1.0
2,2021,KA1503000027,Prairie Ave & 43rd St,41.81665889302,-87.6194124619,0,0,11,18,11,18,13,0.0,0.0,0.85,1.38,0.85,1.38
2,2021,TA1305000020,Ogden Ave & Chicago Ave,41.896362458,-87.6540612729,27,27,59,61,86,88,25,1.08,1.08,2.36,2.44,3.44,3.52
2,2021,TA1306000025,Racine Ave & Congress Pkwy,41.87464,-87.65703,8,10,38,35,46,45,21,0.38,0.48,1.81,1.67,2.19,2.14
2,2021,16010,Keystone Ave & Fullerton Ave,41.92459,-87.72785,5,6,5,5,10,11,14,0.36,0.43,0.36,0.36,0.71,0.79
2,2021,TA1309000064,Wolcott Ave & Polk St,41.871262,-87.673688,48,37,160,147,208,184,27,1.78,1.37,5.93,5.44,7.7,6.81
2,2021,KA1504000142,Drake Ave & Addison St,41.947326,-87.717582,6,4,16,14,22,18,17,0.35,0.24,0.94,0.82,1.29,1.06
2,2021,KA1503000074,Museum of Science and Industry,41.79172820953,-87.583945009,1,1,36,35,37,36,23,0.04,0.04,1.57,1.52,1.61,1.57
2,2021,TA1309000011,Ellis Ave & 58th St,41.788746,-87.601334,5,5,131,125,136,130,27,0.19,0.19,4.85,4.63,5.04,4.81
2,2021,KA1503000013,Princeton Ave & Garfield Blvd,41.794982,-87.633124,0,0,2,0,2,0,2,0.0,0.0,1.0,0.0,1.0,0.0
2,2021,KA1503000020,South Shore Dr & 74th St,41.76218896038,-87.55927465,1,0,19,18,20,18,16,0.06,0.0,1.19,1.12,1.25,1.12
2,2021,TA1307000164,Woodlawn Ave & 55th St,41.795264,-87.596471,11,9,102,85,113,94,27,0.41,0.33,3.78,3.15,4.19,3.48
2,2021,KA1503000071,University Ave & 57th St,41.791478,-87.599861,11,11,161,159,172,170,27,0.41,0.41,5.96,5.89,6.37,6.3
2,2021,KA1503000068,Leavitt St & Archer Ave,41.82879201994,-87.6806044594,5,5,22,24,27,29,22,0.23,0.23,1.0,1.09,1.23,1.32
2,2021,KA1503000065,Woodlawn Ave & Lake Park Ave,41.81409271048,-87.5970051479,2,1,21,15,23,16,19,0.11,0.05,1.11,0.79,1.21,0.84
2,2021,13257,Campbell Ave & North Ave,41.910535,-87.689556,25,25,41,39,66,64,22,1.14,1.14,1.86,1.77,3.0,2.91
2,2021,TA1308000007,MLK Jr Dr & 47th St,41.809851,-87.616279,1,1,1,0,2,1,4,0.25,0.25,0.25,0.0,0.5,0.25
2,2021,13326,Canal St & Harrison St,41.874255,-87.639573,1,2,29,29,30,31,18,0.06,0.11,1.61,1.61,1.67,1.72
2,2021,TA1309000059,Racine Ave & Wrightwood Ave,41.928887,-87.658971,10,10,22,26,32,36,19,0.53,0.53,1.16,1.37,1.68,1.89
2,2021,KA1504000109,Washtenaw Ave & Ogden Ave,41.86193049278259,-87.69345045089722,6,5,43,44,49,49,27,0.22,0.19,1.59,1.63,1.81,1.81
2,2021,13099,Halsted St & 18th St,41.857499,-87.646277,3,1,20,23,23,24,18,0.17,0.06,1.11,1.28,1.28,1.33
2,2021,TA1307000127,Clark St & Grace St,41.95078,-87.659172,28,21,149,112,177,133,27,1.04,0.78,5.52,4.15,6.56,4.93
2,2021,13258,California Ave & North Ave,41.91044,-87.6972,15,12,54,48,69,60,27,0.56,0.44,2.0,1.78,2.56,2.22
2,2021,13155,Racine Ave & Randolph St,41.884069,-87.656853,9,1,30,34,39,35,21,0.43,0.05,1.43,1.62,1.86,1.67
2,2021,KA1504000148,Clark St & Elmdale Ave,41.99086044812557,-87.66972362995148,5,7,35,31,40,38,21,0.24,0.33,1.67,1.48,1.9,1.81
2,2021,13319,Ashland Ave & Grace St,41.950687,-87.6687,8,6,28,26,36,32,16,0.5,0.38,1.75,1.62,2.25,2.0
2,2021,TA1308000012,Montrose Harbor,41.963982,-87.638181,1,3,42,31,43,34,10,0.1,0.3,4.2,3.1,4.3,3.4
2,2021,KA1504000171,Marine Dr & Ainslie St,41.9716,-87.650154,9,9,56,57,65,66,19,0.47,0.47,2.95,3.0,3.42,3.47
2,2021,15648,Campbell Ave & Fullerton Ave,41.92463247165,-87.6893070063,17,20,16,17,33,37,19,0.89,1.05,0.84,0.89,1.74,1.95
2,2021,13074,Broadway & Wilson - Truman College Vaccination Site,41.965221,-87.658139,19,22,62,70,81,92,25,0.76,0.88,2.48,2.8,3.24,3.68
2,2021,TA1305000001,Wabash Ave & Cermak Rd,41.852619,-87.626488,1,0,18,17,19,17,13,0.08,0.0,1.38,1.31,1.46,1.31
2,2021,TA1309000041,Sheridan Rd & Lawrence Ave,41.9694705,-87.6547185,11,7,38,42,49,49,19,0.58,0.37,2.0,2.21,2.58,2.58
2,2021,15645,Richmond St & Diversey Ave,41.93190196886,-87.7011951301,5,4,11,7,16,11,6,0.83,0.67,1.83,1.17,2.67,1.83
2,2021,TA1305000017,Halsted St & Roosevelt Rd,41.867324,-87.648625,11,4,54,51,65,55,26,0.42,0.15,2.08,1.96,2.5,2.12
2,2021,13248,Ashland Ave & Augusta Blvd,41.899643,-87.6677,12,8,46,47,58,55,20,0.6,0.4,2.3,2.35,2.9,2.75
2,2021,13037,Clinton St & Tilden St,41.875885,-87.640795,7,7,30,20,37,27,20,0.35,0.35,1.5,1.0,1.85,1.35
2,2021,KA1504000078,Lincoln Ave & Winona St,41.97491129677,-87.6925025594,14,13,14,10,28,23,17,0.82,0.76,0.82,0.59,1.65,1.35
2,2021,13229,Southport Ave & Belmont Ave,41.93947775040509,-87.6637476682663,19,12,78,77,97,89,27,0.7,0.44,2.89,2.85,3.59,3.3
2,2021,TA1309000033,Sheffield Ave & Webster Ave,41.92154,-87.653818,27,24,105,107,132,131,25,1.08,0.96,4.2,4.28,5.28,5.24
2,2021,TA1306000007,Larrabee St & Menomonee St,41.91468,-87.64332,11,8,38,39,49,47,23,0.48,0.35,1.65,1.7,2.13,2.04
2,2021,TA1307000156,Lincoln Ave & Sunnyside Ave,41.963004,-87.684781,3,2,31,33,34,35,16,0.19,0.12,1.94,2.06,2.12,2.19
2,2021,13215,Rhodes Ave & 32nd St,41.83670583333333,-87.61341483333334,8,7,21,19,29,26,20,0.4,0.35,1.05,0.95,1.45,1.3
2,2021,639,Lakefront Trail & Wilson Ave,41.965845,-87.645361,3,2,48,56,51,58,13,0.23,0.15,3.69,4.31,3.92,4.46
2,2021,13124,Cannon Dr & Fullerton Ave,41.9267559875,-87.6344287848,2,4,17,22,19,26,14,0.14,0.29,1.21,1.57,1.36,1.86
2,2021,15544,Shedd Aquarium,41.86722595682,-87.6153553902,16,12,108,79,124,91,23,0.7,0.52,4.7,3.43,5.39,3.96
2,2021,599,Valli Produce - Evanston Plaza,42.039742,-87.699413,11,11,13,18,24,29,18,0.61,0.61,0.72,1.0,1.33,1.61
2,2021,546,Damen Ave & Pershing Rd,41.823192,-87.676597,3,3,2,3,5,6,6,0.5,0.5,0.33,0.5,0.83,1.0
2,2021,15691,Albany Ave & 26th St,41.84447501366,-87.7020130128,0,0,2,2,2,2,3,0.0,0.0,0.67,0.67,0.67,0.67
2,2021,KA1503000075,DuSable Museum,41.79156801058,-87.6078521774,1,1,6,10,7,11,8,0.12,0.12,0.75,1.25,0.88,1.38
2,2021,515,Paulina St & Howard St,42.019159,-87.673573,12,7,13,18,25,25,17,0.71,0.41,0.76,1.06,1.47,1.47
2,2021,15664,Artesian Ave & Hubbard St,41.88949181977,-87.6882193648,16,16,9,5,25,21,14,1.14,1.14,0.64,0.36,1.79,1.5
2,2021,15668,Western Ave & Congress Pkwy,41.87474885079,-87.6864452757,1,0,7,10,8,10,10,0.1,0.0,0.7,1.0,0.8,1.0
2,2021,13134,Damen Ave & Madison St,41.88137,-87.67493,6,7,7,11,13,18,14,0.43,0.5,0.5,0.79,0.93,1.29
2,2021,KA1504000102,Fairfield Ave & Roosevelt Rd,41.866624,-87.694521,2,1,1,1,3,2,3,0.67,0.33,0.33,0.33,1.0,0.67
2,2021,13091,Western Ave & 21st St,41.854109,-87.685838,8,6,14,18,22,24,17,0.47,0.35,0.82,1.06,1.29,1.41
2,2021,598,Elmwood Ave & Austin St,42.02579,-87.6841135,6,7,10,6,16,13,13,0.46,0.54,0.77,0.46,1.23,1.0
2,2021,600,Dodge Ave & Church St,42.048308,-87.698224,1,1,12,11,13,12,12,0.08,0.08,1.0,0.92,1.08,1.0
2,2021,15634,Western Ave & Roscoe St,41.943093,-87.6873335,3,4,4,6,7,10,11,0.27,0.36,0.36,0.55,0.64,0.91
2,2021,661,Evanston Civic Center,42.057044,-87.686554,1,0,9,7,10,7,5,0.2,0.0,1.8,1.4,2.0,1.4
2,2021,13028,900 W Harrison St,41.874754,-87.649807,5,4,38,38,43,42,19,0.26,0.21,2.0,2.0,2.26,2.21
2,2021,KA1504000156,Clark St & Schreiber Ave,41.99925182186,-87.6713773393,14,16,22,14,36,30,20,0.7,0.8,1.1,0.7,1.8,1.5
2,2021,E014,Lincolnwood Dr & Central St,42.064854,-87.715297,0,1,6,6,6,7,9,0.0,0.11,0.67,0.67,0.67,0.78
2,2021,TA1307000038,Sedgwick St & North Ave,41.91141,-87.638713,30,29,119,141,149,170,28,1.07,1.04,4.25,5.04,5.32,6.07
2,2021,E006,Central St Metra,42.063598,-87.69873,3,2,9,6,12,8,9,0.33,0.22,1.0,0.67,1.33,0.89
2,2021,KA1503000018,Jeffery Blvd & 71st St,41.76663823695,-87.5764501141,1,1,4,6,5,7,10,0.1,0.1,0.4,0.6,0.5,0.7
2,2021,13163,Morgan St & 18th St,41.858086,-87.651073,2,5,15,22,17,27,14,0.14,0.36,1.07,1.57,1.21,1.93
2,2021,TA1307000136,Clark St & Wellington Ave,41.9364968219,-87.6475386582,36,25,188,168,224,193,28,1.29,0.89,6.71,6.0,8.0,6.89
2,2021,TA1308000038,Cottage Grove Ave & Oakwood Blvd,41.822985,-87.6071,1,2,8,6,9,8,7,0.14,0.29,1.14,0.86,1.29,1.14
2,2021,TA1308000043,Halsted St & 35th St,41.830661,-87.647172,1,2,3,3,4,5,10,0.1,0.2,0.3,0.3,0.4,0.5
2,2021,15546,Calumet Ave & 21st St,41.85418424947,-87.6191537415,3,1,6,1,9,2,4,0.75,0.25,1.5,0.25,2.25,0.5
2,2021,KA1504000101,Ogden Ave & Roosevelt Rd,41.86650148316,-87.68469707,4,4,9,11,13,15,12,0.33,0.33,0.75,0.92,1.08,1.25
2,2021,13075,Wentworth Ave & Cermak Rd,41.85308455741279,-87.63193130493164,12,13,38,44,50,57,18,0.67,0.72,2.11,2.44,2.78,3.17
2,2021,KA1504000093,Rockwell St & Eastwood Ave,41.96590013976,-87.6936384935,16,6,14,13,30,19,15,1.07,0.4,0.93,0.87,2.0,1.27
2,2021,KA1504000106,Kedzie Ave & Lake St,41.88460328501,-87.7063037436,2,4,4,3,6,7,9,0.22,0.44,0.44,0.33,0.67,0.78
2,2021,KA17018068,Leavitt St & Belmont Ave,41.939354,-87.683282,21,12,15,16,36,28,16,1.31,0.75,0.94,1.0,2.25,1.75
2,2021,13241,Western Ave & Division St,41.902893,-87.687275,28,26,35,36,63,62,25,1.12,1.04,1.4,1.44,2.52,2.48
2,2021,13042,Michigan Ave & Oak St,41.900777833333336,-87.62373666666667,22,19,91,93,113,112,24,0.92,0.79,3.79,3.88,4.71,4.67
2,2021,TA1309000015,Leavitt St & Lawrence Ave,41.968885,-87.684001,2,4,13,9,15,13,10,0.2,0.4,1.3,0.9,1.5,1.3
2,2021,RP-004,Oakley Ave & Touhy Ave,42.012342,-87.688243,1,1,5,5,6,6,5,0.2,0.2,1.0,1.0,1.2,1.2
2,2021,TA1308000047,Southport Ave & Clark St,41.957081,-87.664199,6,6,28,24,34,30,17,0.35,0.35,1.65,1.41,2.0,1.76
2,2021,596,Benson Ave & Church St,42.048214,-87.683485,5,5,42,52,47,57,20,0.25,0.25,2.1,2.6,2.35,2.85
2,2021,TA1309000014,Clark St & Leland Ave,41.967096,-87.667429,37,36,113,112,150,148,29,1.28,1.24,3.9,3.86,5.17,5.1
2,2021,660,Sheridan Rd & Columbia Ave,42.004583,-87.661406,11,7,22,26,33,33,21,0.52,0.33,1.05,1.24,1.57,1.57
2,2021,TA1309000066,Ravenswood Ave & Lawrence Ave,41.96909,-87.674237,20,21,70,68,90,89,25,0.8,0.84,2.8,2.72,3.6,3.56
2,2021,KA1504000143,Leavitt St & Addison St,41.94657816666667,-87.683387,1,5,12,10,13,15,12,0.08,0.42,1.0,0.83,1.08,1.25
2,2021,553,Elizabeth St & 47th St,41.80839,-87.656526,0,0,2,0,2,0,1,0.0,0.0,2.0,0.0,2.0,0.0
2,2021,13420,MLK Jr Dr & Pershing Rd,41.8246,-87.61678,1,0,8,8,9,8,8,0.12,0.0,1.0,1.0,1.12,1.0
2,2021,15642,California Ave & Fletcher St,41.93842879148,-87.698007756,13,11,24,21,37,32,18,0.72,0.61,1.33,1.17,2.06,1.78
2,2021,TA1305000004,McCormick Place,41.8513751729,-87.6188346489,2,2,16,13,18,15,15,0.13,0.13,1.07,0.87,1.2,1.0
2,2021,KA1504000139,Monticello Ave & Irving Park Rd,41.95400483876,-87.7191281797,3,2,9,6,12,8,5,0.6,0.4,1.8,1.2,2.4,1.6
2,2021,13249,Ashland Ave & Belle Plaine Ave,41.956057,-87.668835,2,2,20,24,22,26,17,0.12,0.12,1.18,1.41,1.29,1.53
2,2021,15653,Troy St & North Ave,41.90976930169,-87.7052804871,2,2,14,13,16,15,12,0.17,0.17,1.17,1.08,1.33,1.25
2,2021,13081,Ogden Ave & Congress Pkwy,41.875017,-87.6731475,13,8,26,23,39,31,16,0.81,0.5,1.62,1.44,2.44,1.94
2,2021,TA1306000006,Orleans St & Elm St,41.90291216666667,-87.637745,7,6,63,68,70,74,24,0.29,0.25,2.62,2.83,2.92,3.08
2,2021,13242,Milwaukee Ave & Rockwell St,41.92019556200566,-87.69265919923781,10,10,34,27,44,37,18,0.56,0.56,1.89,1.5,2.44,2.06
2,2021,15615,Christiana Ave & Lawrence Ave,41.96835449363,-87.7118306675,4,4,4,6,8,10,9,0.44,0.44,0.44,0.67,0.89,1.11
2,2021,15470,Calumet Ave & 51st St,41.80229465088,-87.6180535802,0,0,2,4,2,4,6,0.0,0.0,0.33,0.67,0.33,0.67
2,2021,13331,May St & Cullerton St,41.855136,-87.654127,1,3,6,6,7,9,8,0.12,0.38,0.75,0.75,0.88,1.12
2,2021,E008,Chicago Ave & Sheridan Rd,42.050491,-87.677821,9,9,31,31,40,40,23,0.39,0.39,1.35,1.35,1.74,1.74
2,2021,16918,Austin Blvd & Madison St,41.880281,-87.774453,0,0,4,2,4,2,2,0.0,0.0,2.0,1.0,2.0,1.0
2,2021,590,Kilbourn Ave & Irving Park Rd,41.953733,-87.740569,1,0,2,2,3,2,4,0.25,0.0,0.5,0.5,0.75,0.5
2,2021,SL-013,State St & 19th St,41.856594,-87.627542,2,2,18,21,20,23,18,0.11,0.11,1.0,1.17,1.11,1.28
2,2021,20238,Greenwood Ave & 97th St,41.71870315475741,-87.59703576564789,0,0,5,3,5,3,6,0.0,0.0,0.83,0.5,0.83,0.5
2,2021,655,Hoyne Ave & Balmoral Ave,41.979847166666666,-87.68198083333333,8,9,3,3,11,12,11,0.73,0.82,0.27,0.27,1.0,1.09
2,2021,RP-008,Clark St & Columbia Ave,42.00445062934,-87.6724024047,4,5,12,4,16,9,12,0.33,0.42,1.0,0.33,1.33,0.75
2,2021,650,Eggleston Ave & 69th St,41.768898,-87.635876,0,0,0,0,0,0,1,0.0,0.0,0.0,0.0,0.0,0.0
2,2021,KA1504000160,Francisco Ave & Foster Ave,41.97563272521,-87.7014194389,1,1,12,13,13,14,13,0.08,0.08,0.92,1.0,1.0,1.08
2,2021,15624,Avondale Ave & Irving Park Rd,41.953393,-87.732002,0,1,5,4,5,5,5,0.0,0.2,1.0,0.8,1.0,1.0
2,2021,594,Western Blvd & 48th Pl,41.805661,-87.683392,2,1,2,0,4,1,4,0.5,0.25,0.5,0.0,1.0,0.25
2,2021,TA1309000003,Western Ave & 24th St,41.84847,-87.685109,1,0,1,5,2,5,5,0.2,0.0,0.2,1.0,0.4,1.0
2,2021,519,Wolcott Ave & Fargo Ave,42.01691666666667,-87.67777883333333,1,0,1,2,2,2,4,0.25,0.0,0.25,0.5,0.5,0.5
2,2021,TA1309000006,Larrabee St & Armitage Ave,41.918084,-87.643749,15,12,72,64,87,76,25,0.6,0.48,2.88,2.56,3.48,3.04
2,2021,KA1706005015,Kildare Ave & Montrose Ave,41.96108,-87.73569,0,0,4,1,4,1,3,0.0,0.0,1.33,0.33,1.33,0.33
2,2021,18022,Archer (Damen) Ave & 37th St,41.826712,-87.683144,3,2,2,1,5,3,5,0.6,0.4,0.4,0.2,1.0,0.6
2,2021,KA1504000167,Kedzie Ave & Bryn Mawr Ave,41.98239708485,-87.7089225202,1,0,4,5,5,5,8,0.12,0.0,0.5,0.62,0.62,0.62
2,2021,KA1503000004,Lake Park Ave & 35th St,41.83127423549,-87.6087991946,1,1,16,12,17,13,12,0.08,0.08,1.33,1.0,1.42,1.08
2,2021,KA1503000019,Stony Island Ave & 75th St,41.7586696704,-87.586882871,1,0,1,0,2,0,2,0.5,0.0,0.5,0.0,1.0,0.0
2,2021,E007,Central St & Girard Ave,42.064313,-87.686152,0,0,8,13,8,13,10,0.0,0.0,0.8,1.3,0.8,1.3
2,2021,15685,Central Park Ave & Ogden Ave,41.854063503874464,-87.71511733531952,5,6,4,2,9,8,10,0.5,0.6,0.4,0.2,0.9,0.8
2,2021,20254.0,W Armitage Ave & N Sheffield Ave,41.92,-87.65,3,2,0,0,3,2,2,1.5,1.0,0.0,0.0,1.5,1.0
2,2021,KA1503000054,Cottage Grove Ave & 63rd St,41.78073083333334,-87.6058085,3,2,0,2,3,4,6,0.5,0.33,0.0,0.33,0.5,0.67
2,2021,KA1504000147,Winchester (Ravenswood) Ave & Balmoral Ave,41.979762,-87.67753,2,4,9,12,11,16,13,0.15,0.31,0.69,0.92,0.85,1.23
2,2021,631,Malcolm X College Vaccination Site,41.87761716666667,-87.67387333333333,3,2,10,12,13,14,14,0.21,0.14,0.71,0.86,0.93,1.0
2,2021,KA1504000091,Hoyne Ave & 47th St,41.808227,-87.67718,0,0,1,2,1,2,3,0.0,0.0,0.33,0.67,0.33,0.67
2,2021,13089,Damen Ave & Cullerton St,41.854966518753926,-87.67569959163664,2,3,14,17,16,20,14,0.14,0.21,1.0,1.21,1.14,1.43
2,2021,16906,Austin Blvd & Lake St,41.887919,-87.774446,1,1,2,4,3,5,3,0.33,0.33,0.67,1.33,1.0,1.67
2,2021,KA1503000005,Wentworth Ave & 35th St,41.830777,-87.632504,0,1,4,3,4,4,7,0.0,0.14,0.57,0.43,0.57,0.57
2,2021,16921,Austin Blvd & Chicago Ave,41.894887,-87.774704,2,4,3,1,5,5,6,0.33,0.67,0.5,0.17,0.83,0.83
2,2021,KA1504000128,Kedzie Ave & Foster Ave,41.975672,-87.709261,1,1,3,2,4,3,5,0.2,0.2,0.6,0.4,0.8,0.6
2,2021,15631,Troy St & Elston Ave,41.94524356848,-87.7066499009,9,9,15,16,24,25,16,0.56,0.56,0.94,1.0,1.5,1.56
2,2021,15628,California Ave & Byron St,41.95216219326,-87.698051113,7,4,12,15,19,19,13,0.54,0.31,0.92,1.15,1.46,1.46
2,2021,KA1504000110,Millard Ave & 26th St,41.84455710033698,-87.71607220172882,2,1,7,7,9,8,8,0.25,0.12,0.88,0.88,1.12,1.0
2,2021,595,Wabash Ave & 87th St,41.736646,-87.622634,0,0,2,2,2,2,1,0.0,0.0,2.0,2.0,2.0,2.0
2,2021,585,Cottage Grove Ave & 83rd St,41.743441,-87.604836,0,1,1,2,1,3,2,0.0,0.5,0.5,1.0,0.5,1.5
2,2021,584,Ellis Ave & 83rd St,41.744123,-87.599034,0,0,1,1,1,1,1,0.0,0.0,1.0,1.0,1.0,1.0
2,2021,530,Laramie Ave & Kinzie St,41.887832,-87.755527,0,0,1,1,1,1,1,0.0,0.0,1.0,1.0,1.0,1.0
2,2021,TA1306000011,Wells St & Walton St,41.89993001,-87.63443007,12,5,64,53,76,58,24,0.5,0.21,2.67,2.21,3.17,2.42
2,2021,604,Sheridan Rd & Noyes St (NU),42.058239,-87.677432,2,1,63,52,65,53,23,0.09,0.04,2.74,2.26,2.83,2.3
2,2021,20253.0,N Paulina St & Lincoln Ave,41.94,-87.67,1,3,0,0,1,3,3,0.33,1.0,0.0,0.0,0.33,1.0
2,2021,13259,California Ave & Francis Pl (Temp),41.91849115368695,-87.69742280244827,7,7,21,17,28,24,20,0.35,0.35,1.05,0.85,1.4,1.2
2,2021,15643,Kosciuszko Park,41.93062166666667,-87.72378883333333,6,8,10,8,16,16,13,0.46,0.62,0.77,0.62,1.23,1.23
2,2021,15686,Kedzie Ave & 21st St,41.85353363213,-87.7050730318,0,0,1,2,1,2,3,0.0,0.0,0.33,0.67,0.33,0.67
2,2021,20252.0,W Oakdale Ave & N Broadway,41.94,-87.64,7,4,0,0,7,4,6,1.17,0.67,0.0,0.0,1.17,0.67
2,2021,16940,Ashland Ave & 50th St,41.802987,-87.6646925,1,0,0,2,1,2,3,0.33,0.0,0.0,0.67,0.33,0.67
2,2021,592,Knox Ave & Montrose Ave,41.960728,-87.74542883333334,3,2,2,0,5,2,7,0.43,0.29,0.29,0.0,0.71,0.29
2,2021,KA1503000025,Wentworth Ave & 63rd St,41.78007963264,-87.6297463052,4,4,1,1,5,5,2,2.0,2.0,0.5,0.5,2.5,2.5
2,2021,16903,Cicero Ave & Lake St,41.886841,-87.745261,0,0,1,1,1,1,1,0.0,0.0,1.0,1.0,1.0,1.0
2,2021,527,Western Ave & Howard St,42.0189505,-87.6900365,2,3,0,1,2,4,3,0.67,1.0,0.0,0.33,0.67,1.33
2,2021,KA1503000049,Rainbow Beach,41.75787144829,-87.54938625,0,0,1,0,1,0,1,0.0,0.0,1.0,0.0,1.0,0.0
2,2021,570,Evans Ave & 75th St,41.75849,-87.60641,0,0,2,0,2,0,2,0.0,0.0,1.0,0.0,1.0,0.0
2,2021,KA1504000114,Kedzie Ave & Chicago Ave,41.89546530305,-87.7061278837,6,5,11,16,17,21,14,0.43,0.36,0.79,1.14,1.21,1.5
2,2021,KA1503000033,Eberhart Ave & 61st St,41.78414169317,-87.6133078304,1,1,3,3,4,4,6,0.17,0.17,0.5,0.5,0.67,0.67
2,2021,KA1504000126,Kedzie Ave & Leland Ave,41.96668636205,-87.7080519806,2,1,5,12,7,13,7,0.29,0.14,0.71,1.71,1.0,1.86
2,2021,545,Kostner Ave & Adams St,41.877917,-87.735737,0,0,5,5,5,5,5,0.0,0.0,1.0,1.0,1.0,1.0
2,2021,KA1503000009,Princeton Ave & 47th St,41.80931770924,-87.633449288,0,0,2,1,2,1,2,0.0,0.0,1.0,0.5,1.0,0.5
2,2021,15585,Budlong Woods Library,41.98366470886,-87.6964225611,3,5,3,3,6,8,7,0.43,0.71,0.43,0.43,0.86,1.14
2,2021,RP-001,Warren Park West,42.001785,-87.688829,1,1,5,5,6,6,5,0.2,0.2,1.0,1.0,1.2,1.2
2,2021,KA1503000073,MLK Jr Dr & 56th St,41.79342945658,-87.6158532619,0,0,2,1,2,1,2,0.0,0.0,1.0,0.5,1.0,0.5
2,2021,KA1504000113,Sacramento Blvd & Franklin Blvd,41.890604833333335,-87.7025885,2,1,0,1,2,2,3,0.67,0.33,0.0,0.33,0.67,0.67
2,2021,646,State St & 54th St,41.796642,-87.625923,0,1,2,0,2,1,3,0.0,0.33,0.67,0.0,0.67,0.33
2,2021,TA1308000023,Cottage Grove Ave & 43rd St,41.81650916666667,-87.60661666666667,6,7,5,6,11,13,11,0.55,0.64,0.45,0.55,1.0,1.18
2,2021,TA1309000053,Cottage Grove Ave & 47th St,41.809855,-87.606755,0,0,14,18,14,18,15,0.0,0.0,0.93,1.2,0.93,1.2
2,2021,KA1504000096,Sawyer Ave & Irving Park Rd,41.95358617895,-87.7093107999,9,8,6,5,15,13,14,0.64,0.57,0.43,0.36,1.07,0.93
2,2021,15666,California Ave & Lake St,41.88445395657,-87.6962981368,2,3,4,1,6,4,5,0.4,0.6,0.8,0.2,1.2,0.8
2,2021,16920,Central Ave & Chicago Ave,41.894958,-87.764902,11,8,9,8,20,16,15,0.73,0.53,0.6,0.53,1.33,1.07
2,2021,15449,State St & Pershing Rd,41.82301523798,-87.6265680185,0,0,2,1,2,1,2,0.0,0.0,1.0,0.5,1.0,0.5
2,2021,KA1503000023,Stony Island Ave & 67th St,41.77345849948,-87.5853397391,0,0,4,2,4,2,3,0.0,0.0,1.33,0.67,1.33,0.67
2,2021,583,Stony Island Ave & 82nd St,41.74661,-87.58596933333334,1,0,0,0,1,0,1,1.0,0.0,0.0,0.0,1.0,0.0
2,2021,KA1503000024,Yates Blvd & 75th St,41.758768,-87.56644,0,0,4,1,4,1,4,0.0,0.0,1.0,0.25,1.0,0.25
2,2021,TA1309000051,Commercial Ave & 83rd St,41.7446365,-87.55119416666666,1,0,1,2,2,2,1,1.0,0.0,1.0,2.0,2.0,2.0
2,2021,KA1503000021,Stony Island Ave & 64th St,41.778881,-87.586647,1,0,3,11,4,11,12,0.08,0.0,0.25,0.92,0.33,0.92
2,2021,16907,Central Park Blvd & 5th Ave,41.875653666666665,-87.71554783333333,8,8,0,0,8,8,9,0.89,0.89,0.0,0.0,0.89,0.89
2,2021,16806,Bosworth Ave & Howard St,42.019514,-87.66932183333333,1,0,1,5,2,5,5,0.2,0.0,0.2,1.0,0.4,1.0
2,2021,16991,Milwaukee Ave & Cuyler Ave,41.95449933333333,-87.74959383333334,4,4,6,5,10,9,6,0.67,0.67,1.0,0.83,1.67,1.5
2,2021,KA1503000010,Halsted St & 51st St,41.80183164049,-87.645213904,0,0,1,1,1,1,1,0.0,0.0,1.0,1.0,1.0,1.0
2,2021,KA1503000046,Dorchester Ave & 63rd St,41.7804056457,-87.5914159893,0,0,4,6,4,6,8,0.0,0.0,0.5,0.75,0.5,0.75
2,2021,KA1504000141,Pulaski Rd & Eddy St (Temp),41.946264,-87.731023,0,0,3,1,3,1,2,0.0,0.0,1.5,0.5,1.5,0.5
2,2021,KA1504000130,Maplewood Ave & Peterson Ave,41.990198,-87.6934005,1,1,1,1,2,2,3,0.33,0.33,0.33,0.33,0.67,0.67
2,2021,RP-006,Ridge Blvd & Touhy Ave,42.01213227742,-87.6829126443,0,0,1,2,1,2,2,0.0,0.0,0.5,1.0,0.5,1.0
2,2021,13083,Indiana Ave & 40th St,41.82168,-87.6216,0,0,4,3,4,3,4,0.0,0.0,1.0,0.75,1.0,0.75
2,2021,518,Conservatory Dr & Lake St,41.88545666666667,-87.71684833333333,2,2,1,4,3,6,7,0.29,0.29,0.14,0.57,0.43,0.86
2,2021,20210,State St & 123rd St,41.67064383687979,-87.62258648872375,0,0,1,1,1,1,1,0.0,0.0,1.0,1.0,1.0,1.0
2,2021,20206,Homewood Ave & 115th St,41.68459507202618,-87.67070800065994,1,0,1,1,2,1,2,0.5,0.0,0.5,0.5,1.0,0.5
2,2021,20131,Cottage Grove Ave & 111th Pl,41.69170975847015,-87.61000156402588,0,0,1,0,1,0,1,0.0,0.0,1.0,0.0,1.0,0.0
2,2021,20229,Baltimore Ave & 87th St,41.73733560041666,-87.54851460456847,0,0,1,0,1,0,1,0.0,0.0,1.0,0.0,1.0,0.0
2,2021,528,Pulaski Rd & Lake St,41.885409,-87.726491,0,0,0,2,0,2,3,0.0,0.0,0.0,0.67,0.0,0.67
2,2021,RP-002,Warren Park East,42.00454962194,-87.6806661451,1,0,3,5,4,5,6,0.17,0.0,0.5,0.83,0.67,0.83
2,2021,573,State St & 79th St,41.750794,-87.624424,0,0,1,0,1,0,1,0.0,0.0,1.0,0.0,1.0,0.0
2,2021,KA1503000031,Cottage Grove Ave & 67th St,41.77371016666667,-87.60564683333334,1,0,0,1,1,1,1,1.0,0.0,0.0,1.0,1.0,1.0
2,2021,20109,Vernon Ave & 107th St,41.70012137923888,-87.61225998401642,1,2,1,0,2,2,3,0.33,0.67,0.33,0.0,0.67,0.67
2,2021,KA1503000051,Halsted St & 47th Pl,41.80813391481,-87.6456165545,0,1,1,1,1,2,2,0.0,0.5,0.5,0.5,0.5,1.0
2,2021,KA1503000030,Jeffery Blvd & 67th St,41.77351755125,-87.5771428255,0,0,6,4,6,4,7,0.0,0.0,0.86,0.57,0.86,0.57
2,2021,15687,Central Park Ave & 24th St,41.848116833333336,-87.71511283333334,1,0,0,2,1,2,3,0.33,0.0,0.0,0.67,0.33,0.67
2,2021,20223,Ewing Ave & Burnham Greenway,41.71274876109496,-87.53481388092041,0,0,3,3,3,3,4,0.0,0.0,0.75,0.75,0.75,0.75
2,2021,KA1503000003,Cottage Grove Ave & 71st St,41.76571903697,-87.604959713,0,0,1,0,1,0,1,0.0,0.0,1.0,0.0,1.0,0.0
2,2021,649,Stewart Ave & 63rd St,41.779835,-87.634774,0,0,1,1,1,1,2,0.0,0.0,0.5,0.5,0.5,0.5
2,2021,20214,Avenue O & 134th St,41.65191333333333,-87.53950833333333,1,1,0,0,1,1,1,1.0,1.0,0.0,0.0,1.0,1.0
2,2021,TA1307000161,Halsted St & 37th St,41.827059,-87.64572,0,1,2,3,2,4,5,0.0,0.2,0.4,0.6,0.4,0.8
2,2021,20104,State St & 95th St,41.7218499,-87.6228544,0,0,1,0,1,0,1,0.0,0.0,1.0,0.0,1.0,0.0
2,2021,20247.0,W Washington Blvd & N Peoria St,41.88,-87.65,1,1,0,0,1,1,2,0.5,0.5,0.0,0.0,0.5,0.5
2,2021,662,Dodge Ave & Mulford St,42.0236905,-87.6996185,5,1,0,1,5,2,8,0.62,0.12,0.0,0.12,0.62,0.25
2,2021,20119,Elizabeth St & 92nd St,41.72679896370119,-87.65429019927979,4,3,2,2,6,5,4,1.0,0.75,0.5,0.5,1.5,1.25
2,2021,20205,Western Ave & 111th St,41.69115633333333,-87.68132216666666,1,0,0,0,1,0,1,1.0,0.0,0.0,0.0,1.0,0.0
2,2021,20203,Lawndale Ave & 111th St,41.6913165,-87.71285216666666,1,0,0,0,1,0,1,1.0,0.0,0.0,0.0,1.0,0.0
2,2021,20129,Ada St & 113th St,41.687561623357375,-87.65547573566435,0,0,1,0,1,0,1,0.0,0.0,1.0,0.0,1.0,0.0
2,2021,653,Cornell Dr & Hayes Dr,41.780595,-87.584846,0,0,2,3,2,3,4,0.0,0.0,0.5,0.75,0.5,0.75
2,2021,KA1503000045,Stony Island Ave & 71st St,41.7664929373,-87.5864608775,0,0,1,6,1,6,4,0.0,0.0,0.25,1.5,0.25,1.5
2,2021,569,Woodlawn Ave & 75th St,41.75916,-87.595751,0,0,1,0,1,0,1,0.0,0.0,1.0,0.0,1.0,0.0
2,2021,15599,Calumet Ave & 71st St,41.765504,-87.616957,1,0,0,0,1,0,1,1.0,0.0,0.0,0.0,1.0,0.0
2,2021,15692,California Ave & 26th St,41.844079,-87.69542716666666,1,0,0,1,1,1,1,1.0,0.0,0.0,1.0,1.0,1.0
2,2021,20251.0,N Carpenter St & W Lake St,41.89,-87.65,2,3,0,0,2,3,4,0.5,0.75,0.0,0.0,0.5,0.75
2,2021,574,Vernon Ave & 79th St,41.75094,-87.61379,0,0,1,0,1,0,1,0.0,0.0,1.0,0.0,1.0,0.0
2,2021,16937,Ashland Ave & McDowell Ave,41.80887,-87.66454,0,0,1,1,1,1,2,0.0,0.0,0.5,0.5,0.5,0.5
2,2021,20110,Eberhart Ave & 91st St,41.72942527802096,-87.60952949523924,0,0,1,1,1,1,1,0.0,0.0,1.0,1.0,1.0,1.0
2,2021,16905,Central Ave & Lake St,41.88773483333333,-87.76545766666666,1,0,0,0,1,0,1,1.0,0.0,0.0,0.0,1.0,0.0
2,2021,20246.0,N Green St & W Lake St,41.89,-87.65,1,2,0,0,1,2,3,0.33,0.67,0.0,0.0,0.33,0.67
2,2021,534,Karlov Ave & Madison St,41.88084383333333,-87.72797766666666,1,1,0,0,1,1,1,1.0,1.0,0.0,0.0,1.0,1.0
2,2021,20108,Hale Ave & 107th St,41.69920616812768,-87.66891896724701,0,0,1,0,1,0,1,0.0,0.0,1.0,0.0,1.0,0.0
2,2021,20236,Stony Island Ave & 90th St,41.731432833333336,-87.58576833333333,1,0,0,1,1,1,1,1.0,0.0,0.0,1.0,1.0,1.0
2,2021,15682,Kedzie Ave & Roosevelt Rd,41.866493,-87.706496,0,0,0,0,0,0,2,0.0,0.0,0.0,0.0,0.0,0.0
2,2021,20228,Constance Ave & 95th St,41.72229074095262,-87.57896840572357,0,0,0,1,0,1,2,0.0,0.0,0.0,0.5,0.0,0.5
2,2021,KA1503000028,Jeffery Blvd & 76th St,41.75712006802,-87.5758393587,0,0,0,1,0,1,1,0.0,0.0,0.0,1.0,0.0,1.0
2,2021,16933,Morgan St & Pershing Rd,41.823613,-87.650931,0,0,0,8,0,8,8,0.0,0.0,0.0,1.0,0.0,1.0
2,2021,20103,Prospect Sq & 91st St,41.7282338,-87.6675239,0,0,0,1,0,1,1,0.0,0.0,0.0,1.0,0.0,1.0
2,2021,20256.0,N Sheffield Ave & W Wellington Ave,41.94,-87.65,0,1,0,0,0,1,1,0.0,1.0,0.0,0.0,0.0,1.0
2,2021,KA1503000001,Shields Ave & 43rd St,41.81620767856,-87.6348193497,0,0,0,1,0,1,1,0.0,0.0,0.0,1.0,0.0,1.0
2,2021,16932,Ashland Ave & Pershing Rd,41.823465,-87.665577,0,1,0,1,0,2,2,0.0,0.5,0.0,0.5,0.0,1.0
2,2021,642,Latrobe Ave & Chicago Ave,41.894745,-87.756895,0,0,0,1,0,1,1,0.0,0.0,0.0,1.0,0.0,1.0
2,2021,16943,Ashland Ave & Garfield Blvd,41.792822,-87.664429,0,0,0,1,0,1,1,0.0,0.0,0.0,1.0,0.0,1.0
2,2021,20248.0,N Hampden Ct & W Diversey Ave,41.93,-87.64,0,1,0,0,0,1,1,0.0,1.0,0.0,0.0,0.0,1.0
2,2021,KA1504000168,Western & 28th - Velasquez Institute Vaccination Site,41.84151770807,-87.6851314409,0,0,0,1,0,1,1,0.0,0.0,0.0,1.0,0.0,1.0
2,2021,20107,Walden Pkwy & 100th St,41.71228983333334,-87.66771233333333,0,1,0,0,0,1,1,0.0,1.0,0.0,0.0,0.0,1.0
2,2021,561,Damen Ave & 59th St,41.78602,-87.674167,0,1,0,0,0,1,2,0.0,0.5,0.0,0.0,0.0,0.5
2,2021,20243,Michigan Ave & 114th St,41.68701479467118,-87.62105226516724,0,0,0,1,0,1,1,0.0,0.0,0.0,1.0,0.0,1.0
2,2021,20101,Summit Ave & 86th St,41.737848,-87.6449,0,0,0,0,0,0,1,0.0,0.0,0.0,0.0,0.0,0.0
2,2021,20113,Dauphin Ave & 103rd St,41.7072503677818,-87.60766267776489,0,0,0,1,0,1,1,0.0,0.0,0.0,1.0,0.0,1.0
2,2021,554,Damen Ave & 51st St,41.800908,-87.674684,0,0,0,1,0,1,1,0.0,0.0,0.0,1.0,0.0,1.0
2,2021,KA1504000086,Kedzie Ave & 24th St,41.84819094491,-87.7054137458,0,0,0,3,0,3,2,0.0,0.0,0.0,1.5,0.0,1.5
2,2021,20207,Major Taylor Trail & 115th St,41.68493159519296,-87.6452887058258,0,0,0,1,0,1,1,0.0,0.0,0.0,1.0,0.0,1.0
2,2021,20244,Halsted St & 73rd St,41.76163266666666,-87.64413966666666,0,1,0,0,0,1,1,0.0,1.0,0.0,0.0,0.0,1.0
2,2021,579,Phillips Ave & 79th St,41.75182,-87.565211,0,0,0,1,0,1,1,0.0,0.0,0.0,1.0,0.0,1.0
2,2021,13213,State St & 29th St,41.841707,-87.626938,0,0,0,1,0,1,1,0.0,0.0,0.0,1.0,0.0,1.0
