month,year,station_id,station_name,lat,lng,ebike_start,ebike_end,cbike_start,cbike_end,total_start,total_end,active_days,daily_ebike_start,daily_ebike_end,daily_cbike_start,daily_cbike_end,daily_start,daily_end
5,2022,TA1307000117,Wabash Ave & Grand Ave,41.891466,-87.626761,1195,1144,1899,1823,3094,2967,31,38.55,36.9,61.26,58.81,99.81,95.71
5,2022,13300,DuSable Lake Shore Dr & Monroe St,41.880958,-87.616743,1380,1309,3422,3347,4802,4656,31,44.52,42.23,110.39,107.97,154.9,150.19
5,2022,TA1305000032,Clinton St & Madison St,41.882242,-87.641066,1000,988,1538,1577,2538,2565,31,32.26,31.87,49.61,50.87,81.87,82.74
5,2022,13196,Carpenter St & Huron St,41.894556,-87.653449,532,451,737,612,1269,1063,32,16.62,14.09,23.03,19.12,39.66,33.22
5,2022,13290,Noble St & Milwaukee Ave,41.90068,-87.6626,353,338,614,591,967,929,31,11.39,10.9,19.81,19.06,31.19,29.97
5,2022,TA1309000061,Halsted St & Wrightwood Ave,41.929143,-87.649077,824,814,1516,1515,2340,2329,32,25.75,25.44,47.38,47.34,73.12,72.78
5,2022,13235,Southport Ave & Waveland Ave,41.948067,-87.6640125,740,730,1240,1290,1980,2020,31,23.87,23.55,40.0,41.61,63.87,65.16
5,2022,13080,Hermitage Ave & Polk St,41.871514,-87.669886,166,168,330,345,496,513,31,5.35,5.42,10.65,11.13,16.0,16.55
5,2022,KA1503000053,MLK Jr Dr & 63rd St,41.78013283333333,-87.615954,13,15,22,18,35,33,22,0.59,0.68,1.0,0.82,1.59,1.5
5,2022,547,Cicero Ave & Wrightwood Ave,41.93,-87.75,49,51,0,0,49,51,23,2.13,2.22,0.0,0.0,2.13,2.22
5,2022,KA1504000156,Clark St & Schreiber Ave,41.99925182186,-87.6713773393,185,170,191,199,376,369,31,5.97,5.48,6.16,6.42,12.13,11.9
5,2022,TA1307000142,Clark St & Drummond Pl,41.931216,-87.64428666666667,693,698,1630,1715,2323,2413,31,22.35,22.52,52.58,55.32,74.94,77.84
5,2022,13017,Franklin St & Chicago Ave,41.896746973093805,-87.63566762208939,624,594,1048,1025,1672,1619,31,20.13,19.16,33.81,33.06,53.94,52.23
5,2022,13248,Ashland Ave & Augusta Blvd,41.899641333333335,-87.66845466666666,282,271,523,483,805,754,31,9.1,8.74,16.87,15.58,25.97,24.32
5,2022,15632,Talman Ave & Addison St,41.94661583333333,-87.69461816666667,202,201,188,216,390,417,31,6.52,6.48,6.06,6.97,12.58,13.45
5,2022,KA1503000072,Wacker Dr & Washington St,41.88314336439022,-87.63724207878113,452,423,500,498,952,921,31,14.58,13.65,16.13,16.06,30.71,29.71
5,2022,13075,Wentworth Ave & Cermak Rd,41.853092333333336,-87.6318545,324,329,652,768,976,1097,31,10.45,10.61,21.03,24.77,31.48,35.39
5,2022,13011,Canal St & Adams St,41.879255,-87.639904,867,788,1414,1193,2281,1981,31,27.97,25.42,45.61,38.48,73.58,63.9
5,2022,655,Hoyne Ave & Balmoral Ave,41.9798745,-87.68195116666666,180,186,114,118,294,304,31,5.81,6.0,3.68,3.81,9.48,9.81
5,2022,TA1308000002,Greenwood Ave & 47th St,41.80977033333333,-87.59921183333333,96,94,142,136,238,230,31,3.1,3.03,4.58,4.39,7.68,7.42
5,2022,KA1503000052,Ellis Ave & 53rd St,41.799336,-87.600958,213,201,518,482,731,683,31,6.87,6.48,16.71,15.55,23.58,22.03
5,2022,TA1307000121,Halsted St & Polk St,41.87184,-87.64664,265,245,728,724,993,969,31,8.55,7.9,23.48,23.35,32.03,31.26
5,2022,TA1307000126,Sheffield Ave & Waveland Ave,41.9491555,-87.65416533333334,1150,1271,1473,1797,2623,3068,31,37.1,41.0,47.52,57.97,84.61,98.97
5,2022,TA1307000006,Southport Ave & Wellington Ave,41.935733,-87.663576,488,463,1011,1006,1499,1469,31,15.74,14.94,32.61,32.45,48.35,47.39
5,2022,TA1307000048,Fort Dearborn Dr & 31st St,41.838556,-87.608218,346,342,969,955,1315,1297,32,10.81,10.69,30.28,29.84,41.09,40.53
5,2022,TA1305000014,Clark St & Wrightwood Ave,41.929546,-87.643118,940,926,1759,1741,2699,2667,31,30.32,29.87,56.74,56.16,87.06,86.03
5,2022,KA1504000134,Ritchie Ct & Banks St,41.906866,-87.626217,552,521,947,902,1499,1423,31,17.81,16.81,30.55,29.1,48.35,45.9
5,2022,13271,Damen Ave & Clybourn Ave,41.931931,-87.677856,219,216,276,315,495,531,31,7.06,6.97,8.9,10.16,15.97,17.13
5,2022,20207,Major Taylor Trail & 115th St,41.68493159519296,-87.6452887058258,9,6,9,9,18,15,18,0.5,0.33,0.5,0.5,1.0,0.83
5,2022,620,Orleans St & Chestnut St (NEXT Apts),41.898139358,-87.637496829,367,327,619,532,986,859,31,11.84,10.55,19.97,17.16,31.81,27.71
5,2022,18069,Cherry Ave & Blackhawk St,41.907221,-87.655618,99,90,123,134,222,224,30,3.3,3.0,4.1,4.47,7.4,7.47
5,2022,13243,Milwaukee Ave & Wabansia Ave,41.912616,-87.681391,563,563,843,882,1406,1445,32,17.59,17.59,26.34,27.56,43.94,45.16
5,2022,632,Clark St & Newport St,41.94454,-87.654678,1029,988,1707,1694,2736,2682,31,33.19,31.87,55.06,54.65,88.26,86.52
5,2022,13006,LaSalle St & Washington St,41.882465124,-87.63228786,427,411,524,499,951,910,31,13.77,13.26,16.9,16.1,30.68,29.35
5,2022,TA1307000149,Ravenswood Ave & Irving Park Rd,41.95469,-87.67393,241,238,351,366,592,604,31,7.77,7.68,11.32,11.81,19.1,19.48
5,2022,TA1309000033,Sheffield Ave & Webster Ave,41.92154,-87.653818,694,692,1279,1270,1973,1962,31,22.39,22.32,41.26,40.97,63.65,63.29
5,2022,13109,Broadway & Berwyn Ave,41.978353,-87.659753,372,368,490,500,862,868,31,12.0,11.87,15.81,16.13,27.81,28.0
5,2022,KA1503000015,Wabash Ave & Adams St,41.87947235235,-87.6256886059,445,450,583,627,1028,1077,31,14.35,14.52,18.81,20.23,33.16,34.74
5,2022,KA1503000043,Kingsbury St & Kinzie St,41.88917683258,-87.6385057718,1175,1111,2250,2182,3425,3293,31,37.9,35.84,72.58,70.39,110.48,106.23
5,2022,13326,Canal St & Harrison St,41.874255,-87.639573,90,70,250,204,340,274,31,2.9,2.26,8.06,6.58,10.97,8.84
5,2022,KA1706005007,Delano Ct & Roosevelt Rd,41.867491,-87.63219,357,349,528,544,885,893,32,11.16,10.91,16.5,17.0,27.66,27.91
5,2022,TA1306000003,Desplaines St & Kinzie St,41.88859683333333,-87.64447583333333,771,702,1287,1190,2058,1892,31,24.87,22.65,41.52,38.39,66.39,61.03
5,2022,TA1309000035,Clark St & Winnemac Ave,41.97334764047304,-87.6678554713726,627,620,882,909,1509,1529,31,20.23,20.0,28.45,29.32,48.68,49.32
5,2022,13061,Ashland Ave & Division St,41.90345,-87.667747,1045,1012,1494,1489,2539,2501,31,33.71,32.65,48.19,48.03,81.9,80.68
5,2022,15628,California Ave & Byron St,41.95218166666667,-87.69804916666666,157,145,144,152,301,297,31,5.06,4.68,4.65,4.9,9.71,9.58
5,2022,TA1309000006,Larrabee St & Armitage Ave,41.918084,-87.643749,346,334,736,702,1082,1036,31,11.16,10.77,23.74,22.65,34.9,33.42
5,2022,TA1307000127,Clark St & Grace St,41.950837166666666,-87.65918216666667,713,702,1006,981,1719,1683,32,22.28,21.94,31.44,30.66,53.72,52.59
5,2022,TA1305000041,Damen Ave & Pierce Ave,41.9093960065,-87.6776919292,986,984,1507,1585,2493,2569,32,30.81,30.75,47.09,49.53,77.91,80.28
5,2022,TA1307000038,Sedgwick St & North Ave,41.911386,-87.638677,573,563,1246,1222,1819,1785,31,18.48,18.16,40.19,39.42,58.68,57.58
5,2022,400,Lawler Ave & 50th St,41.8,-87.75,28,31,0,0,28,31,24,1.17,1.29,0.0,0.0,1.17,1.29
5,2022,13138,Canal St & Jackson Blvd,41.87736233333333,-87.63955083333333,488,485,565,555,1053,1040,31,15.74,15.65,18.23,17.9,33.97,33.55
5,2022,13258,California Ave & North Ave,41.9104754,-87.6968944,323,316,332,332,655,648,31,10.42,10.19,10.71,10.71,21.13,20.9
5,2022,TA1306000010,Daley Center Plaza,41.884241,-87.629634,519,481,1050,986,1569,1467,32,16.22,15.03,32.81,30.81,49.03,45.84
5,2022,KA1504000148,Clark St & Elmdale Ave,41.99086044812557,-87.66972362995148,171,166,262,275,433,441,31,5.52,5.35,8.45,8.87,13.97,14.23
5,2022,TA1307000115,Clybourn Ave & Division St,41.904613,-87.640552,276,274,483,474,759,748,31,8.9,8.84,15.58,15.29,24.48,24.13
5,2022,KA1504000117,Halsted St & North Branch St,41.899318,-87.64853616666667,88,77,157,118,245,195,31,2.84,2.48,5.06,3.81,7.9,6.29
5,2022,TA1307000130,Morgan St & Polk St,41.871737,-87.65103,375,370,671,643,1046,1013,31,12.1,11.94,21.65,20.74,33.74,32.68
5,2022,598,Elmwood Ave & Austin St,42.025784,-87.684107,88,91,74,80,162,171,31,2.84,2.94,2.39,2.58,5.23,5.52
5,2022,599,Valli Produce - Evanston Plaza,42.039742,-87.699413,75,68,70,61,145,129,31,2.42,2.19,2.26,1.97,4.68,4.16
5,2022,439,Campbell Ave & Irving Park Rd,41.95,-87.69,17,17,0,0,17,17,15,1.13,1.13,0.0,0.0,1.13,1.13
5,2022,SL-010,Financial Pl & Ida B Wells Dr,41.8750236280333,-87.6330940425396,310,267,549,485,859,752,31,10.0,8.61,17.71,15.65,27.71,24.26
5,2022,15535,Desplaines St & Randolph St,41.88445266666667,-87.64459766666667,496,460,752,697,1248,1157,31,16.0,14.84,24.26,22.48,40.26,37.32
5,2022,LF-005,DuSable Lake Shore Dr & North Blvd,41.911722,-87.626804,1110,1121,3686,4100,4796,5221,31,35.81,36.16,118.9,132.26,154.71,168.42
5,2022,15655,Albany Ave & Bloomingdale Ave,41.914041833333336,-87.70521516666666,232,222,315,302,547,524,31,7.48,7.16,10.16,9.74,17.65,16.9
5,2022,TA1308000031,Logan Blvd & Elston Ave,41.929465,-87.684158,342,345,355,432,697,777,31,11.03,11.13,11.45,13.94,22.48,25.06
5,2022,KA1504000135,Wells St & Elm St,41.903035,-87.63474066666667,1203,1175,2261,2137,3464,3312,31,38.81,37.9,72.94,68.94,111.74,106.84
5,2022,TA1308000036,Indiana Ave & 31st St,41.8387795,-87.6218925,81,68,254,232,335,300,31,2.61,2.19,8.19,7.48,10.81,9.68
5,2022,TA1305000029,State St & Randolph St,41.88462107257936,-87.62783423066139,686,666,1280,1292,1966,1958,31,22.13,21.48,41.29,41.68,63.42,63.16
5,2022,TA1309000053,Cottage Grove Ave & 47th St,41.80983666666667,-87.60672216666667,61,61,108,106,169,167,30,2.03,2.03,3.6,3.53,5.63,5.57
5,2022,13221,Wood St & Milwaukee Ave,41.907655,-87.672552,675,680,1001,1039,1676,1719,32,21.09,21.25,31.28,32.47,52.38,53.72
5,2022,TA1309000050,Lincoln Ave & Addison St,41.946176,-87.673308,163,145,254,233,417,378,31,5.26,4.68,8.19,7.52,13.45,12.19
5,2022,474,Fullerton & Monitor,41.92,-87.77,33,31,0,0,33,31,26,1.27,1.19,0.0,0.0,1.27,1.19
5,2022,TA1307000128,Dearborn Pkwy & Delaware Pl,41.898969,-87.629912,780,768,1430,1396,2210,2164,31,25.16,24.77,46.13,45.03,71.29,69.81
5,2022,13194,Ogden Ave & Race Ave,41.891795,-87.658751,450,445,620,667,1070,1112,31,14.52,14.35,20.0,21.52,34.52,35.87
5,2022,15544,Shedd Aquarium,41.86722595682,-87.6153553902,839,806,1774,1828,2613,2634,32,26.22,25.19,55.44,57.12,81.66,82.31
5,2022,15668,Western Ave & Congress Pkwy,41.87474885079,-87.6864452757,216,192,233,247,449,439,32,6.75,6.0,7.28,7.72,14.03,13.72
5,2022,KA1504000151,Clark St & Bryn Mawr Ave,41.983593,-87.669154,371,368,491,560,862,928,31,11.97,11.87,15.84,18.06,27.81,29.94
5,2022,TA1307000111,Franklin St & Lake St,41.885965,-87.63472416666667,694,666,904,857,1598,1523,31,22.39,21.48,29.16,27.65,51.55,49.13
5,2022,TA1309000008,Franklin St & Adams St (Temp),41.879434,-87.635504,372,363,574,561,946,924,31,12.0,11.71,18.52,18.1,30.52,29.81
5,2022,13379,Clarendon Ave & Gordon Ter,41.9577415,-87.649499,575,574,857,851,1432,1425,31,18.55,18.52,27.65,27.45,46.19,45.97
5,2022,WL-008,Clinton St & Roosevelt Rd,41.8671177825,-87.6410879593,345,346,432,482,777,828,31,11.13,11.16,13.94,15.55,25.06,26.71
5,2022,KA1503000012,Clark St & Lake St,41.885962,-87.63107216666667,610,594,1015,999,1625,1593,31,19.68,19.16,32.74,32.23,52.42,51.39
5,2022,TA1305000017,Halsted St & Roosevelt Rd,41.867324,-87.648625,162,156,359,357,521,513,31,5.23,5.03,11.58,11.52,16.81,16.55
5,2022,15534,Field Blvd & South Water St,41.88634906269,-87.6175165471,616,608,761,784,1377,1392,31,19.87,19.61,24.55,25.29,44.42,44.9
5,2022,TA1307000131,Wabash Ave & Wacker Pl,41.8866835,-87.626283,494,483,774,749,1268,1232,31,15.94,15.58,24.97,24.16,40.9,39.74
5,2022,15575,Broadway & Thorndale Ave,41.98974251144,-87.6601406209,313,307,525,542,838,849,31,10.1,9.9,16.94,17.48,27.03,27.39
5,2022,TA1305000022,Orleans St & Merchandise Mart Plaza,41.888243,-87.63639,742,728,926,887,1668,1615,31,23.94,23.48,29.87,28.61,53.81,52.1
5,2022,TA1306000009,Larrabee St & Kingsbury St,41.897764,-87.642884,765,737,1021,1031,1786,1768,31,24.68,23.77,32.94,33.26,57.61,57.03
5,2022,13102,Calumet Ave & 18th St,41.857611,-87.619407,387,389,614,642,1001,1031,31,12.48,12.55,19.81,20.71,32.29,33.26
5,2022,13353,Ada St & Washington Blvd,41.88283,-87.661206,355,329,564,555,919,884,31,11.45,10.61,18.19,17.9,29.65,28.52
5,2022,660,Sheridan Rd & Columbia Ave,42.004583,-87.661406,159,158,238,247,397,405,31,5.13,5.1,7.68,7.97,12.81,13.06
5,2022,chargingstx5,Lincoln Ave & Roscoe St*,41.9433502470174,-87.67066776752472,345,336,545,598,890,934,31,11.13,10.84,17.58,19.29,28.71,30.13
5,2022,TA1309000004,LaSalle St & Jackson Blvd,41.877871166666665,-87.6313965,530,521,745,755,1275,1276,31,17.1,16.81,24.03,24.35,41.13,41.16
5,2022,331.0,Pulaski Rd & 21st St,41.85,-87.72,26,29,0,0,26,29,22,1.18,1.32,0.0,0.0,1.18,1.32
5,2022,331,Halsted St & Clybourn Ave,41.909668,-87.648128,896,868,1370,1342,2266,2210,31,28.9,28.0,44.19,43.29,73.1,71.29
5,2022,SL-006,Wells St & 19th St,41.856802,-87.633879,75,77,192,186,267,263,31,2.42,2.48,6.19,6.0,8.61,8.48
5,2022,13085,Kedzie Ave & Milwaukee Ave,41.929567,-87.707857,776,788,787,879,1563,1667,31,25.03,25.42,25.39,28.35,50.42,53.77
5,2022,13191,Sedgwick St & Webster Ave,41.92223916666666,-87.63905933333334,519,511,1012,1023,1531,1534,32,16.22,15.97,31.62,31.97,47.84,47.94
5,2022,TA1309000011,Ellis Ave & 58th St,41.788746,-87.601334,217,209,968,1014,1185,1223,31,7.0,6.74,31.23,32.71,38.23,39.45
5,2022,15541,Buckingham Fountain,41.876535,-87.620473,366,351,861,812,1227,1163,30,12.2,11.7,28.7,27.07,40.9,38.77
5,2022,13277,Broadway & Belmont Ave,41.940106,-87.645451,594,590,1324,1385,1918,1975,31,19.16,19.03,42.71,44.68,61.87,63.71
5,2022,RP-008,Clark St & Columbia Ave,42.00445062934,-87.6724024047,132,133,107,107,239,240,31,4.26,4.29,3.45,3.45,7.71,7.74
5,2022,13133,Damen Ave & Cortland St,41.915983,-87.677335,581,574,874,933,1455,1507,31,18.74,18.52,28.19,30.1,46.94,48.61
5,2022,KA1504000149,Damen Ave & Foster Ave,41.975619,-87.67944466666667,263,266,243,238,506,504,31,8.48,8.58,7.84,7.68,16.32,16.26
5,2022,TA1309000001,Halsted St & Maxwell St,41.864917166666665,-87.647122,309,309,544,552,853,861,31,9.97,9.97,17.55,17.81,27.52,27.77
5,2022,13143,Damen Ave & Melrose Ave,41.9406,-87.6785,173,170,278,298,451,468,31,5.58,5.48,8.97,9.61,14.55,15.1
5,2022,TA1308000005,Leavitt St & North Ave,41.91050936666395,-87.6823890209198,319,307,475,453,794,760,31,10.29,9.9,15.32,14.61,25.61,24.52
5,2022,13074,Broadway & Wilson - Truman College Vaccination Site,41.965221,-87.658139,434,437,717,749,1151,1186,32,13.56,13.66,22.41,23.41,35.97,37.06
5,2022,KA1503000031,Cottage Grove Ave & 67th St,41.77372095205,-87.60563486,20,22,21,18,41,40,26,0.77,0.85,0.81,0.69,1.58,1.54
5,2022,TA1309000030,Southport Ave & Clybourn Ave,41.92076266666667,-87.66367933333333,480,483,676,739,1156,1222,31,15.48,15.58,21.81,23.84,37.29,39.42
5,2022,407,Tripp Ave & 65th St,41.77,-87.73,32,32,0,0,32,32,22,1.45,1.45,0.0,0.0,1.45,1.45
5,2022,13268,Damen Ave & Wellington Ave,41.935895,-87.67841183333333,254,254,351,334,605,588,31,8.19,8.19,11.32,10.77,19.52,18.97
5,2022,662,Dodge Ave & Mulford St,42.023463,-87.699595,24,24,20,23,44,47,26,0.92,0.92,0.77,0.88,1.69,1.81
5,2022,13071,Southport Ave & Roscoe St,41.943739,-87.66402,761,754,1557,1609,2318,2363,31,24.55,24.32,50.23,51.9,74.77,76.23
5,2022,TA1307000001,Greenview Ave & Fullerton Ave,41.92533,-87.6658,552,554,772,887,1324,1441,31,17.81,17.87,24.9,28.61,42.71,46.48
5,2022,TA1307000163,Clifton Ave & Armitage Ave,41.918216,-87.656936,411,396,919,947,1330,1343,31,13.26,12.77,29.65,30.55,42.9,43.32
5,2022,631,Malcolm X College Vaccination Site,41.877618,-87.673895,61,45,83,63,144,108,30,2.03,1.5,2.77,2.1,4.8,3.6
5,2022,TA1306000014,Wilton Ave & Diversey Pkwy,41.932418,-87.652705,668,653,1281,1223,1949,1876,31,21.55,21.06,41.32,39.45,62.87,60.52
5,2022,TA1308000022,Pine Grove Ave & Irving Park Rd,41.9543595,-87.648101,649,655,1076,1081,1725,1736,31,20.94,21.13,34.71,34.87,55.65,56.0
5,2022,SL-012,Wabash Ave & 16th St,41.860384,-87.625813,300,293,573,555,873,848,31,9.68,9.45,18.48,17.9,28.16,27.35
5,2022,13033,Milwaukee Ave & Grand Ave,41.891578,-87.648384,749,701,1000,892,1749,1593,32,23.41,21.91,31.25,27.88,54.66,49.78
5,2022,13056,Canal St & Monroe St,41.88169,-87.63953,329,303,576,571,905,874,31,10.61,9.77,18.58,18.42,29.19,28.19
5,2022,13045,Dearborn St & Erie St,41.89411333333334,-87.62905983333333,1089,1077,1795,1792,2884,2869,31,35.13,34.74,57.9,57.81,93.03,92.55
5,2022,15652,Central Park Ave & North Ave,41.90965687563,-87.7166319516,69,71,71,80,140,151,31,2.23,2.29,2.29,2.58,4.52,4.87
5,2022,15651,Humboldt Blvd & Armitage Ave,41.91751339399,-87.7018089555,345,337,376,356,721,693,32,10.78,10.53,11.75,11.12,22.53,21.66
5,2022,13259,California Ave & Francis Pl (Temp),41.91849115368695,-87.69742280244827,277,256,321,315,598,571,31,8.94,8.26,10.35,10.16,19.29,18.42
5,2022,TA1305000010,Michigan Ave & Ida B Wells Dr,41.876243,-87.624426,276,266,530,501,806,767,31,8.9,8.58,17.1,16.16,26.0,24.74
5,2022,13409,Sangamon St & Washington Blvd,41.883165,-87.6511,355,333,576,576,931,909,31,11.45,10.74,18.58,18.58,30.03,29.32
5,2022,chargingstx4,Morgan St & Lake St*,41.88549170626906,-87.65228927135468,541,532,798,791,1339,1323,31,17.45,17.16,25.74,25.52,43.19,42.68
5,2022,16937,Ashland Ave & McDowell Ave,41.80887,-87.66454,26,29,15,18,41,47,28,0.93,1.04,0.54,0.64,1.46,1.68
5,2022,13192,Halsted St & Dickens Ave,41.919936,-87.64883,768,763,1170,1218,1938,1981,31,24.77,24.61,37.74,39.29,62.52,63.9
5,2022,13099,Halsted St & 18th St,41.85750568031716,-87.64599144458771,198,195,273,274,471,469,31,6.39,6.29,8.81,8.84,15.19,15.13
5,2022,15645,Richmond St & Diversey Ave,41.93190196886,-87.7011951301,149,141,140,208,289,349,31,4.81,4.55,4.52,6.71,9.32,11.26
5,2022,654,Racine Ave & Washington Blvd,41.883073,-87.656952,197,175,408,357,605,532,31,6.35,5.65,13.16,11.52,19.52,17.16
5,2022,13431,Adler Planetarium,41.866095,-87.607267,569,520,1159,1176,1728,1696,31,18.35,16.77,37.39,37.94,55.74,54.71
5,2022,KA1503000044,Rush St & Hubbard St,41.89031916666666,-87.626174,480,452,541,586,1021,1038,31,15.48,14.58,17.45,18.9,32.94,33.48
5,2022,658,Leavitt St & Division St,41.90299783333333,-87.68373583333333,192,174,335,252,527,426,32,6.0,5.44,10.47,7.88,16.47,13.31
5,2022,13146,Clark St & Armitage Ave,41.91826866666667,-87.63638866666666,1239,1241,2348,2373,3587,3614,31,39.97,40.03,75.74,76.55,115.71,116.58
5,2022,15550,Canal St & Taylor St,41.870257,-87.639474,255,256,413,425,668,681,31,8.23,8.26,13.32,13.71,21.55,21.97
5,2022,TA1309000032,Elston Ave & Wabansia Ave,41.912919,-87.664169,162,159,229,255,391,414,32,5.06,4.97,7.16,7.97,12.22,12.94
5,2022,18067,Walsh Park,41.91461,-87.667968,287,250,716,625,1003,875,31,9.26,8.06,23.1,20.16,32.35,28.23
5,2022,TA1308000009,Shore Dr & 55th St,41.795212,-87.580715,353,341,1240,1220,1593,1561,31,11.39,11.0,40.0,39.35,51.39,50.35
5,2022,13016,St. Clair St & Erie St,41.89434513742426,-87.62279838323593,1005,996,1620,1581,2625,2577,31,32.42,32.13,52.26,51.0,84.68,83.13
5,2022,KA1503000007,Cornell Ave & Hyde Park Blvd,41.802406,-87.586924,285,271,701,616,986,887,31,9.19,8.74,22.61,19.87,31.81,28.61
5,2022,13217,Calumet Ave & 33rd St,41.8349,-87.61793,159,147,370,373,529,520,31,5.13,4.74,11.94,12.03,17.06,16.77
5,2022,13001,Michigan Ave & Washington St,41.883984,-87.624684,904,881,1738,1763,2642,2644,31,29.16,28.42,56.06,56.87,85.23,85.29
5,2022,KA1504000103,Western Ave & Walton St,41.8984475,-87.68647716666666,346,336,476,460,822,796,31,11.16,10.84,15.35,14.84,26.52,25.68
5,2022,13160,May St & Taylor St,41.8694821,-87.6554864,378,382,732,737,1110,1119,32,11.81,11.94,22.88,23.03,34.69,34.97
5,2022,TA1305000030,Clark St & Randolph St,41.884576228,-87.63188991,636,592,1112,1099,1748,1691,31,20.52,19.1,35.87,35.45,56.39,54.55
5,2022,13157,Aberdeen St & Jackson Blvd,41.877699166666666,-87.6547375,372,348,773,729,1145,1077,32,11.62,10.88,24.16,22.78,35.78,33.66
5,2022,15445,Wentworth Ave & 33rd St,41.83452988563,-87.6318229814,95,95,217,204,312,299,31,3.06,3.06,7.0,6.58,10.06,9.65
5,2022,TA1308000013,Halsted St & Archer Ave,41.847146333333335,-87.64686583333334,69,70,164,152,233,222,31,2.23,2.26,5.29,4.9,7.52,7.16
5,2022,13265,Kingsbury St & Erie St,41.893808,-87.641697,733,730,1085,1069,1818,1799,31,23.65,23.55,35.0,34.48,58.65,58.03
5,2022,13164,Racine Ave & 18th St,41.85819133333333,-87.65650416666666,329,335,455,476,784,811,31,10.61,10.81,14.68,15.35,25.29,26.16
5,2022,13128,Clark St & North Ave,41.911974,-87.631942,423,419,1022,1083,1445,1502,31,13.65,13.52,32.97,34.94,46.61,48.45
5,2022,20251.0,N Carpenter St & W Lake St,41.89,-87.65,141,125,0,0,141,125,29,4.86,4.31,0.0,0.0,4.86,4.31
5,2022,TA1307000113,Southport Ave & Wrightwood Ave,41.928773,-87.663913,505,503,798,884,1303,1387,31,16.29,16.23,25.74,28.52,42.03,44.74
5,2022,13345,Calumet Ave & 35th St,41.831379,-87.618034,64,57,169,161,233,218,31,2.06,1.84,5.45,5.19,7.52,7.03
5,2022,13338,Mies van der Rohe Way & Chicago Ave,41.897021651,-87.621799469,634,624,1017,1011,1651,1635,31,20.45,20.13,32.81,32.61,53.26,52.74
5,2022,13021,Clinton St & Lake St,41.885637,-87.641823,702,697,1161,1168,1863,1865,31,22.65,22.48,37.45,37.68,60.1,60.16
5,2022,15642,California Ave & Fletcher St,41.93842879148,-87.698007756,172,190,217,302,389,492,31,5.55,6.13,7.0,9.74,12.55,15.87
5,2022,18058,Leavitt St & Chicago Ave,41.895501,-87.682017,241,240,299,317,540,557,31,7.77,7.74,9.65,10.23,17.42,17.97
5,2022,13050,State St & Kinzie St,41.88937546663168,-87.62707650661469,620,620,868,903,1488,1523,31,20.0,20.0,28.0,29.13,48.0,49.13
5,2022,13224,Ashland Ave & Blackhawk St,41.907066,-87.667252,425,414,649,657,1074,1071,31,13.71,13.35,20.94,21.19,34.65,34.55
5,2022,13155,Racine Ave & Randolph St,41.884123,-87.65701583333333,223,225,326,359,549,584,31,7.19,7.26,10.52,11.58,17.71,18.84
5,2022,TA1309000043,Southport Ave & Irving Park Rd,41.954177,-87.664358,308,309,594,588,902,897,31,9.94,9.97,19.16,18.97,29.1,28.94
5,2022,TA1309000055,Emerald Ave & 31st St,41.838194666666666,-87.64509683333333,259,259,481,495,740,754,31,8.35,8.35,15.52,15.97,23.87,24.32
5,2022,21544,State St & Chicago Ave,41.89661720040753,-87.62857854366302,759,747,1242,1206,2001,1953,32,23.72,23.34,38.81,37.69,62.53,61.03
5,2022,15667,Western Ave & Monroe St,41.8797877089,-87.686112808,130,118,99,113,229,231,31,4.19,3.81,3.19,3.65,7.39,7.45
5,2022,15443,Shields Ave & 28th Pl,41.842733,-87.635491,74,65,204,187,278,252,31,2.39,2.1,6.58,6.03,8.97,8.13
5,2022,chargingstx1,Bissell St & Armitage Ave*,41.9182955629354,-87.65218332409859,336,331,819,820,1155,1151,31,10.84,10.68,26.42,26.45,37.26,37.13
5,2022,TA1309000059,Racine Ave & Wrightwood Ave,41.92893433333333,-87.658969,314,306,631,684,945,990,31,10.13,9.87,20.35,22.06,30.48,31.94
5,2022,15644,Central Park Ave & Elbridge Ave,41.935423,-87.71677216666667,185,177,163,153,348,330,31,5.97,5.71,5.26,4.94,11.23,10.65
5,2022,KA1504000093,Rockwell St & Eastwood Ave,41.96590013976,-87.6936384935,196,194,161,170,357,364,31,6.32,6.26,5.19,5.48,11.52,11.74
5,2022,16991,Milwaukee Ave & Cuyler Ave,41.95449233333333,-87.74963966666667,89,83,29,37,118,120,30,2.97,2.77,0.97,1.23,3.93,4.0
5,2022,TA1307000139,MLK Jr Dr & 29th St,41.842044,-87.61690016666667,266,252,539,480,805,732,31,8.58,8.13,17.39,15.48,25.97,23.61
5,2022,435,Rockwell St & Fletcher St,41.94,-87.69,186,182,0,0,186,182,30,6.2,6.07,0.0,0.0,6.2,6.07
5,2022,TA1305000001,Wabash Ave & Cermak Rd,41.85253216666667,-87.6265555,211,206,259,272,470,478,31,6.81,6.65,8.35,8.77,15.16,15.42
5,2022,KA1504000116,Larrabee St & Oak St,41.90021949323,-87.6429854676,315,311,537,520,852,831,31,10.16,10.03,17.32,16.77,27.48,26.81
5,2022,TA1305000004,McCormick Place,41.8513751729,-87.6188346489,223,204,319,336,542,540,31,7.19,6.58,10.29,10.84,17.48,17.42
5,2022,15621,Albany Ave & Montrose Ave,41.961076,-87.70581683333333,115,111,114,128,229,239,31,3.71,3.58,3.68,4.13,7.39,7.71
5,2022,TA1309000014,Clark St & Leland Ave,41.967096,-87.667429,442,420,705,657,1147,1077,32,13.81,13.12,22.03,20.53,35.84,33.66
5,2022,15631,Troy St & Elston Ave,41.9452565,-87.70673833333333,131,127,162,203,293,330,31,4.23,4.1,5.23,6.55,9.45,10.65
5,2022,13179,Clark St & Lincoln Ave,41.915689,-87.6346,1035,1011,2232,2270,3267,3281,31,33.39,32.61,72.0,73.23,105.39,105.84
5,2022,13144,Seeley Ave & Roscoe St,41.943403,-87.679618,326,314,348,396,674,710,31,10.52,10.13,11.23,12.77,21.74,22.9
5,2022,13398,Blackstone Ave & Hyde Park Blvd,41.802562,-87.590368,163,152,328,320,491,472,32,5.09,4.75,10.25,10.0,15.34,14.75
5,2022,TA1307000158,Damen Ave & Leland Ave,41.967094,-87.679028,257,241,365,297,622,538,31,8.29,7.77,11.77,9.58,20.06,17.35
5,2022,TA1307000156,Lincoln Ave & Sunnyside Ave,41.963004,-87.684781,237,241,363,406,600,647,31,7.65,7.77,11.71,13.1,19.35,20.87
5,2022,TA1307000120,Green St & Madison St,41.881892,-87.648789,887,882,1454,1523,2341,2405,31,28.61,28.45,46.9,49.13,75.52,77.58
5,2022,13253,Lincoln Ave & Waveland Ave,41.948797,-87.675278,212,213,310,327,522,540,31,6.84,6.87,10.0,10.55,16.84,17.42
5,2022,202480.0,Hampden Ct & Diversey Ave,41.93,-87.64,310,303,0,0,310,303,31,10.0,9.77,0.0,0.0,10.0,9.77
5,2022,TA1309000023,Sheffield Ave & Wrightwood Ave,41.928712,-87.653833,667,657,1507,1422,2174,2079,32,20.84,20.53,47.09,44.44,67.94,64.97
5,2022,576,Greenwood Ave & 79th St,41.751294,-87.597552,4,5,8,10,12,15,16,0.25,0.31,0.5,0.62,0.75,0.94
5,2022,TA1307000144,Wolcott (Ravenswood) Ave & Montrose Ave,41.961406,-87.676169,243,248,352,348,595,596,31,7.84,8.0,11.35,11.23,19.19,19.23
5,2022,TA1305000009,Clark St & Ida B Wells Dr,41.8759326655,-87.6305845355,164,158,358,340,522,498,31,5.29,5.1,11.55,10.97,16.84,16.06
5,2022,KA1503000022,Clark St & Montrose Ave,41.961588,-87.666036,273,261,398,375,671,636,31,8.81,8.42,12.84,12.1,21.65,20.52
5,2022,18003,Fairbanks St & Superior St,41.895748,-87.620104,338,331,521,497,859,828,31,10.9,10.68,16.81,16.03,27.71,26.71
5,2022,13427,Cityfront Plaza Dr & Pioneer Ct,41.890573,-87.622072,621,553,896,760,1517,1313,31,20.03,17.84,28.9,24.52,48.94,42.35
5,2022,TA1308000047,Southport Ave & Clark St,41.9570935,-87.6641935,107,106,272,232,379,338,31,3.45,3.42,8.77,7.48,12.23,10.9
5,2022,13197,Elizabeth (May) St & Fulton St,41.886616486027656,-87.6580399274826,271,269,354,362,625,631,31,8.74,8.68,11.42,11.68,20.16,20.35
5,2022,SL-007,State St & Harrison St,41.874053,-87.627716,277,269,532,493,809,762,31,8.94,8.68,17.16,15.9,26.1,24.58
5,2022,KA1503000054,Cottage Grove Ave & 63rd St,41.78060094521422,-87.60583609342575,50,48,59,75,109,123,31,1.61,1.55,1.9,2.42,3.52,3.97
5,2022,TA1306000015,Morgan St & Lake St,41.88577925240433,-87.65102460980414,559,566,1073,1195,1632,1761,31,18.03,18.26,34.61,38.55,52.65,56.81
5,2022,TA1306000025,Racine Ave & Congress Pkwy,41.87464,-87.65703,205,172,477,420,682,592,31,6.61,5.55,15.39,13.55,22.0,19.1
5,2022,KA1503000055,Halsted & 63rd - Kennedy-King Vaccination Site,41.779368833333336,-87.64464383333333,6,5,17,15,23,20,22,0.27,0.23,0.77,0.68,1.05,0.91
5,2022,20246.0,N Green St & W Lake St,41.89,-87.65,640,615,0,0,640,615,31,20.65,19.84,0.0,0.0,20.65,19.84
5,2022,432,Sacramento Blvd & Addison St,41.95,-87.7,77,79,0,0,77,79,28,2.75,2.82,0.0,0.0,2.75,2.82
5,2022,13430,LaSalle St & Illinois St,41.890762,-87.631697,1114,1097,1564,1586,2678,2683,32,34.81,34.28,48.88,49.56,83.69,83.84
5,2022,13022,Streeter Dr & Grand Ave,41.89236233333333,-87.6123065,2277,2182,6094,5960,8371,8142,31,73.45,70.39,196.58,192.26,270.03,262.65
5,2022,13156,Aberdeen St & Monroe St,41.880419,-87.655519,342,342,667,619,1009,961,31,11.03,11.03,21.52,19.97,32.55,31.0
5,2022,18062,Aberdeen St & Randolph St,41.884114,-87.654264,452,452,585,671,1037,1123,31,14.58,14.58,18.87,21.65,33.45,36.23
5,2022,TA1308000035,Lake Park Ave & 47th St,41.809443,-87.591875,104,101,154,175,258,276,31,3.35,3.26,4.97,5.65,8.32,8.9
5,2022,15615,Christiana Ave & Lawrence Ave,41.968367666666666,-87.711866,163,171,85,91,248,262,30,5.43,5.7,2.83,3.03,8.27,8.73
5,2022,KA1504000175,Glenwood Ave & Morse Ave,42.00797192287,-87.6655023944,200,202,264,288,464,490,31,6.45,6.52,8.52,9.29,14.97,15.81
5,2022,13029,Field Museum,41.865312,-87.617867,265,240,649,577,914,817,31,8.55,7.74,20.94,18.61,29.48,26.35
5,2022,13341,Canal St & Madison St,41.882091,-87.639833,567,550,973,970,1540,1520,31,18.29,17.74,31.39,31.29,49.68,49.03
5,2022,TA1309000015,Leavitt St & Lawrence Ave,41.968885,-87.684001,111,102,185,166,296,268,31,3.58,3.29,5.97,5.35,9.55,8.65
5,2022,TA1307000166,Halsted St & Willow St,41.91382383333333,-87.64865,527,524,894,867,1421,1391,31,17.0,16.9,28.84,27.97,45.84,44.87
5,2022,KA1503000064,Dusable Harbor,41.886976,-87.612813,727,727,1625,1730,2352,2457,31,23.45,23.45,52.42,55.81,75.87,79.26
5,2022,TA1309000024,Clark St & Schiller St,41.90808883333333,-87.63153133333333,712,680,1479,1424,2191,2104,31,22.97,21.94,47.71,45.94,70.68,67.87
5,2022,TA1309000058,Lincoln Ave & Fullerton Ave,41.924161,-87.64638,733,725,1363,1385,2096,2110,31,23.65,23.39,43.97,44.68,67.61,68.06
5,2022,343,Pulaski Rd & 51st St,41.8,-87.72,115,90,0,0,115,90,30,3.83,3.0,0.0,0.0,3.83,3.0
5,2022,351,Mulligan Ave & Wellington Ave,41.93,-87.78,79,75,0,0,79,75,27,2.93,2.78,0.0,0.0,2.93,2.78
5,2022,SL-008,Federal St & Polk St,41.87207763285,-87.6295437729,585,561,1333,1331,1918,1892,32,18.28,17.53,41.66,41.59,59.94,59.12
5,2022,TA1305000006,Dearborn St & Monroe St,41.881319815,-87.6295209193,571,529,1282,1224,1853,1753,31,18.42,17.06,41.35,39.48,59.77,56.55
5,2022,15597,Halsted St & 69th St,41.769062,-87.644614,1,1,0,5,1,6,7,0.14,0.14,0.0,0.71,0.14,0.86
5,2022,13434,Ashland Ave & Grand Ave,41.891072,-87.666611,284,277,466,469,750,746,31,9.16,8.94,15.03,15.13,24.19,24.06
5,2022,20.0,Damen Ave & Wabansia Ave,41.91,-87.68,306,293,0,0,306,293,31,9.87,9.45,0.0,0.0,9.87,9.45
5,2022,TA1306000029,McClurg Ct & Ohio St,41.892592119709725,-87.61728912591934,787,767,1642,1621,2429,2388,31,25.39,24.74,52.97,52.29,78.35,77.03
5,2022,657,Wood St & Augusta Blvd,41.899181,-87.6722,271,273,468,405,739,678,31,8.74,8.81,15.1,13.06,23.84,21.87
5,2022,TA1306000032,Sheffield Ave & Willow St,41.913688,-87.652855,408,401,856,850,1264,1251,31,13.16,12.94,27.61,27.42,40.77,40.35
5,2022,SL-011,Wells St & Polk St,41.872732,-87.633516,400,368,708,617,1108,985,31,12.9,11.87,22.84,19.9,35.74,31.77
5,2022,WL-011,Jefferson St & Monroe St,41.880329633634624,-87.64274597167967,277,279,442,458,719,737,31,8.94,9.0,14.26,14.77,23.19,23.77
5,2022,13036,Michigan Ave & Madison St,41.882134,-87.625125,432,409,715,698,1147,1107,31,13.94,13.19,23.06,22.52,37.0,35.71
5,2022,TA1305000011,Michigan Ave & Lake St,41.886024,-87.624117,885,860,1569,1492,2454,2352,31,28.55,27.74,50.61,48.13,79.16,75.87
5,2022,13108,Broadway & Argyle St,41.973815,-87.65966,374,361,677,690,1051,1051,31,12.06,11.65,21.84,22.26,33.9,33.9
5,2022,RP-001,Warren Park West,42.001746,-87.68879483333333,105,99,69,68,174,167,31,3.39,3.19,2.23,2.19,5.61,5.39
5,2022,13068,Western Ave & Winnebago Ave,41.91552,-87.687022,469,457,659,633,1128,1090,31,15.13,14.74,21.26,20.42,36.39,35.16
5,2022,15654,Spaulding Ave & Division St,41.90276983333333,-87.7093135,221,215,130,123,351,338,31,7.13,6.94,4.19,3.97,11.32,10.9
5,2022,661,Evanston Civic Center,42.057044,-87.686554,52,46,122,96,174,142,31,1.68,1.48,3.94,3.1,5.61,4.58
5,2022,15653,Troy St & North Ave,41.90976930169,-87.7052804871,194,182,233,235,427,417,31,6.26,5.87,7.52,7.58,13.77,13.45
5,2022,TA1306000008,Larrabee St & North Ave,41.91018116666667,-87.6434915,278,267,519,481,797,748,31,8.97,8.61,16.74,15.52,25.71,24.13
5,2022,TA1307000151,Wells St & Hubbard St,41.89007983333333,-87.63427133333333,997,939,1605,1531,2602,2470,32,31.16,29.34,50.16,47.84,81.31,77.19
5,2022,TA1305000002,Wabash Ave & Roosevelt Rd,41.867109,-87.62598583333333,881,879,1540,1543,2421,2422,31,28.42,28.35,49.68,49.77,78.1,78.13
5,2022,TA1307000143,Sedgwick St & Schiller St,41.907626,-87.638566,215,201,409,367,624,568,31,6.94,6.48,13.19,11.84,20.13,18.32
5,2022,13292,Kedzie Ave & Palmer Ct,41.9215055,-87.707453,238,235,272,291,510,526,31,7.68,7.58,8.77,9.39,16.45,16.97
5,2022,KA1503000014,Ellis Ave & 60th St,41.78509714636,-87.6010727606,900,883,2734,2696,3634,3579,32,28.12,27.59,85.44,84.25,113.56,111.84
5,2022,13028,900 W Harrison St,41.874754,-87.649807,205,183,534,500,739,683,32,6.41,5.72,16.69,15.62,23.09,21.34
5,2022,KP1705001026,LaSalle Dr & Huron St,41.8948565,-87.63203416666667,480,466,876,842,1356,1308,31,15.48,15.03,28.26,27.16,43.74,42.19
5,2022,20254.0,W Armitage Ave & N Sheffield Ave,41.92,-87.65,273,257,0,0,273,257,31,8.81,8.29,0.0,0.0,8.81,8.29
5,2022,13034,Michigan Ave & Pearson St,41.89766,-87.62351,381,380,747,782,1128,1162,31,12.29,12.26,24.1,25.23,36.39,37.48
5,2022,TA1306000012,Wells St & Huron St,41.894722,-87.634362,1118,1097,1720,1635,2838,2732,31,36.06,35.39,55.48,52.74,91.55,88.13
5,2022,13165,Racine Ave & 13th St,41.865033,-87.65706333333333,42,41,86,87,128,128,31,1.35,1.32,2.77,2.81,4.13,4.13
5,2022,446,Francisco Ave & Montrose Ave,41.96,-87.7,137,129,0,0,137,129,31,4.42,4.16,0.0,0.0,4.42,4.16
5,2022,13150,Michigan Ave & 18th St,41.857813,-87.62455,337,334,689,652,1026,986,31,10.87,10.77,22.23,21.03,33.1,31.81
5,2022,13216,State St & 33rd St,41.83479533333333,-87.62570666666667,360,364,704,733,1064,1097,31,11.61,11.74,22.71,23.65,34.32,35.39
5,2022,TA1305000035,State St & Van Buren St,41.877181,-87.627844,255,248,598,611,853,859,31,8.23,8.0,19.29,19.71,27.52,27.71
5,2022,540,Laramie Ave & Madison St,41.88023166666667,-87.75533916666667,16,14,13,11,29,25,24,0.67,0.58,0.54,0.46,1.21,1.04
5,2022,13323,Broadway & Sheridan Rd,41.952833,-87.649993,574,559,1013,986,1587,1545,31,18.52,18.03,32.68,31.81,51.19,49.84
5,2022,15640,Avers Ave & Belmont Ave,41.939398833333335,-87.72354083333333,184,181,111,125,295,306,31,5.94,5.84,3.58,4.03,9.52,9.87
5,2022,525,Glenwood Ave & Touhy Ave,42.012762308,-87.665939927,64,64,204,189,268,253,31,2.06,2.06,6.58,6.1,8.65,8.16
5,2022,KA1504000140,Winchester Ave & Elston Ave,41.92399916666667,-87.67637066666667,198,193,258,269,456,462,31,6.39,6.23,8.32,8.68,14.71,14.9
5,2022,515,Paulina St & Howard St,42.0191225,-87.67351216666667,141,142,136,135,277,277,31,4.55,4.58,4.39,4.35,8.94,8.94
5,2022,TA1309000066,Ravenswood Ave & Lawrence Ave,41.96908083333334,-87.67423,665,666,841,840,1506,1506,31,21.45,21.48,27.13,27.1,48.58,48.58
5,2022,KA1504000110,Millard Ave & 26th St,41.84453112462163,-87.71592199802399,21,18,28,31,49,49,28,0.75,0.64,1.0,1.11,1.75,1.75
5,2022,13206,Loomis St & Jackson Blvd,41.877945,-87.662007,186,154,497,490,683,644,31,6.0,4.97,16.03,15.81,22.03,20.77
5,2022,15686,Kedzie Ave & 21st St,41.85353363213,-87.7050730318,16,8,31,19,47,27,26,0.62,0.31,1.19,0.73,1.81,1.04
5,2022,KA1504000113,Sacramento Blvd & Franklin Blvd,41.8906505,-87.70270633333334,16,11,20,23,36,34,24,0.67,0.46,0.83,0.96,1.5,1.42
5,2022,643,Smith Park,41.892023,-87.68937716666667,149,146,82,121,231,267,31,4.81,4.71,2.65,3.9,7.45,8.61
5,2022,TA1309000037,Kimbark Ave & 53rd St,41.79959516666667,-87.59477133333333,517,513,1149,1126,1666,1639,31,16.68,16.55,37.06,36.32,53.74,52.87
5,2022,TA1309000063,Lake Park Ave & 56th St,41.793242,-87.587782,212,202,705,721,917,923,31,6.84,6.52,22.74,23.26,29.58,29.77
5,2022,KA17018068,Leavitt St & Belmont Ave,41.93928616666667,-87.68319316666667,347,337,249,254,596,591,31,11.19,10.87,8.03,8.19,19.23,19.06
5,2022,13215,Rhodes Ave & 32nd St,41.83671916666667,-87.613338,167,160,323,325,490,485,31,5.39,5.16,10.42,10.48,15.81,15.65
5,2022,359,Kilbourn & Belden,41.92,-87.74,41,36,0,0,41,36,24,1.71,1.5,0.0,0.0,1.71,1.5
5,2022,KA1504000133,Rush St & Cedar St,41.90230870122,-87.627690528,697,690,1218,1179,1915,1869,31,22.48,22.26,39.29,38.03,61.77,60.29
5,2022,KA1503000059,Lake Park Ave & 53rd St,41.79979616666667,-87.58631616666666,231,228,595,585,826,813,31,7.45,7.35,19.19,18.87,26.65,26.23
5,2022,13163,Morgan St & 18th St,41.8580595,-87.6511385,334,331,433,427,767,758,31,10.77,10.68,13.97,13.77,24.74,24.45
5,2022,TA1309000007,Franklin St & Monroe St,41.87982866666667,-87.6347655,537,503,594,587,1131,1090,31,17.32,16.23,19.16,18.94,36.48,35.16
5,2022,TA1309000002,Michigan Ave & Jackson Blvd,41.87785,-87.62408,447,429,866,870,1313,1299,31,14.42,13.84,27.94,28.06,42.35,41.9
5,2022,TA1307000124,Michigan Ave & 14th St,41.864296198,-87.623701811,498,488,834,812,1332,1300,31,16.06,15.74,26.9,26.19,42.97,41.94
5,2022,KA1504000158,Oakley Ave & Irving Park Rd,41.95434085219,-87.6860796243,82,86,169,204,251,290,31,2.65,2.77,5.45,6.58,8.1,9.35
5,2022,WL-012,Clinton St & Washington Blvd,41.88353733333334,-87.64134483333333,1011,951,1439,1395,2450,2346,31,32.61,30.68,46.42,45.0,79.03,75.68
5,2022,13389,Clarendon Ave & Junior Ter,41.961004,-87.649603,544,542,911,892,1455,1434,31,17.55,17.48,29.39,28.77,46.94,46.26
5,2022,379,Rockwell St & Archer Ave,41.82,-87.69,74,70,0,0,74,70,28,2.64,2.5,0.0,0.0,2.64,2.5
5,2022,TA1307000161,Halsted St & 37th St,41.827059,-87.64572,40,39,36,53,76,92,28,1.43,1.39,1.29,1.89,2.71,3.29
5,2022,TA1307000136,Clark St & Wellington Ave,41.9364968219,-87.6475386582,633,634,1313,1335,1946,1969,31,20.42,20.45,42.35,43.06,62.77,63.52
5,2022,13139,Throop St & Taylor St,41.868968,-87.659141,232,226,532,515,764,741,31,7.48,7.29,17.16,16.61,24.65,23.9
5,2022,KA1503000009,Princeton Ave & 47th St,41.809374166666665,-87.6334705,35,20,30,28,65,48,27,1.3,0.74,1.11,1.04,2.41,1.78
5,2022,TA1308000050,Wells St & Concord Ln,41.912133,-87.634656,1573,1540,2744,2743,4317,4283,31,50.74,49.68,88.52,88.48,139.26,138.16
5,2022,TA1309000010,Wabash Ave & 9th St,41.870769,-87.625734,569,566,1048,1034,1617,1600,31,18.35,18.26,33.81,33.35,52.16,51.61
5,2022,TA1305000005,Dearborn St & Adams St,41.8793563587,-87.6297910363,303,290,598,614,901,904,31,9.77,9.35,19.29,19.81,29.06,29.16
5,2022,767,Hyde Park Blvd & 53rd St,41.8,-87.58,46,48,0,0,46,48,20,2.3,2.4,0.0,0.0,2.3,2.4
5,2022,15530,Rush St & Superior St,41.89576474564,-87.6259080327,695,661,1052,1020,1747,1681,32,21.72,20.66,32.88,31.88,54.59,52.53
5,2022,13042,Michigan Ave & Oak St,41.90096,-87.623777,1432,1433,3288,3436,4720,4869,31,46.19,46.23,106.06,110.84,152.26,157.06
5,2022,18016,Bernard St & Elston Ave,41.949913025,-87.713998556,120,115,76,81,196,196,31,3.87,3.71,2.45,2.61,6.32,6.32
5,2022,312,Lockwood Ave & Wrightwood Ave,41.93,-87.76,48,40,0,0,48,40,26,1.85,1.54,0.0,0.0,1.85,1.54
5,2022,TA1309000019,Lakeview Ave & Fullerton Pkwy,41.925858,-87.638973,834,828,1674,1681,2508,2509,32,26.06,25.88,52.31,52.53,78.38,78.41
5,2022,KA1503000040,Loomis St & Archer Ave,41.8416715,-87.65747383333333,104,101,88,118,192,219,31,3.35,3.26,2.84,3.81,6.19,7.06
5,2022,15650,Spaulding Ave & Armitage Ave,41.91710803478932,-87.71022096276283,306,301,258,309,564,610,31,9.87,9.71,8.32,9.97,18.19,19.68
5,2022,KA1504000146,Clark St & Berwyn Ave,41.97803062248656,-87.66856491565704,513,516,685,738,1198,1254,31,16.55,16.65,22.1,23.81,38.65,40.45
5,2022,13269,Ashland Ave & Wellington Ave,41.936083,-87.669807,308,283,421,416,729,699,31,9.94,9.13,13.58,13.42,23.52,22.55
5,2022,TA1308000019,Racine Ave & Belmont Ave,41.939743,-87.658865,618,602,1120,1105,1738,1707,31,19.94,19.42,36.13,35.65,56.06,55.06
5,2022,335.0,Komensky Ave & 31st St,41.84,-87.73,28,28,0,0,28,28,22,1.27,1.27,0.0,0.0,1.27,1.27
5,2022,TA1307000153,Emerald Ave & 28th St,41.84358,-87.645368,85,78,198,194,283,272,31,2.74,2.52,6.39,6.26,9.13,8.77
5,2022,TA1306000007,Larrabee St & Menomonee St,41.91468,-87.64332,189,172,510,511,699,683,31,6.1,5.55,16.45,16.48,22.55,22.03
5,2022,TA1309000025,Halsted St & Roscoe St,41.94367,-87.64895,1092,1069,1481,1497,2573,2566,32,34.12,33.41,46.28,46.78,80.41,80.19
5,2022,20127,Halsted St & 111th St,41.69226255589166,-87.64261186122894,10,7,12,11,22,18,13,0.77,0.54,0.92,0.85,1.69,1.38
5,2022,TA1306000011,Wells St & Walton St,41.90001266666667,-87.63445516666667,349,312,838,712,1187,1024,31,11.26,10.06,27.03,22.97,38.29,33.03
5,2022,TA1309000029,Leavitt St & Armitage Ave,41.917805,-87.682437,232,225,348,348,580,573,31,7.48,7.26,11.23,11.23,18.71,18.48
5,2022,13307,Laflin St & Cullerton St,41.85480833333333,-87.66375566666666,191,186,141,195,332,381,31,6.16,6.0,4.55,6.29,10.71,12.29
5,2022,KA1504000079,Larrabee St & Division St,41.90348607004,-87.6433534936,442,437,778,762,1220,1199,31,14.26,14.1,25.1,24.58,39.35,38.68
5,2022,15687,Central Park Ave & 24th St,41.84810566666667,-87.71510566666667,29,30,11,19,40,49,23,1.26,1.3,0.48,0.83,1.74,2.13
5,2022,TA1305000025,Franklin St & Jackson Blvd,41.87847133333333,-87.63502983333333,702,688,1115,1135,1817,1823,31,22.65,22.19,35.97,36.61,58.61,58.81
5,2022,TA1305000039,Elston Ave & Cortland St,41.91651016666667,-87.666772,379,382,523,539,902,921,31,12.23,12.32,16.87,17.39,29.1,29.71
5,2022,339,Sacramento Ave & Pershing Rd,41.82,-87.7,47,42,0,0,47,42,25,1.88,1.68,0.0,0.0,1.88,1.68
5,2022,15578,Broadway & Ridge Ave,41.9840446107,-87.6602738295,373,372,395,452,768,824,32,11.66,11.62,12.34,14.12,24.0,25.75
5,2022,KA1504000078,Lincoln Ave & Winona St,41.97491129677,-87.6925025594,177,177,141,150,318,327,31,5.71,5.71,4.55,4.84,10.26,10.55
5,2022,TA1308000012,Montrose Harbor,41.963982,-87.638181,675,656,1527,1556,2202,2212,30,22.5,21.87,50.9,51.87,73.4,73.73
5,2022,13303,Clark St & Chicago Ave,41.89675,-87.63089,467,461,923,858,1390,1319,31,15.06,14.87,29.77,27.68,44.84,42.55
5,2022,20239,Marquette Ave & 89th St,41.733669,-87.558342,4,3,7,8,11,11,14,0.29,0.21,0.5,0.57,0.79,0.79
5,2022,KA1503000024,Yates Blvd & 75th St,41.75874183333333,-87.56642833333333,27,18,27,16,54,34,29,0.93,0.62,0.93,0.55,1.86,1.17
5,2022,15545,Burnham Harbor,41.85741178707404,-87.61379152536392,275,255,841,862,1116,1117,25,11.0,10.2,33.64,34.48,44.64,44.68
5,2022,15648,Campbell Ave & Fullerton Ave,41.924647,-87.68930983333334,219,222,199,232,418,454,31,7.06,7.16,6.42,7.48,13.48,14.65
5,2022,13158,Peoria St & Jackson Blvd,41.8776415962753,-87.64961779117584,604,551,1060,1047,1664,1598,32,18.88,17.22,33.12,32.72,52.0,49.94
5,2022,389,Maplewood Ave & 59th St,41.79,-87.69,12,14,0,0,12,14,14,0.86,1.0,0.0,0.0,0.86,1.0
5,2022,13154,Sheffield Ave & Kingsbury St,41.910522,-87.653106,551,557,927,959,1478,1516,31,17.77,17.97,29.9,30.94,47.68,48.9
5,2022,313,Long Ave & Belden Ave,41.92,-87.76,48,51,0,0,48,51,25,1.92,2.04,0.0,0.0,1.92,2.04
5,2022,KA1503000065,Woodlawn Ave & Lake Park Ave,41.81409271048,-87.5970051479,64,64,81,67,145,131,30,2.13,2.13,2.7,2.23,4.83,4.37
5,2022,592,Knox Ave & Montrose Ave,41.960652,-87.74543566666667,77,66,40,36,117,102,29,2.66,2.28,1.38,1.24,4.03,3.52
5,2022,13242,Milwaukee Ave & Rockwell St,41.92019556200566,-87.69265919923781,231,227,337,338,568,565,31,7.45,7.32,10.87,10.9,18.32,18.23
5,2022,378,Nordica & Medill,41.92,-87.8,9,8,0,0,9,8,12,0.75,0.67,0.0,0.0,0.75,0.67
5,2022,13137,Broadway & Barry Ave,41.93758231600629,-87.6440978050232,1011,1007,1996,2046,3007,3053,31,32.61,32.48,64.39,66.0,97.0,98.48
5,2022,491,Kedzie Ave & Argyle St,41.97,-87.71,4,3,0,0,4,3,5,0.8,0.6,0.0,0.0,0.8,0.6
5,2022,KA1504000127,Manor Ave & Leland Ave,41.965875983,-87.700792551,154,156,127,131,281,287,31,4.97,5.03,4.1,4.23,9.06,9.26
5,2022,20116,Dauphin Ave & 87th St,41.73655902282214,-87.60125756263733,2,2,17,21,19,23,16,0.12,0.12,1.06,1.31,1.19,1.44
5,2022,KA1504000090,St. Louis Ave & Fullerton Ave,41.92481559681187,-87.71449506282805,166,166,225,234,391,400,31,5.35,5.35,7.26,7.55,12.61,12.9
5,2022,16905,Central Ave & Lake St,41.8877545,-87.76547583333334,22,20,11,15,33,35,27,0.81,0.74,0.41,0.56,1.22,1.3
5,2022,RN-,Franklin St & Illinois St,41.89099133333333,-87.63545,507,493,949,930,1456,1423,31,16.35,15.9,30.61,30.0,46.97,45.9
5,2022,20256.0,N Sheffield Ave & W Wellington Ave,41.94,-87.65,202,197,0,0,202,197,31,6.52,6.35,0.0,0.0,6.52,6.35
5,2022,16918,Austin Blvd & Madison St,41.88026466666667,-87.7744615,21,19,24,11,45,30,26,0.81,0.73,0.92,0.42,1.73,1.15
5,2022,TA1309000039,DuSable Lake Shore Dr & Diversey Pkwy,41.932588,-87.636427,808,800,1876,1903,2684,2703,31,26.06,25.81,60.52,61.39,86.58,87.19
5,2022,16920,Central Ave & Chicago Ave,41.894958,-87.764902,46,46,16,18,62,64,28,1.64,1.64,0.57,0.64,2.21,2.29
5,2022,TA1309000026,Lincoln Ave & Belle Plaine Ave,41.95600355078549,-87.68016144633293,299,298,349,407,648,705,32,9.34,9.31,10.91,12.72,20.25,22.03
5,2022,472,Elston Ave & George St,41.93,-87.69,149,150,0,0,149,150,30,4.97,5.0,0.0,0.0,4.97,5.0
5,2022,KA1504000168,Western & 28th - Velasquez Institute Vaccination Site,41.84151633333333,-87.68513983333334,40,41,7,18,47,59,27,1.48,1.52,0.26,0.67,1.74,2.19
5,2022,639,Lakefront Trail & Wilson Ave,41.965845,-87.645361,273,273,763,775,1036,1048,31,8.81,8.81,24.61,25.0,33.42,33.81
5,2022,TA1307000150,Pine Grove Ave & Waveland Ave,41.94947274088333,-87.64645278453827,621,618,1521,1532,2142,2150,31,20.03,19.94,49.06,49.42,69.1,69.35
5,2022,LP-,Lincoln Park Conservatory,41.923931,-87.635825,385,371,1006,1007,1391,1378,31,12.42,11.97,32.45,32.48,44.87,44.45
5,2022,KA1504000143,Leavitt St & Addison St,41.946655,-87.683359,131,125,244,247,375,372,31,4.23,4.03,7.87,7.97,12.1,12.0
5,2022,13288,Damen Ave & Charleston St,41.920009,-87.677952,310,300,425,461,735,761,31,10.0,9.68,13.71,14.87,23.71,24.55
5,2022,13294,Greenview Ave & Diversey Pkwy,41.93259,-87.665936,289,279,447,415,736,694,31,9.32,9.0,14.42,13.39,23.74,22.39
5,2022,TA1309000041,Sheridan Rd & Lawrence Ave,41.969517,-87.654691,345,347,494,494,839,841,31,11.13,11.19,15.94,15.94,27.06,27.13
5,2022,KA1504000126,Kedzie Ave & Leland Ave,41.966691256,-87.70807898,120,113,88,112,208,225,30,4.0,3.77,2.93,3.73,6.93,7.5
5,2022,382,Kedzie Ave & 48th Pl,41.8,-87.7,131,115,0,0,131,115,31,4.23,3.71,0.0,0.0,4.23,3.71
5,2022,636,Orleans St & Hubbard St,41.88953033333333,-87.63637583333333,369,346,565,529,934,875,31,11.9,11.16,18.23,17.06,30.13,28.23
5,2022,TA1307000119,Clarendon Ave & Leland Ave,41.967968,-87.650001,345,334,508,505,853,839,31,11.13,10.77,16.39,16.29,27.52,27.06
5,2022,KA1504000171,Marine Dr & Ainslie St,41.9716,-87.650154,328,331,572,585,900,916,32,10.25,10.34,17.88,18.28,28.12,28.62
5,2022,13325,Broadway & Waveland Ave,41.949074,-87.648636,781,764,1424,1392,2205,2156,32,24.41,23.88,44.5,43.5,68.91,67.38
5,2022,430,Troy St & Grace St,41.95,-87.71,97,95,0,0,97,95,30,3.23,3.17,0.0,0.0,3.23,3.17
5,2022,347,Komensky Ave & 55th St,41.79,-87.72,23,13,0,0,23,13,14,1.64,0.93,0.0,0.0,1.64,0.93
5,2022,13132,Damen Ave & Chicago Ave,41.895769,-87.67722,608,598,649,685,1257,1283,31,19.61,19.29,20.94,22.1,40.55,41.39
5,2022,TA1309000042,Lincoln Ave & Belmont Ave,41.939328333333336,-87.66820133333333,483,479,781,801,1264,1280,31,15.58,15.45,25.19,25.84,40.77,41.29
5,2022,13289,Eckhart Park,41.896373,-87.660984,426,413,619,602,1045,1015,31,13.74,13.32,19.97,19.42,33.71,32.74
5,2022,15585,Budlong Woods Library,41.98364933333333,-87.69644083333333,74,70,44,48,118,118,30,2.47,2.33,1.47,1.6,3.93,3.93
5,2022,KA1503000049,Rainbow Beach,41.757871,-87.549386,3,4,13,14,16,18,16,0.19,0.25,0.81,0.88,1.0,1.12
5,2022,16907,Central Park Blvd & 5th Ave,41.875679,-87.71547,2,2,16,18,18,20,14,0.14,0.14,1.14,1.29,1.29,1.43
5,2022,13245,Claremont Ave & Hirsch St,41.907781,-87.685854,142,114,198,176,340,290,31,4.58,3.68,6.39,5.68,10.97,9.35
5,2022,464,Western Ave & Ardmore Ave,41.99,-87.69,32,30,0,0,32,30,23,1.39,1.3,0.0,0.0,1.39,1.3
5,2022,16010,Keystone Ave & Fullerton Ave,41.92459,-87.72785,56,55,63,77,119,132,29,1.93,1.9,2.17,2.66,4.1,4.55
5,2022,15576,Lakefront Trail & Bryn Mawr Ave,41.98404411519213,-87.65228122472763,550,538,1203,1228,1753,1766,31,17.74,17.35,38.81,39.61,56.55,56.97
5,2022,TA1309000036,Burling St & Diversey Pkwy,41.93314,-87.64776,496,491,1134,1169,1630,1660,31,16.0,15.84,36.58,37.71,52.58,53.55
5,2022,13135,Blue Island Ave & 18th St,41.85741083333333,-87.6616345,360,359,429,433,789,792,31,11.61,11.58,13.84,13.97,25.45,25.55
5,2022,13432,Wood St & Hubbard St,41.889899,-87.671473,229,219,291,271,520,490,31,7.39,7.06,9.39,8.74,16.77,15.81
5,2022,16806,Bosworth Ave & Howard St,42.019537,-87.669563,51,52,61,60,112,112,30,1.7,1.73,2.03,2.0,3.73,3.73
5,2022,TA1307000138,Lincoln Ave & Roscoe St,41.943785164970734,-87.67125114798546,216,214,329,344,545,558,31,6.97,6.9,10.61,11.1,17.58,18.0
5,2022,TA1307000070,Damen Ave & Thomas St (Augusta Blvd),41.901315,-87.677409,314,248,607,521,921,769,31,10.13,8.0,19.58,16.81,29.71,24.81
5,2022,RP-007,Clark St & Touhy Ave,42.01256,-87.674367,75,74,71,68,146,142,30,2.5,2.47,2.37,2.27,4.87,4.73
5,2022,15446,Racine Ave & 35th St,41.8307045,-87.65610633333333,66,65,61,81,127,146,31,2.13,2.1,1.97,2.61,4.1,4.71
5,2022,13089,Damen Ave & Cullerton St,41.854967,-87.6757,174,178,192,234,366,412,31,5.61,5.74,6.19,7.55,11.81,13.29
5,2022,KA1503000005,Wentworth Ave & 35th St,41.8308685,-87.63245133333334,114,102,154,133,268,235,31,3.68,3.29,4.97,4.29,8.65,7.58
5,2022,TA1308000007,MLK Jr Dr & 47th St,41.809851,-87.616279,25,20,33,31,58,51,28,0.89,0.71,1.18,1.11,2.07,1.82
5,2022,chargingstx3,Green St & Randolph St*,41.883601657275165,-87.64862671494483,504,487,946,904,1450,1391,31,16.26,15.71,30.52,29.16,46.77,44.87
5,2022,TA1308000006,Damen Ave & Grand Ave,41.892552,-87.67691866666667,329,314,292,323,621,637,31,10.61,10.13,9.42,10.42,20.03,20.55
5,2022,20113,Dauphin Ave & 103rd St,41.7072503677818,-87.60766267776489,3,5,6,8,9,13,11,0.27,0.45,0.55,0.73,0.82,1.18
5,2022,20242,Houston Ave & 92nd St,41.72820421535798,-87.54970014095306,9,9,15,10,24,19,18,0.5,0.5,0.83,0.56,1.33,1.06
5,2022,TA1308000049,Wells St & Evergreen Ave,41.906724,-87.63483,902,888,1577,1536,2479,2424,31,29.1,28.65,50.87,49.55,79.97,78.19
5,2022,TA1307000129,State St & 35th St,41.8310363140161,-87.62679755687714,143,129,284,309,427,438,31,4.61,4.16,9.16,9.97,13.77,14.13
5,2022,KA1503000075,DuSable Museum,41.791568,-87.607852,55,49,102,107,157,156,31,1.77,1.58,3.29,3.45,5.06,5.03
5,2022,15571,Broadway & Granville Ave,41.9947796884,-87.6602845349,285,279,498,553,783,832,31,9.19,9.0,16.06,17.84,25.26,26.84
5,2022,13249,Ashland Ave & Belle Plaine Ave,41.956057,-87.668835,153,154,189,205,342,359,31,4.94,4.97,6.1,6.61,11.03,11.58
5,2022,539,Eli Whitney Public School,41.84,-87.73,8,8,0,0,8,8,9,0.89,0.89,0.0,0.0,0.89,0.89
5,2022,20125,Halsted St & 104th St,41.70516833333333,-87.64239183333333,6,7,12,11,18,18,15,0.4,0.47,0.8,0.73,1.2,1.2
5,2022,18022,Archer (Damen) Ave & 37th St,41.826712,-87.683144,29,25,36,38,65,63,27,1.07,0.93,1.33,1.41,2.41,2.33
5,2022,13008,Millennium Park,41.881032,-87.624084,1313,1275,2344,2393,3657,3668,31,42.35,41.13,75.61,77.19,117.97,118.32
5,2022,TA1308000046,Morgan St & 31st St,41.8378,-87.65114,208,210,225,241,433,451,31,6.71,6.77,7.26,7.77,13.97,14.55
5,2022,517,Clark St & Jarvis Ave,42.01593866666666,-87.67507116666667,80,79,101,75,181,154,32,2.5,2.47,3.16,2.34,5.66,4.81
5,2022,13229,Southport Ave & Belmont Ave,41.93947775040509,-87.6637476682663,445,435,752,707,1197,1142,31,14.35,14.03,24.26,22.81,38.61,36.84
5,2022,SL-013,State St & 19th St,41.856540322,-87.627567649,115,106,213,191,328,297,31,3.71,3.42,6.87,6.16,10.58,9.58
5,2022,SL-005,Indiana Ave & Roosevelt Rd,41.867888,-87.623041,1000,992,1920,1937,2920,2929,31,32.26,32.0,61.94,62.48,94.19,94.48
5,2022,425,Rockwell St & Cermak Rd,41.85,-87.69,79,77,0,0,79,77,29,2.72,2.66,0.0,0.0,2.72,2.66
5,2022,13278,Broadway & Cornelia Ave,41.945529,-87.646439,808,791,1533,1508,2341,2299,32,25.25,24.72,47.91,47.12,73.16,71.84
5,2022,TA1305000037,Paulina Ave & North Ave,41.90985465216731,-87.66993016004562,417,427,648,668,1065,1095,31,13.45,13.77,20.9,21.55,34.35,35.32
5,2022,13053,Green St & Randolph St,41.883181,-87.648725,301,305,529,535,830,840,31,9.71,9.84,17.06,17.26,26.77,27.1
5,2022,TA1307000052,Sheffield Ave & Wellington Ave,41.9362534831413,-87.65266209840775,609,596,1336,1367,1945,1963,31,19.65,19.23,43.1,44.1,62.74,63.32
5,2022,TA1308000029,Stetson Ave & South Water St,41.886835,-87.62232,590,528,755,632,1345,1160,32,18.44,16.5,23.59,19.75,42.03,36.25
5,2022,TA1305000003,Fairbanks Ct & Grand Ave,41.89184737210993,-87.62058019638062,767,761,1325,1316,2092,2077,32,23.97,23.78,41.41,41.12,65.38,64.91
5,2022,20252.0,W Oakdale Ave & N Broadway,41.94,-87.64,290,285,0,0,290,285,31,9.35,9.19,0.0,0.0,9.35,9.19
5,2022,623,Michigan Ave & 8th St,41.872773,-87.623981,645,581,1199,1131,1844,1712,32,20.16,18.16,37.47,35.34,57.62,53.5
5,2022,TA1306000026,Racine Ave & Fullerton Ave,41.92556258,-87.65840426,770,758,1513,1502,2283,2260,32,24.06,23.69,47.28,46.94,71.34,70.62
5,2022,13304,Racine Ave & 15th St,41.861267,-87.656625,117,116,195,192,312,308,31,3.77,3.74,6.29,6.19,10.06,9.94
5,2022,TA1307000164,Woodlawn Ave & 55th St,41.795264,-87.596471,243,222,816,765,1059,987,31,7.84,7.16,26.32,24.68,34.16,31.84
5,2022,TA1308000001,Theater on the Lake,41.926277,-87.630834,995,972,3111,3267,4106,4239,32,31.09,30.38,97.22,102.09,128.31,132.47
5,2022,TA1307000064,Lincoln Ave & Diversey Pkwy,41.932225,-87.658617,580,571,1224,1236,1804,1807,31,18.71,18.42,39.48,39.87,58.19,58.29
5,2022,13193,Larrabee St & Webster Ave,41.921822,-87.64414,895,884,1733,1714,2628,2598,31,28.87,28.52,55.9,55.29,84.77,83.81
5,2022,KA17018054,Damen Ave & Walnut (Lake) St,41.885951,-87.677009,195,193,147,190,342,383,31,6.29,6.23,4.74,6.13,11.03,12.35
5,2022,KA1503000041,McClurg Ct & Erie St,41.894503,-87.617854,643,617,1117,1050,1760,1667,32,20.09,19.28,34.91,32.81,55.0,52.09
5,2022,TA1307000160,Prairie Ave & Garfield Blvd,41.794853,-87.618691,58,42,161,105,219,147,31,1.87,1.35,5.19,3.39,7.06,4.74
5,2022,326,Harlem & Irving Park,41.95,-87.81,79,65,0,0,79,65,29,2.72,2.24,0.0,0.0,2.72,2.24
5,2022,518,Keystone Ave & North Ave,41.91,-87.73,81,71,53,47,134,118,31,2.61,2.29,1.71,1.52,4.32,3.81
5,2022,374,Kilpatrick Ave & Grand Ave,41.91,-87.74,56,55,0,0,56,55,25,2.24,2.2,0.0,0.0,2.24,2.2
5,2022,644,Western Ave & Fillmore St,41.868563,-87.686234,381,381,191,216,572,597,31,12.29,12.29,6.16,6.97,18.45,19.26
5,2022,327,Plainfield & Irving Park,41.95,-87.83,9,7,0,0,9,7,12,0.75,0.58,0.0,0.0,0.75,0.58
5,2022,13285,Wood St & Taylor St (Temp),41.869265,-87.673731,251,270,375,349,626,619,31,8.1,8.71,12.1,11.26,20.19,19.97
5,2022,314,Narragansett & Wrightwood,41.93,-87.79,138,117,0,0,138,117,30,4.6,3.9,0.0,0.0,4.6,3.9
5,2022,SL-009,Clark St & 9th St (AMLI),41.870816,-87.631246,183,165,403,352,586,517,31,5.9,5.32,13.0,11.35,18.9,16.68
5,2022,355,Central Ave & Parker Ave,41.93,-87.77,17,15,0,0,17,15,17,1.0,0.88,0.0,0.0,1.0,0.88
5,2022,397,Narragansett Ave & School St,41.94,-87.79,25,21,0,0,25,21,23,1.09,0.91,0.0,0.0,1.09,0.91
5,2022,13332,Loomis St & Lexington St,41.872187,-87.661501,578,567,1425,1361,2003,1928,31,18.65,18.29,45.97,43.9,64.61,62.19
5,2022,385,St Louis Ave & Norman Bobbins Ave,41.79,-87.71,25,29,0,0,25,29,23,1.09,1.26,0.0,0.0,1.09,1.26
5,2022,E008,Chicago Ave & Sheridan Rd,42.050491,-87.677821,190,184,512,538,702,722,31,6.13,5.94,16.52,17.35,22.65,23.29
5,2022,KA1503000033,Eberhart Ave & 61st St,41.784071072761,-87.61448353528975,52,53,30,42,82,95,29,1.79,1.83,1.03,1.45,2.83,3.28
5,2022,429,Francisco Ave & Bloomingdale Ave,41.91,-87.7,52,53,0,0,52,53,24,2.17,2.21,0.0,0.0,2.17,2.21
5,2022,15542,Clinton St & Polk St,41.871467,-87.640949,58,56,78,87,136,143,30,1.93,1.87,2.6,2.9,4.53,4.77
5,2022,20128,S Wentworth Ave & W 111th St,41.69,-87.63,4,3,0,0,4,3,6,0.67,0.5,0.0,0.0,0.67,0.5
5,2022,TA1307000044,Clinton St & 18th St,41.85795,-87.640826,187,179,221,198,408,377,31,6.03,5.77,7.13,6.39,13.16,12.16
5,2022,637,Wood St & Chicago Ave,41.89559966666667,-87.67207783333333,264,250,527,490,791,740,31,8.52,8.06,17.0,15.81,25.52,23.87
5,2022,841,Damen Ave & 47th St,41.81,-87.68,7,3,0,0,7,3,6,1.17,0.5,0.0,0.0,1.17,0.5
5,2022,TA1307000066,Damen Ave & Coulter St,41.849162,-87.67568566666667,48,46,32,42,80,88,30,1.6,1.53,1.07,1.4,2.67,2.93
5,2022,TA1309000027,Sheridan Rd & Buena Ave,41.958519333333335,-87.6550065,418,411,647,604,1065,1015,31,13.48,13.26,20.87,19.48,34.35,32.74
5,2022,TA1306000006,Orleans St & Elm St,41.902924,-87.637715,182,180,309,316,491,496,31,5.87,5.81,9.97,10.19,15.84,16.0
5,2022,523,Eastlake Ter & Rogers Ave,42.02096266666667,-87.66508083333333,125,122,187,191,312,313,31,4.03,3.94,6.03,6.16,10.06,10.1
5,2022,TA1307000134,Wilton Ave & Belmont Ave,41.94018,-87.65304,1120,1082,2055,1990,3175,3072,31,36.13,34.9,66.29,64.19,102.42,99.1
5,2022,15692,California Ave & 26th St,41.8437335,-87.69489833333333,28,30,24,21,52,51,29,0.97,1.03,0.83,0.72,1.79,1.76
5,2022,768,Hyde Park Blvd & 55th St,41.8,-87.59,52,55,0,0,52,55,21,2.48,2.62,0.0,0.0,2.48,2.62
5,2022,TA1308000026,Wentworth Ave & 24th St (Temp),41.85008369347577,-87.6321405172348,71,75,116,152,187,227,31,2.29,2.42,3.74,4.9,6.03,7.32
5,2022,638,Clinton St & Jackson Blvd,41.87831661183069,-87.64098107814789,626,626,1000,991,1626,1617,31,20.19,20.19,32.26,31.97,52.45,52.16
5,2022,13213,State St & 29th St,41.841707,-87.626938,64,62,76,88,140,150,31,2.06,2.0,2.45,2.84,4.52,4.84
5,2022,514,Ridge Blvd & Howard St,42.019276,-87.68452,49,51,58,51,107,102,31,1.58,1.65,1.87,1.65,3.45,3.29
5,2022,519,Wolcott Ave & Fargo Ave,42.016977,-87.677725,27,30,25,16,52,46,31,0.87,0.97,0.81,0.52,1.68,1.48
5,2022,KA1503000071,University Ave & 57th St,41.791477323,-87.599898577,1001,990,2778,2843,3779,3833,31,32.29,31.94,89.61,91.71,121.9,123.65
5,2022,16906,Austin Blvd & Lake St,41.88794379427211,-87.77427345514297,42,34,21,28,63,62,29,1.45,1.17,0.72,0.97,2.17,2.14
5,2022,500,Monticello Ave & Belmont Ave,41.94,-87.72,35,32,0,0,35,32,20,1.75,1.6,0.0,0.0,1.75,1.6
5,2022,596,Benson Ave & Church St,42.048214,-87.683485,144,145,247,251,391,396,32,4.5,4.53,7.72,7.84,12.22,12.38
5,2022,13263,Columbus Dr & Randolph St,41.884728,-87.619521,743,677,1132,990,1875,1667,31,23.97,21.84,36.52,31.94,60.48,53.77
5,2022,KA1503000047,Perry Ave & 69th St,41.76929308995,-87.6281959291,11,10,14,10,25,20,21,0.52,0.48,0.67,0.48,1.19,0.95
5,2022,TA1309000064,Wolcott Ave & Polk St,41.8711525,-87.674091,341,328,655,661,996,989,31,11.0,10.58,21.13,21.32,32.13,31.9
5,2022,13266,Stave St & Armitage Ave,41.917741,-87.691392,311,312,329,338,640,650,31,10.03,10.06,10.61,10.9,20.65,20.97
5,2022,KA1504000106,Kedzie Ave & Lake St,41.88460328501,-87.7063037436,52,53,21,18,73,71,31,1.68,1.71,0.68,0.58,2.35,2.29
5,2022,13058,Dayton St & North Ave,41.9105780349,-87.6494219288,521,509,765,800,1286,1309,31,16.81,16.42,24.68,25.81,41.48,42.23
5,2022,13037,Clinton St & Tilden St,41.875885,-87.640795,144,145,278,257,422,402,31,4.65,4.68,8.97,8.29,13.61,12.97
5,2022,570,McVicker Ave & Grand Ave,41.92,-87.78,18,16,17,7,35,23,26,0.69,0.62,0.65,0.27,1.35,0.88
5,2022,585,Cottage Grove Ave & 83rd St,41.74338683333333,-87.60486116666667,21,21,21,25,42,46,26,0.81,0.81,0.81,0.96,1.62,1.77
5,2022,13247,Ashland Ave & Chicago Ave,41.8959743225961,-87.66772538423538,270,268,384,398,654,666,32,8.44,8.38,12.0,12.44,20.44,20.81
5,2022,13091,Western Ave & 21st St,41.854005666666666,-87.68589133333333,103,104,70,80,173,184,31,3.32,3.35,2.26,2.58,5.58,5.94
5,2022,13083,Indiana Ave & 40th St,41.82164816666667,-87.62138,12,14,19,15,31,29,21,0.57,0.67,0.9,0.71,1.48,1.38
5,2022,13073,Ashland Ave & Lake St,41.88592,-87.66717,239,189,344,299,583,488,31,7.71,6.1,11.1,9.65,18.81,15.74
5,2022,13241,Western Ave & Division St,41.902907,-87.68747,281,262,374,287,655,549,31,9.06,8.45,12.06,9.26,21.13,17.71
5,2022,13136,Damen Ave & Division St,41.903360724,-87.678440452,505,498,626,652,1131,1150,32,15.78,15.56,19.56,20.38,35.34,35.94
5,2022,KA1503000046,Dorchester Ave & 63rd St,41.7804056457,-87.5914159893,28,28,44,53,72,81,29,0.97,0.97,1.52,1.83,2.48,2.79
5,2022,458,Washtenaw Ave & Peterson Ave,41.99,-87.7,36,37,0,0,36,37,25,1.44,1.48,0.0,0.0,1.44,1.48
5,2022,TA1306000013,New St & Illinois St,41.890619666666666,-87.61816466666667,875,860,1439,1456,2314,2316,31,28.23,27.74,46.42,46.97,74.65,74.71
5,2022,KA1504000162,Clark St & Lunt Ave,42.00901118058077,-87.67411172389984,158,159,140,136,298,295,31,5.1,5.13,4.52,4.39,9.61,9.52
5,2022,KA1503000034,LaSalle St & Adams St,41.87934437346,-87.6319852213,202,189,364,351,566,540,31,6.52,6.1,11.74,11.32,18.26,17.42
5,2022,13276,Stockton Dr & Wrightwood Ave,41.93132,-87.638742,585,589,1189,1194,1774,1783,31,18.87,19.0,38.35,38.52,57.23,57.52
5,2022,KA1503000073,MLK Jr Dr & 56th St,41.79342945658,-87.6158532619,15,7,39,27,54,34,27,0.56,0.26,1.44,1.0,2.0,1.26
5,2022,TA1308000021,Winthrop Ave & Lawrence Ave,41.968812,-87.657659,291,287,469,467,760,754,31,9.39,9.26,15.13,15.06,24.52,24.32
5,2022,TA1307000107,Sheridan Rd & Montrose Ave,41.96167,-87.65464,584,583,885,902,1469,1485,32,18.25,18.22,27.66,28.19,45.91,46.41
5,2022,20229,Baltimore Ave & 87th St,41.73736466666666,-87.54843233333334,12,13,4,12,16,25,20,0.6,0.65,0.2,0.6,0.8,1.25
5,2022,428,Milwaukee Ave & Fullerton Ave,41.92,-87.7,371,359,0,0,371,359,31,11.97,11.58,0.0,0.0,11.97,11.58
5,2022,13063,Sheridan Rd & Irving Park Rd,41.954245,-87.654406,683,661,1170,1093,1853,1754,31,22.03,21.32,37.74,35.26,59.77,56.58
5,2022,559,Racine Ave & Garfield Blvd,41.794228,-87.655073,14,14,8,15,22,29,23,0.61,0.61,0.35,0.65,0.96,1.26
5,2022,416,Washtenaw Ave & Madison St,41.88,-87.69,16,16,0,0,16,16,15,1.07,1.07,0.0,0.0,1.07,1.07
5,2022,TA1308000014,Normal Ave & Archer Ave,41.849527,-87.640591,41,39,101,93,142,132,31,1.32,1.26,3.26,3.0,4.58,4.26
5,2022,520,Greenview Ave & Jarvis Ave,42.01599066666667,-87.66871,153,152,267,240,420,392,31,4.94,4.9,8.61,7.74,13.55,12.65
5,2022,15691,Albany Ave & 26th St,41.844475,-87.702013,19,23,9,15,28,38,28,0.68,0.82,0.32,0.54,1.0,1.36
5,2022,TA1305000020,Ogden Ave & Chicago Ave,41.896362,-87.654061,478,483,676,742,1154,1225,31,15.42,15.58,21.81,23.94,37.23,39.52
5,2022,16933,Morgan St & Pershing Rd,41.823613,-87.650931,14,12,8,15,22,27,22,0.64,0.55,0.36,0.68,1.0,1.23
5,2022,TA1309000051,Commercial Ave & 83rd St,41.74460483333333,-87.55127216666666,19,22,18,19,37,41,21,0.9,1.05,0.86,0.9,1.76,1.95
5,2022,20210,State St & 123rd St,41.67064383687979,-87.62258648872375,1,1,6,6,7,7,7,0.14,0.14,0.86,0.86,1.0,1.0
5,2022,13162,Halsted St & 21st St,41.85377981072743,-87.6466029882431,82,80,163,154,245,234,31,2.65,2.58,5.26,4.97,7.9,7.55
5,2022,605,University Library (NU),42.052939,-87.673447,86,82,309,298,395,380,31,2.77,2.65,9.97,9.61,12.74,12.26
5,2022,15646,California Ave & Altgeld St,41.92668883333333,-87.69772433333333,172,166,256,295,428,461,31,5.55,5.35,8.26,9.52,13.81,14.87
5,2022,KA1503000018,Jeffery Blvd & 71st St,41.76663823695,-87.5764501141,19,17,35,38,54,55,28,0.68,0.61,1.25,1.36,1.93,1.96
5,2022,13059,Bissell St & Armitage Ave,41.91801814237187,-87.65218198299408,506,500,1042,1052,1548,1552,31,16.32,16.13,33.61,33.94,49.94,50.06
5,2022,TA1308000045,Wallace St & 35th St,41.83070705144085,-87.64125533401966,67,63,196,200,263,263,31,2.16,2.03,6.32,6.45,8.48,8.48
5,2022,13420,MLK Jr Dr & Pershing Rd,41.8246,-87.61678,48,45,72,65,120,110,30,1.6,1.5,2.4,2.17,4.0,3.67
5,2022,KA1504000097,Drake Ave & Montrose Ave,41.96115407569,-87.7165690733,69,61,87,86,156,147,29,2.38,2.1,3.0,2.97,5.38,5.07
5,2022,RP-002,Warren Park East,42.00455,-87.680666,98,98,59,54,157,152,31,3.16,3.16,1.9,1.74,5.06,4.9
5,2022,RP-009,Sheridan Rd & Loyola Ave,42.001147151,-87.661263108,166,170,299,302,465,472,31,5.35,5.48,9.65,9.74,15.0,15.23
5,2022,KA1504000086,Kedzie Ave & 24th St,41.84819094491,-87.7054137458,13,13,10,14,23,27,25,0.52,0.52,0.4,0.56,0.92,1.08
5,2022,15634,Western Ave & Roscoe St,41.943034,-87.687288,174,173,193,214,367,387,32,5.44,5.41,6.03,6.69,11.47,12.09
5,2022,604,Sheridan Rd & Noyes St (NU),42.05823,-87.67747183333333,204,199,548,541,752,740,31,6.58,6.42,17.68,17.45,24.26,23.87
5,2022,KA1504000164,Keystone Ave & Montrose Ave,41.961108,-87.72897,87,91,71,72,158,163,31,2.81,2.94,2.29,2.32,5.1,5.26
5,2022,13124,Cannon Dr & Fullerton Ave,41.9267559875,-87.6344287848,207,195,604,636,811,831,31,6.68,6.29,19.48,20.52,26.16,26.81
5,2022,579,Phillips Ave & 79th St,41.75182,-87.565211,6,7,17,22,23,29,24,0.25,0.29,0.71,0.92,0.96,1.21
5,2022,15449,State St & Pershing Rd,41.82305733333333,-87.62660333333334,31,29,11,13,42,42,27,1.15,1.07,0.41,0.48,1.56,1.56
5,2022,KA1504000076,Ellis Ave & 55th St,41.79430062054,-87.6014497734,555,552,1759,1780,2314,2332,31,17.9,17.81,56.74,57.42,74.65,75.23
5,2022,KA1503000025,Wentworth Ave & 63rd St,41.780078,-87.62980400000001,18,15,22,11,40,26,23,0.78,0.65,0.96,0.48,1.74,1.13
5,2022,TA1307000039,Clark St & Elm St,41.902973,-87.63128,1370,1345,2474,2451,3844,3796,32,42.81,42.03,77.31,76.59,120.12,118.62
5,2022,393,Oketo Ave & Addison St,41.94,-87.81,13,10,0,0,13,10,14,0.93,0.71,0.0,0.0,0.93,0.71
5,2022,KA1503000020,South Shore Dr & 74th St,41.76218896038,-87.55927465,5,7,36,37,41,44,24,0.21,0.29,1.5,1.54,1.71,1.83
5,2022,593,Halsted St & 59th St,41.787628833333336,-87.64487216666667,1,1,9,4,10,5,11,0.09,0.09,0.82,0.36,0.91,0.45
5,2022,832,Christiana Ave & Archer Ave,41.81,-87.71,11,9,0,0,11,9,12,0.92,0.75,0.0,0.0,0.92,0.75
5,2022,E007,Central St & Girard Ave,42.064313,-87.686152,32,34,72,77,104,111,31,1.03,1.1,2.32,2.48,3.35,3.58
5,2022,20121,Loomis Blvd & 84th St,41.74148652861805,-87.65841007232666,6,4,14,14,20,18,17,0.35,0.24,0.82,0.82,1.18,1.06
5,2022,317,Long Ave & Belmont Ave,41.94,-87.76,55,57,0,0,55,57,28,1.96,2.04,0.0,0.0,1.96,2.04
5,2022,E014,Lincolnwood Dr & Central St,42.064854,-87.715297,25,24,44,42,69,66,29,0.86,0.83,1.52,1.45,2.38,2.28
5,2022,513,Spaulding Ave & Evergreen Ave,41.91,-87.71,32,31,0,0,32,31,19,1.68,1.63,0.0,0.0,1.68,1.63
5,2022,375,Long Ave & North Ave,41.91,-87.76,11,16,0,0,11,16,13,0.85,1.23,0.0,0.0,0.85,1.23
5,2022,322,Cicero Ave & Grace St,41.95,-87.75,14,12,0,0,14,12,14,1.0,0.86,0.0,0.0,1.0,0.86
5,2022,20257.0,N Southport Ave & W Newport Ave,41.94,-87.66,101,103,0,0,101,103,29,3.48,3.55,0.0,0.0,3.48,3.55
5,2022,777,Midway Orange Line,41.79,-87.74,32,25,0,0,32,25,19,1.68,1.32,0.0,0.0,1.68,1.32
5,2022,17660,California Ave & Cortez St,41.900363,-87.696704,480,472,290,372,770,844,31,15.48,15.23,9.35,12.0,24.84,27.23
5,2022,15442,Ashland Ave & Archer Ave,41.839144,-87.66571283333333,52,49,74,74,126,123,28,1.86,1.75,2.64,2.64,4.5,4.39
5,2022,766,Harold Washington Park,41.8,-87.58,5,7,0,0,5,7,7,0.71,1.0,0.0,0.0,0.71,1.0
5,2022,775,Kedzie Ave & 58th St,41.79,-87.7,6,8,0,0,6,8,7,0.86,1.14,0.0,0.0,0.86,1.14
5,2022,510,Spaulding Ave & North Ave,41.91,-87.71,24,26,0,0,24,26,17,1.41,1.53,0.0,0.0,1.41,1.53
5,2022,KA1504000129,Western Ave & Granville Ave,41.99418116666666,-87.689452,91,92,56,62,147,154,31,2.94,2.97,1.81,2.0,4.74,4.97
5,2022,495,Keystone Ave & Irving Park Rd,41.95,-87.73,15,12,0,0,15,12,14,1.07,0.86,0.0,0.0,1.07,0.86
5,2022,KA1504000160,Francisco Ave & Foster Ave,41.975599,-87.70144766666667,117,114,169,168,286,282,31,3.77,3.68,5.45,5.42,9.23,9.1
5,2022,RP-005,Western Ave & Lunt Ave,42.008613706,-87.690427423,74,82,75,94,149,176,31,2.39,2.65,2.42,3.03,4.81,5.68
5,2022,324,Meade Ave & Addison St,41.95,-87.78,24,19,0,0,24,19,20,1.2,0.95,0.0,0.0,1.2,0.95
5,2022,535,Pulaski Rd & Congress Pkwy,41.87444516666667,-87.72613633333333,19,12,6,7,25,19,22,0.86,0.55,0.27,0.32,1.14,0.86
5,2022,E006,Central St Metra,42.06381066666667,-87.69862033333334,64,68,72,82,136,150,31,2.06,2.19,2.32,2.65,4.39,4.84
5,2022,KA1504000104,Paulina St & Flournoy St,41.87281316666667,-87.66903083333334,377,341,602,589,979,930,31,12.16,11.0,19.42,19.0,31.58,30.0
5,2022,KA1504000114,Kedzie Ave & Chicago Ave,41.8954635,-87.70615633333334,63,60,21,50,84,110,30,2.1,2.0,0.7,1.67,2.8,3.67
5,2022,813,Calumet Ave & 51st St,41.8,-87.62,5,4,0,0,5,4,5,1.0,0.8,0.0,0.0,1.0,0.8
5,2022,KA1503000027,Prairie Ave & 43rd St,41.81669733333333,-87.61941666666667,37,40,37,37,74,77,29,1.28,1.38,1.28,1.28,2.55,2.66
5,2022,693,Walden Pkwy & 103rd St,41.71,-87.67,17,13,0,0,17,13,15,1.13,0.87,0.0,0.0,1.13,0.87
5,2022,398,Long & Irving Park,41.95,-87.76,127,124,0,0,127,124,30,4.23,4.13,0.0,0.0,4.23,4.13
5,2022,16994,Kilbourn Ave & Milwaukee Ave,41.94719116666667,-87.7400075,35,33,29,33,64,66,29,1.21,1.14,1.0,1.14,2.21,2.28
5,2022,KA1503000029,South Shore Dr & 67th St,41.77369633333333,-87.56734866666666,28,32,79,71,107,103,29,0.97,1.1,2.72,2.45,3.69,3.55
5,2022,905,Yates Blvd & Exchange Ave,41.77,-87.57,4,2,0,0,4,2,5,0.8,0.4,0.0,0.0,0.8,0.4
5,2022,530,Laramie Ave & Kinzie St,41.887838333333335,-87.7556465,28,21,5,7,33,28,22,1.27,0.95,0.23,0.32,1.5,1.27
5,2022,582,Phillips Ave & 83rd St,41.744531,-87.56506,9,7,4,3,13,10,14,0.64,0.5,0.29,0.21,0.93,0.71
5,2022,KA1503000068,Leavitt St & Archer Ave,41.828715333333335,-87.68064916666667,78,71,52,54,130,125,31,2.52,2.29,1.68,1.74,4.19,4.03
5,2022,KA1504000091,Hoyne Ave & 47th St,41.808192253,-87.677199721,14,15,10,15,24,30,21,0.67,0.71,0.48,0.71,1.14,1.43
5,2022,15682,Kedzie Ave & Roosevelt Rd,41.866493,-87.706496,24,17,10,18,34,35,23,1.04,0.74,0.43,0.78,1.48,1.52
5,2022,332.0,Harding Ave & 26th St,41.84,-87.72,15,11,0,0,15,11,14,1.07,0.79,0.0,0.0,1.07,0.79
5,2022,434,Albany Ave & Belmont Ave,41.94,-87.71,43,44,0,0,43,44,22,1.95,2.0,0.0,0.0,1.95,2.0
5,2022,562,Menard Ave & Belmont Ave,41.94,-87.77,7,5,8,2,15,7,15,0.47,0.33,0.53,0.13,1.0,0.47
5,2022,445,Western Ave & Gunnison St,41.97,-87.69,69,66,0,0,69,66,28,2.46,2.36,0.0,0.0,2.46,2.36
5,2022,508,Pulaski Rd & Fullerton Ave,41.92,-87.73,59,63,0,0,59,63,23,2.57,2.74,0.0,0.0,2.57,2.74
5,2022,391,Rockwell St & 63rd St,41.78,-87.69,15,13,0,0,15,13,13,1.15,1.0,0.0,0.0,1.15,1.0
5,2022,479,California Ave & Touhy Ave - NW,42.01,-87.7,8,10,0,0,8,10,7,1.14,1.43,0.0,0.0,1.14,1.43
5,2022,566,Narragansett Ave & Fullerton Ave,41.92,-87.78,16,15,0,0,16,15,14,1.14,1.07,0.0,0.0,1.14,1.07
5,2022,309,Narragansett & McLean,41.92,-87.79,19,15,0,0,19,15,18,1.06,0.83,0.0,0.0,1.06,0.83
5,2022,864,Kedvale Ave & Addison St,41.95,-87.73,3,3,0,0,3,3,3,1.0,1.0,0.0,0.0,1.0,1.0
5,2022,20245,Ashland Ave & 74th St,41.7591845,-87.66350183333333,8,5,4,11,12,16,16,0.5,0.31,0.25,0.69,0.75,1.0
5,2022,KA1503000038,Shields Ave & 31st St,41.83841116666667,-87.6353555,105,97,264,266,369,363,30,3.5,3.23,8.8,8.87,12.3,12.1
5,2022,812,Lake Park Ave & 47th St,41.81,-87.59,7,9,0,0,7,9,6,1.17,1.5,0.0,0.0,1.17,1.5
5,2022,16948,Ashland Ave & 63rd St,41.7794255,-87.66492066666666,9,9,8,3,17,12,19,0.47,0.47,0.42,0.16,0.89,0.63
5,2022,325,Harlem Ave & Grace St,41.95,-87.81,2,5,0,0,2,5,5,0.4,1.0,0.0,0.0,0.4,1.0
5,2022,20223,Ewing Ave & Burnham Greenway,41.87119283333333,-87.6737475,109,1,12,10,121,11,21,5.19,0.05,0.57,0.48,5.76,0.52
5,2022,436,Kedzie Ave & George St,41.93,-87.71,71,71,0,0,71,71,29,2.45,2.45,0.0,0.0,2.45,2.45
5,2022,855,Washtenaw Ave & Superior St,41.89,-87.7,24,24,0,0,24,24,18,1.33,1.33,0.0,0.0,1.33,1.33
5,2022,346,Kedzie Ave & 57th St,41.79,-87.7,45,40,0,0,45,40,24,1.88,1.67,0.0,0.0,1.88,1.67
5,2022,877,Racine Ave & 109th Pl,41.7,-87.65,4,5,0,0,4,5,3,1.33,1.67,0.0,0.0,1.33,1.67
5,2022,814,Prairie Ave & 47th St - midblock,41.81,-87.62,8,8,0,0,8,8,10,0.8,0.8,0.0,0.0,0.8,0.8
5,2022,20133,Woodlawn & 103rd - Olive Harvey Vaccination Site,41.71,-87.59,8,5,0,0,8,5,8,1.0,0.62,0.0,0.0,1.0,0.62
5,2022,475,Whipple/Irving Park,41.95,-87.7,16,16,0,0,16,16,17,0.94,0.94,0.0,0.0,0.94,0.94
5,2022,348,Western Ave & 62nd St,41.78,-87.68,14,8,0,0,14,8,8,1.75,1.0,0.0,0.0,1.75,1.0
5,2022,670,Champlain Ave & 134th St,41.66,-87.61,4,3,0,0,4,3,5,0.8,0.6,0.0,0.0,0.8,0.6
5,2022,494,Avers Ave & Irving Park Rd,41.95,-87.72,12,13,0,0,12,13,12,1.0,1.08,0.0,0.0,1.0,1.08
5,2022,483,Western Ave & Jarvis Ave,42.02,-87.69,37,40,0,0,37,40,23,1.61,1.74,0.0,0.0,1.61,1.74
5,2022,600,Dodge Ave & Church St,42.04827266666667,-87.698444,45,45,56,57,101,102,30,1.5,1.5,1.87,1.9,3.37,3.4
5,2022,384,Kedzie Ave & 52nd St,41.8,-87.7,25,21,0,0,25,21,19,1.32,1.11,0.0,0.0,1.32,1.11
5,2022,664,Cottage Grove & 84th St,41.74,-87.6,2,1,0,0,2,1,1,2.0,1.0,0.0,0.0,2.0,1.0
5,2022,13257,Campbell Ave & North Ave,41.910514166666665,-87.68958066666667,342,301,413,369,755,670,31,11.03,9.71,13.32,11.9,24.35,21.61
5,2022,357,Lamon Ave & Armitage Ave,41.92,-87.75,34,32,0,0,34,32,23,1.48,1.39,0.0,0.0,1.48,1.39
5,2022,KA1503000066,Wood St & 35th St,41.830102444,-87.670394421,67,67,55,53,122,120,31,2.16,2.16,1.77,1.71,3.94,3.87
5,2022,RP-004,Oakley Ave & Touhy Ave,42.01233583333333,-87.68827166666667,32,27,27,38,59,65,30,1.07,0.9,0.9,1.27,1.97,2.17
5,2022,505,Milwaukee Ave & Haussen Ct,41.94,-87.72,37,26,0,0,37,26,20,1.85,1.3,0.0,0.0,1.85,1.3
5,2022,KA1503000004,Lake Park Ave & 35th St,41.83128416666667,-87.6086995,97,95,187,188,284,283,31,3.13,3.06,6.03,6.06,9.16,9.13
5,2022,305,Menard Ave & Division St,41.9,-87.77,12,11,0,0,12,11,8,1.5,1.38,0.0,0.0,1.5,1.38
5,2022,16970,Bennett Ave & 79th St,41.75179565,-87.578439355,6,4,3,7,9,11,14,0.43,0.29,0.21,0.5,0.64,0.79
5,2022,363.0,Tripp Ave & 15th St,41.86,-87.73,6,2,0,0,6,2,4,1.5,0.5,0.0,0.0,1.5,0.5
5,2022,TA1307000041,DuSable Lake Shore Dr & Wellington Ave,41.9366884494997,-87.63682901859283,724,712,1754,1805,2478,2517,31,23.35,22.97,56.58,58.23,79.94,81.19
5,2022,350,Hamlin Ave & 62nd Pl,41.78,-87.72,28,27,0,0,28,27,21,1.33,1.29,0.0,0.0,1.33,1.29
5,2022,E002,Chicago Ave & Washington St,42.032562,-87.679101,148,153,198,209,346,362,31,4.77,4.94,6.39,6.74,11.16,11.68
5,2022,340,Pulaski & Ann Lurie Pl,41.82,-87.72,22,18,0,0,22,18,16,1.38,1.12,0.0,0.0,1.38,1.12
5,2022,489,Spaulding Ave & Bryn Mawr Ave,41.98,-87.71,16,14,0,0,16,14,16,1.0,0.88,0.0,0.0,1.0,0.88
5,2022,462,Lincoln Ave & Peterson Ave,41.99,-87.71,42,44,0,0,42,44,21,2.0,2.1,0.0,0.0,2.0,2.1
5,2022,15470,Calumet Ave & 51st St,41.80229465088,-87.6180535802,57,53,54,43,111,96,31,1.84,1.71,1.74,1.39,3.58,3.1
5,2022,TA1309000021,Paulina St & Montrose Ave,41.96151016666666,-87.67142,210,196,283,261,493,457,31,6.77,6.32,9.13,8.42,15.9,14.74
5,2022,KA1504000130,Maplewood Ave & Peterson Ave,41.99023602867,-87.6933696402,32,32,36,46,68,78,29,1.1,1.1,1.24,1.59,2.34,2.69
5,2022,20213,Commercial Ave & 130th St,41.659150427597744,-87.55076229572296,7,5,9,6,16,11,11,0.64,0.45,0.82,0.55,1.45,1.0
5,2022,15664,Artesian Ave & Hubbard St,41.88949181977,-87.6882193648,278,232,158,141,436,373,31,8.97,7.48,5.1,4.55,14.06,12.03
5,2022,TA1308000023,Cottage Grove Ave & 43rd St,41.816499,-87.606582,82,76,75,71,157,147,32,2.56,2.38,2.34,2.22,4.91,4.59
5,2022,TA1309000012,Damen Ave & Sunnyside Ave,41.96325,-87.679258,122,120,278,277,400,397,31,3.94,3.87,8.97,8.94,12.9,12.81
5,2022,KA1504000082,Kedzie Ave & Harrison St,41.873625,-87.7048845,9,10,12,8,21,18,18,0.5,0.56,0.67,0.44,1.17,1.0
5,2022,TA1309000049,DuSable Lake Shore Dr & Belmont Ave,41.940775,-87.639192,833,818,1699,1710,2532,2528,31,26.87,26.39,54.81,55.16,81.68,81.55
5,2022,TA1308000043,Halsted St & 35th St,41.830661,-87.647172,128,121,149,136,277,257,32,4.0,3.78,4.66,4.25,8.66,8.03
5,2022,573,State St & 79th St,41.75077016666667,-87.6244425,17,10,19,12,36,22,26,0.65,0.38,0.73,0.46,1.38,0.85
5,2022,624,Dearborn St & Van Buren St,41.876268,-87.629155,255,240,540,483,795,723,31,8.23,7.74,17.42,15.58,25.65,23.32
5,2022,553,Elizabeth St & 47th St,41.80839,-87.656526,5,4,3,1,8,5,10,0.5,0.4,0.3,0.1,0.8,0.5
5,2022,422,Albany Ave & 16th St,41.86,-87.7,25,22,0,0,25,22,24,1.04,0.92,0.0,0.0,1.04,0.92
5,2022,16940,Ashland Ave & 50th St,41.803023,-87.664699,17,13,5,12,22,25,24,0.71,0.54,0.21,0.5,0.92,1.04
5,2022,526,Legler Regional Library,41.88,-87.73,1,1,0,0,1,1,2,0.5,0.5,0.0,0.0,0.5,0.5
5,2022,13084,California Ave & Milwaukee Ave,41.922580833333335,-87.69712666666666,711,685,777,782,1488,1467,31,22.94,22.1,25.06,25.23,48.0,47.32
5,2022,20120,Stewart Ave & 83rd St,41.743717,-87.634088,2,2,14,6,16,8,17,0.12,0.12,0.82,0.35,0.94,0.47
5,2022,15624,Avondale Ave & Irving Park Rd,41.95324566666667,-87.73195533333333,132,128,62,62,194,190,30,4.4,4.27,2.07,2.07,6.47,6.33
5,2022,420,Washtenaw Ave & Polk St,41.87,-87.69,44,43,0,0,44,43,27,1.63,1.59,0.0,0.0,1.63,1.59
5,2022,504,Milwaukee Ave & Diversey Ave,41.93,-87.71,99,97,0,0,99,97,23,4.3,4.22,0.0,0.0,4.3,4.22
5,2022,381,Francisco Ave & 47th St,41.81,-87.7,19,20,0,0,19,20,19,1.0,1.05,0.0,0.0,1.0,1.05
5,2022,KA1503000069,Dorchester Ave & 49th St,41.805772,-87.592464,54,49,72,62,126,111,31,1.74,1.58,2.32,2.0,4.06,3.58
5,2022,16915,Central Ave & Harrison St,41.87300366666667,-87.76448783333333,15,13,4,6,19,19,17,0.88,0.76,0.24,0.35,1.12,1.12
5,2022,646,State St & 54th St,41.796642,-87.625923,20,20,33,23,53,43,24,0.83,0.83,1.38,0.96,2.21,1.79
5,2022,TA1307000062,Sedgwick St & Huron St,41.894666,-87.638437,410,363,752,666,1162,1029,31,13.23,11.71,24.26,21.48,37.48,33.19
5,2022,TA1307000061,State St & Pearson St,41.897448,-87.628722,275,278,501,504,776,782,31,8.87,8.97,16.16,16.26,25.03,25.23
5,2022,847,Brandon Ave & 91st St,41.73,-87.55,4,4,0,0,4,4,6,0.67,0.67,0.0,0.0,0.67,0.67
5,2022,20227,Bradley Park,41.717878301935,-87.56459176540375,0,0,7,7,7,7,7,0.0,0.0,1.0,1.0,1.0,1.0
5,2022,20204,Kedzie Ave & 110th St,41.6923645,-87.70094716666667,4,4,6,6,10,10,13,0.31,0.31,0.46,0.46,0.77,0.77
5,2022,527,Western Ave & Howard St,42.01897233333333,-87.6899725,80,88,43,48,123,136,31,2.58,2.84,1.39,1.55,3.97,4.39
5,2022,15546,Calumet Ave & 21st St,41.85418424947,-87.6191537415,196,188,278,262,474,450,31,6.32,6.06,8.97,8.45,15.29,14.52
5,2022,TA1307000140,Western Ave & Leland Ave,41.96651466666667,-87.6886695,386,387,405,460,791,847,31,12.45,12.48,13.06,14.84,25.52,27.32
5,2022,KA1706005015,Kildare Ave & Montrose Ave,41.96108,-87.73569,50,39,44,37,94,76,30,1.67,1.3,1.47,1.23,3.13,2.53
5,2022,20215,Hegewisch Metra Station,41.64850076266409,-87.54608988761902,0,0,4,5,4,5,5,0.0,0.0,0.8,1.0,0.8,1.0
5,2022,433,Elston Ave & Henderson St,41.94,-87.7,48,49,0,0,48,49,27,1.78,1.81,0.0,0.0,1.78,1.81
5,2022,13354,Ashland Ave & 13th St,41.865234,-87.666507,114,120,167,217,281,337,31,3.68,3.87,5.39,7.0,9.06,10.87
5,2022,344,Springfield Ave & 47th St,41.81,-87.72,18,17,0,0,18,17,18,1.0,0.94,0.0,0.0,1.0,0.94
5,2022,TA1309000018,Ravenswood Ave & Berteau Ave,41.957921,-87.673567,202,192,284,303,486,495,31,6.52,6.19,9.16,9.77,15.68,15.97
5,2022,13081,Ogden Ave & Congress Pkwy,41.87501566666667,-87.67325683333334,130,114,241,238,371,352,31,4.19,3.68,7.77,7.68,11.97,11.35
5,2022,TA1306000002,Morgan Ave & 14th Pl,41.862378,-87.651062,169,174,293,303,462,477,31,5.45,5.61,9.45,9.77,14.9,15.39
5,2022,20228,Constance Ave & 95th St,41.72229074095262,-87.57896840572357,4,4,19,19,23,23,22,0.18,0.18,0.86,0.86,1.05,1.05
5,2022,383,Campbell Ave & 51st St,41.8,-87.69,30,28,0,0,30,28,20,1.5,1.4,0.0,0.0,1.5,1.4
5,2022,403,Kildare Ave & 55th St,41.79,-87.73,19,14,0,0,19,14,18,1.06,0.78,0.0,0.0,1.06,0.78
5,2022,380,Fairfield Ave & 44th St,41.81,-87.69,14,15,0,0,14,15,16,0.88,0.94,0.0,0.0,0.88,0.94
5,2022,20243,Michigan Ave & 114th St,41.687006,-87.62123316666667,4,3,6,7,10,10,12,0.33,0.25,0.5,0.58,0.83,0.83
5,2022,KA1504000161,St. Louis Ave & Balmoral Ave,41.980336,-87.7161455,41,41,52,50,93,91,29,1.41,1.41,1.79,1.72,3.21,3.14
5,2022,370,Central Park & Augusta Blvd,41.9,-87.72,29,31,0,0,29,31,22,1.32,1.41,0.0,0.0,1.32,1.41
5,2022,KA1504000167,Kedzie Ave & Bryn Mawr Ave,41.98222975911517,-87.70888656377792,47,45,66,68,113,113,31,1.52,1.45,2.13,2.19,3.65,3.65
5,2022,560,Marshfield Ave & 59th St,41.7868225,-87.66619166666666,8,12,5,2,13,14,16,0.5,0.75,0.31,0.12,0.81,0.88
5,2022,KA1504000155,2112 W Peterson Ave,41.991189166666665,-87.6835005,69,68,57,80,126,148,30,2.3,2.27,1.9,2.67,4.2,4.93
5,2022,402,Kenneth Ave & 50th St,41.8,-87.73,10,10,0,0,10,10,8,1.25,1.25,0.0,0.0,1.25,1.25
5,2022,337,Hoyne Ave & 34th St,41.83,-87.68,13,8,0,0,13,8,10,1.3,0.8,0.0,0.0,1.3,0.8
5,2022,KA1504000101,Ogden Ave & Roosevelt Rd,41.86655383333333,-87.68455883333333,67,67,62,65,129,132,30,2.23,2.23,2.07,2.17,4.3,4.4
5,2022,13256,California Ave & Division St,41.903029,-87.697474,225,223,228,287,453,510,31,7.26,7.19,7.35,9.26,14.61,16.45
5,2022,15529,Mies van der Rohe Way & Chestnut St,41.898571,-87.62247166666667,609,600,1105,1035,1714,1635,31,19.65,19.35,35.65,33.39,55.29,52.74
5,2022,15685,Central Park Ave & Ogden Ave,41.854063503874464,-87.71511733531952,73,70,36,29,109,99,30,2.43,2.33,1.2,0.97,3.63,3.3
5,2022,642,Latrobe Ave & Chicago Ave,41.894745,-87.756895,22,23,6,9,28,32,20,1.1,1.15,0.3,0.45,1.4,1.6
5,2022,396,Central Ave & Roscoe St,41.94,-87.77,43,50,0,0,43,50,23,1.87,2.17,0.0,0.0,1.87,2.17
5,2022,16903,Cicero Ave & Lake St,41.88682133333333,-87.74544116666667,36,31,15,10,51,41,30,1.2,1.03,0.5,0.33,1.7,1.37
5,2022,334.0,Lawndale Ave & 30th St,41.84,-87.72,19,19,0,0,19,19,22,0.86,0.86,0.0,0.0,0.86,0.86
5,2022,20205,Western Ave & 111th St,41.6912025,-87.68133766666666,22,11,17,19,39,30,26,0.85,0.42,0.65,0.73,1.5,1.15
5,2022,15689,California Ave & 23rd Pl,41.84910969176,-87.6951398068,44,34,37,27,81,61,29,1.52,1.17,1.28,0.93,2.79,2.1
5,2022,KA1503000074,Museum of Science and Industry,41.79172820953,-87.583945009,220,211,465,468,685,679,30,7.33,7.03,15.5,15.6,22.83,22.63
5,2022,13331,May St & Cullerton St,41.855136,-87.654127,123,123,184,197,307,320,31,3.97,3.97,5.94,6.35,9.9,10.32
5,2022,KA1504000109,Washtenaw Ave & Ogden Ave,41.8619105,-87.693517,49,49,56,60,105,109,31,1.58,1.58,1.81,1.94,3.39,3.52
5,2022,426,California & 16th St,41.86,-87.7,14,10,0,0,14,10,13,1.08,0.77,0.0,0.0,1.08,0.77
5,2022,16916,Central Ave & Madison St,41.880121,-87.763238,8,9,26,26,34,35,25,0.32,0.36,1.04,1.04,1.36,1.4
5,2022,KA1503000032,Union Ave & Root St,41.819102,-87.643278,31,29,9,15,40,44,27,1.15,1.07,0.33,0.56,1.48,1.63
5,2022,20244,Halsted St & 73rd St,41.7616555,-87.64405283333333,8,7,13,15,21,22,16,0.5,0.44,0.81,0.94,1.31,1.38
5,2022,373,Augusta Blvd & Laramie Ave,41.9,-87.76,32,30,0,0,32,30,21,1.52,1.43,0.0,0.0,1.52,1.43
5,2022,18017,Central Park Ave & Bloomingdale Ave,41.914166,-87.716755,95,99,234,240,329,339,31,3.06,3.19,7.55,7.74,10.61,10.94
5,2022,KA1504000139,Monticello Ave & Irving Park Rd,41.95395416666667,-87.71913166666667,117,117,74,71,191,188,31,3.77,3.77,2.39,2.29,6.16,6.06
5,2022,KA1504000142,Drake Ave & Addison St,41.947326,-87.717582,82,87,66,61,148,148,31,2.65,2.81,2.13,1.97,4.77,4.77
5,2022,20123,Western Ave & 104th St,41.704587,-87.681203,13,8,23,22,36,30,19,0.68,0.42,1.21,1.16,1.89,1.58
5,2022,516,Kenton Ave & Palmer St,41.92,-87.74,60,63,0,0,60,63,23,2.61,2.74,0.0,0.0,2.61,2.74
5,2022,316,Lamon Ave & Belmont Ave,41.94,-87.75,60,56,0,0,60,56,27,2.22,2.07,0.0,0.0,2.22,2.07
5,2022,916,Wood St & 47th St,41.81,-87.67,1,2,0,0,1,2,2,0.5,1.0,0.0,0.0,0.5,1.0
5,2022,20124,Vincennes Ave & 104th St,41.70492556499764,-87.65686810958869,0,2,9,9,9,11,9,0.0,0.22,1.0,1.0,1.0,1.22
5,2022,KA1504000080,Washtenaw Ave & Lawrence Ave,41.968701839,-87.696175218,206,202,164,160,370,362,31,6.65,6.52,5.29,5.16,11.94,11.68
5,2022,484,Sacramento Ave & Greenleaf Ave,42.01,-87.7,10,11,0,0,10,11,10,1.0,1.1,0.0,0.0,1.0,1.1
5,2022,TA1305000034,Honore St & Division St,41.903119,-87.673935,606,595,688,717,1294,1312,31,19.55,19.19,22.19,23.13,41.74,42.32
5,2022,KA1503000013,Princeton Ave & Garfield Blvd,41.794982,-87.633124,11,12,47,34,58,46,26,0.42,0.46,1.81,1.31,2.23,1.77
5,2022,424,Sacramento Ave & 25th St,41.85,-87.7,16,12,0,0,16,12,11,1.45,1.09,0.0,0.0,1.45,1.09
5,2022,366.0,Spaulding Ave & 16th St,41.86,-87.71,13,14,0,0,13,14,11,1.18,1.27,0.0,0.0,1.18,1.27
5,2022,TA1309000003,Western Ave & 24th St,41.84837366666667,-87.68510383333333,65,62,41,63,106,125,31,2.1,2.0,1.32,2.03,3.42,4.03
5,2022,673,Avenue M & 132nd St,41.66,-87.54,1,1,0,0,1,1,1,1.0,1.0,0.0,0.0,1.0,1.0
5,2022,580,Exchange Ave & 79th St,41.75166183333333,-87.5528325,12,12,19,17,31,29,18,0.67,0.67,1.06,0.94,1.72,1.61
5,2022,442,Lincoln Ave & Balmoral Ave,41.98,-87.69,133,133,0,0,133,133,31,4.29,4.29,0.0,0.0,4.29,4.29
5,2022,KA1503000010,Halsted St & 51st St,41.80183164049,-87.645213904,8,8,27,32,35,40,26,0.31,0.31,1.04,1.23,1.35,1.54
5,2022,KA1504000128,Kedzie Ave & Foster Ave,41.975721,-87.70929816666667,39,40,64,57,103,97,31,1.26,1.29,2.06,1.84,3.32,3.13
5,2022,509,Mozart Elementary School,41.92,-87.72,51,54,0,0,51,54,23,2.22,2.35,0.0,0.0,2.22,2.35
5,2022,KA1504000159,Sheridan Rd & Greenleaf Ave,42.01058656284,-87.6624120948,114,111,164,165,278,276,31,3.68,3.58,5.29,5.32,8.97,8.9
5,2022,546,Damen Ave & Pershing Rd,41.823192,-87.676597,105,108,25,29,130,137,28,3.75,3.86,0.89,1.04,4.64,4.89
5,2022,588,South Chicago Ave & 83rd St,41.743921,-87.575225,1,1,4,7,5,8,9,0.11,0.11,0.44,0.78,0.56,0.89
5,2022,TA1306000016,Sheffield Ave & Fullerton Ave,41.925497166666666,-87.65374466666667,1169,1125,1936,1847,3105,2972,31,37.71,36.29,62.45,59.58,100.16,95.87
5,2022,452,Richmond St & Lincoln Ave,41.99,-87.7,13,14,0,0,13,14,16,0.81,0.88,0.0,0.0,0.81,0.88
5,2022,20211,Eberhart Ave & 131st St,41.658413151101065,-87.61071089698817,1,1,8,7,9,8,7,0.14,0.14,1.14,1.0,1.29,1.14
5,2022,RP-006,Ridge Blvd & Touhy Ave,42.01213227742,-87.6829126443,53,50,46,54,99,104,29,1.83,1.72,1.59,1.86,3.41,3.59
5,2022,20253.0,N Paulina St & Lincoln Ave,41.94,-87.67,28,26,0,0,28,26,20,1.4,1.3,0.0,0.0,1.4,1.3
5,2022,421,Albany Ave & Douglas Blvd,41.86,-87.7,9,5,0,0,9,5,4,2.25,1.25,0.0,0.0,2.25,1.25
5,2022,13296,Ashland Ave & Wrightwood Ave,41.92883,-87.668507,329,332,466,471,795,803,32,10.28,10.38,14.56,14.72,24.84,25.09
5,2022,KA1503000070,Harper Ave & 59th St,41.78794281287,-87.5883151702,183,181,552,547,735,728,31,5.9,5.84,17.81,17.65,23.71,23.48
5,2022,KA1503000003,Cottage Grove Ave & 71st St,41.765719,-87.60496,19,19,32,21,51,40,26,0.73,0.73,1.23,0.81,1.96,1.54
5,2022,20255.0,N Damen Ave & W Chicago Ave,41.9,-87.68,35,33,0,0,35,33,19,1.84,1.74,0.0,0.0,1.84,1.74
5,2022,353,Meade Ave & Diversey Ave,41.93,-87.78,30,32,0,0,30,32,21,1.43,1.52,0.0,0.0,1.43,1.52
5,2022,595,Wabash Ave & 87th St,41.736647833333336,-87.62265383333333,34,23,32,20,66,43,28,1.21,0.82,1.14,0.71,2.36,1.54
5,2022,KA1503000030,Jeffery Blvd & 67th St,41.77351755125,-87.5771428255,25,27,41,33,66,60,27,0.93,1.0,1.52,1.22,2.44,2.22
5,2022,647,Elizabeth St & 59th St,41.789696880483376,-87.65469789505005,3,4,4,5,7,9,10,0.3,0.4,0.4,0.5,0.7,0.9
5,2022,KA1504000147,Winchester (Ravenswood) Ave & Balmoral Ave,41.97975216666666,-87.67754133333334,137,135,153,184,290,319,31,4.42,4.35,4.94,5.94,9.35,10.29
5,2022,465,Troy Ave & 27th St,41.84,-87.7,9,10,0,0,9,10,11,0.82,0.91,0.0,0.0,0.82,0.91
5,2022,388,Richmond St & 59th St,41.79,-87.7,16,12,0,0,16,12,11,1.45,1.09,0.0,0.0,1.45,1.09
5,2022,551,Cicero Ave & North Ave,41.91,-87.75,3,1,0,0,3,1,4,0.75,0.25,0.0,0.0,0.75,0.25
5,2022,15491,63rd St Beach,41.78091096424803,-87.57632374763489,34,37,86,109,120,146,26,1.31,1.42,3.31,4.19,4.62,5.62
5,2022,360,Kilbourn & Roscoe,41.94,-87.74,42,42,0,0,42,42,22,1.91,1.91,0.0,0.0,1.91,1.91
5,2022,427,Whipple St & Roosevelt Rd,41.87,-87.7,5,1,0,0,5,1,4,1.25,0.25,0.0,0.0,1.25,0.25
5,2022,352,Sayre & Diversey,41.93,-87.8,15,14,0,0,15,14,16,0.94,0.88,0.0,0.0,0.94,0.88
5,2022,15539,Desplaines St & Jackson Blvd,41.878093666666665,-87.64423716666667,465,469,701,676,1166,1145,31,15.0,15.13,22.61,21.81,37.61,36.94
5,2022,358,Kilpatrick Ave & Parker Ave,41.93,-87.74,76,72,0,0,76,72,28,2.71,2.57,0.0,0.0,2.71,2.57
5,2022,20224,Calumet Park,41.71371,-87.530844,3,2,32,31,35,33,22,0.14,0.09,1.45,1.41,1.59,1.5
5,2022,20119,Elizabeth St & 92nd St,41.72679896370119,-87.65429019927979,7,7,16,18,23,25,11,0.64,0.64,1.45,1.64,2.09,2.27
5,2022,13319,Ashland Ave & Grace St,41.950687,-87.6687,309,296,464,459,773,755,31,9.97,9.55,14.97,14.81,24.94,24.35
5,2022,831,Kolin Ave & Archer Ave,41.8,-87.73,3,2,0,0,3,2,3,1.0,0.67,0.0,0.0,1.0,0.67
5,2022,KA1504000102,Fairfield Ave & Roosevelt Rd,41.866624,-87.694521,28,25,21,20,49,45,27,1.04,0.93,0.78,0.74,1.81,1.67
5,2022,441,Virginia Ave & Catalpa Ave,41.98,-87.71,35,36,0,0,35,36,21,1.67,1.71,0.0,0.0,1.67,1.71
5,2022,368.0,Tripp Ave & 31st St,41.84,-87.73,16,14,0,0,16,14,16,1.0,0.88,0.0,0.0,1.0,0.88
5,2022,20201,Kedzie Ave & 104th St,41.7,-87.7,6,4,0,0,6,4,8,0.75,0.5,0.0,0.0,0.75,0.5
5,2022,506,Lawndale Ave & Diversey Ave,41.93,-87.72,27,28,0,0,27,28,19,1.42,1.47,0.0,0.0,1.42,1.47
5,2022,587,Wabash Ave & 83rd St,41.743316,-87.622849,2,3,6,2,8,5,10,0.2,0.3,0.6,0.2,0.8,0.5
5,2022,507,Hamlin Ave & Fullerton Ave,41.92,-87.72,56,56,0,0,56,56,23,2.43,2.43,0.0,0.0,2.43,2.43
5,2022,919,Pullman - Walmart,41.7,-87.6,5,5,0,0,5,5,4,1.25,1.25,0.0,0.0,1.25,1.25
5,2022,KA1504000096,Sawyer Ave & Irving Park Rd,41.95358617895,-87.7093107999,83,84,40,49,123,133,31,2.68,2.71,1.29,1.58,3.97,4.29
5,2022,753,Jeffery Blvd & 67th St,41.77,-87.58,5,5,0,0,5,5,6,0.83,0.83,0.0,0.0,0.83,0.83
5,2022,310,North Ave & New England Ave,41.91,-87.8,15,15,0,0,15,15,16,0.94,0.94,0.0,0.0,0.94,0.94
5,2022,544,Laramie Ave & Belmont Ave,41.94,-87.76,17,16,0,0,17,16,12,1.42,1.33,0.0,0.0,1.42,1.33
5,2022,TA1307000159,Paulina St & 18th St,41.857901,-87.668745,240,233,326,352,566,585,31,7.74,7.52,10.52,11.35,18.26,18.87
5,2022,E011,Dodge Ave & Main St,42.034632,-87.699188,27,26,26,43,53,69,29,0.93,0.9,0.9,1.48,1.83,2.38
5,2022,584,Ellis Ave & 83rd St,41.744123,-87.599034,12,12,10,13,22,25,19,0.63,0.63,0.53,0.68,1.16,1.32
5,2022,20217,Torrence Ave & 126th Pl,41.66631200825726,-87.55721569061278,7,3,4,3,11,6,11,0.64,0.27,0.36,0.27,1.0,0.55
5,2022,431,Western Ave & Grace St,41.95,-87.69,83,84,0,0,83,84,29,2.86,2.9,0.0,0.0,2.86,2.9
5,2022,330.0,Keeler Ave & Roosevelt Rd,41.87,-87.73,18,11,0,0,18,11,17,1.06,0.65,0.0,0.0,1.06,0.65
5,2022,13096,California Ave & 21st St,41.8538040657915,-87.69574239850043,59,55,60,55,119,110,30,1.97,1.83,2.0,1.83,3.97,3.67
5,2022,556,Throop St & 52nd St,41.79965816666667,-87.65714883333334,8,10,4,4,12,14,15,0.53,0.67,0.27,0.27,0.8,0.93
5,2022,20130,Wentworth Ave & 104th St,41.705307996998194,-87.62921690940857,0,1,8,6,8,7,8,0.0,0.12,1.0,0.75,1.0,0.88
5,2022,387,St Louis Ave & 59th St,41.79,-87.71,51,41,0,0,51,41,27,1.89,1.52,0.0,0.0,1.89,1.52
5,2022,369,Central Park Ave & Ohio St,41.89,-87.72,27,25,0,0,27,25,17,1.59,1.47,0.0,0.0,1.59,1.47
5,2022,443,California Ave & Winona St,41.97,-87.7,52,51,0,0,52,51,27,1.93,1.89,0.0,0.0,1.93,1.89
5,2022,20212,Altgeld Gardens,41.65666552967373,-87.59880065917969,2,1,6,2,8,3,6,0.33,0.17,1.0,0.33,1.33,0.5
5,2022,TA1309000067,Cottage Grove Ave & 51st St,41.803038,-87.606615,64,61,97,85,161,146,31,2.06,1.97,3.13,2.74,5.19,4.71
5,2022,15623,Campbell Ave & Montrose Ave,41.96152593287,-87.6911650414,154,154,184,184,338,338,31,4.97,4.97,5.94,5.94,10.9,10.9
5,2022,15622,California Ave & Montrose Ave,41.961068,-87.695439,167,169,217,212,384,381,31,5.39,5.45,7.0,6.84,12.39,12.29
5,2022,341,Archer Ave & 43rd St,41.82,-87.7,25,33,0,0,25,33,26,0.96,1.27,0.0,0.0,0.96,1.27
5,2022,20110,Eberhart Ave & 91st St,41.729285157254864,-87.6110315322876,11,8,15,9,26,17,20,0.55,0.4,0.75,0.45,1.3,0.85
5,2022,323,Narragansett & Irving Park,41.95,-87.79,63,58,0,0,63,58,26,2.42,2.23,0.0,0.0,2.42,2.23
5,2022,750,Harper Ave & 63rd St,41.78,-87.59,3,3,0,0,3,3,4,0.75,0.75,0.0,0.0,0.75,0.75
5,2022,320,Orange & Addison,41.94,-87.82,70,77,0,0,70,77,30,2.33,2.57,0.0,0.0,2.33,2.57
5,2022,15643,Kosciuszko Park,41.93050783333333,-87.72383416666666,129,135,125,164,254,299,31,4.16,4.35,4.03,5.29,8.19,9.65
5,2022,590,Kilbourn Ave & Irving Park Rd,41.95376,-87.740588,30,31,30,27,60,58,29,1.03,1.07,1.03,0.93,2.07,2.0
5,2022,867,Grand Ave & North Ave,41.91,-87.73,10,9,0,0,10,9,7,1.43,1.29,0.0,0.0,1.43,1.29
5,2022,823,Kedzie Ave & 54th St - SE,41.79,-87.7,9,9,0,0,9,9,9,1.0,1.0,0.0,0.0,1.0,1.0
5,2022,907,Calumet Ave & Garfield Blvd,41.79,-87.62,2,1,0,0,2,1,2,1.0,0.5,0.0,0.0,1.0,0.5
5,2022,563,Central Ave & George St,41.93,-87.77,9,10,0,0,9,10,12,0.75,0.83,0.0,0.0,0.75,0.83
5,2022,650,Eggleston Ave & 69th St,41.768898,-87.635876,16,4,7,5,23,9,16,1.0,0.25,0.44,0.31,1.44,0.56
5,2022,KA150400009X,Kimball Ave & Belmont Ave,41.93939083333333,-87.71162766666667,132,128,155,129,287,257,31,4.26,4.13,5.0,4.16,9.26,8.29
5,2022,534,Karlov Ave & Madison St,41.88085,-87.727907,7,7,5,8,12,15,11,0.64,0.64,0.45,0.73,1.09,1.36
5,2022,568,Central Ave & North Ave,41.91,-87.77,4,4,0,0,4,4,6,0.67,0.67,0.0,0.0,0.67,0.67
5,2022,TA1307000005,Indiana Ave & 26th St,41.84568766666666,-87.6225745,105,101,130,128,235,229,31,3.39,3.26,4.19,4.13,7.58,7.39
5,2022,634,Oglesby Ave & 95th St,41.72,-87.57,4,4,0,0,4,4,4,1.0,1.0,0.0,0.0,1.0,1.0
5,2022,KA1503000051,Halsted St & 47th Pl,41.808134,-87.645617,13,12,35,29,48,41,26,0.5,0.46,1.35,1.12,1.85,1.58
5,2022,699,Cottage Grove Ave & 98th St,41.72,-87.6,5,6,0,0,5,6,6,0.83,1.0,0.0,0.0,0.83,1.0
5,2022,749,Evans Ave & 63rd St,41.78,-87.61,1,1,0,0,1,1,1,1.0,1.0,0.0,0.0,1.0,1.0
5,2022,KA1503000002,South Shore Dr & 71st St,41.7664094567,-87.5656875719,49,51,82,83,131,134,28,1.75,1.82,2.93,2.96,4.68,4.79
5,2022,KA1503000045,Stony Island Ave & 71st St,41.7664929373,-87.5864608775,11,10,29,31,40,41,25,0.44,0.4,1.16,1.24,1.6,1.64
5,2022,20230,Clyde Ave & 87th St,41.73715146431056,-87.57274031639099,2,2,6,6,8,8,9,0.22,0.22,0.67,0.67,0.89,0.89
5,2022,KA1504000141,Pulaski Rd & Eddy St (Temp),41.946264,-87.731023,38,32,43,44,81,76,30,1.27,1.07,1.43,1.47,2.7,2.53
5,2022,395,Shabbona Park,41.94,-87.8,29,22,0,0,29,22,14,2.07,1.57,0.0,0.0,2.07,1.57
5,2022,809,Newcastle Ave & Belmont Ave,41.94,-87.8,3,2,0,0,3,2,4,0.75,0.5,0.0,0.0,0.75,0.5
5,2022,20247.0,W Washington Blvd & N Peoria St,41.88,-87.65,45,32,0,0,45,32,21,2.14,1.52,0.0,0.0,2.14,1.52
5,2022,13134,Damen Ave & Madison St,41.88137,-87.67493,110,101,148,170,258,271,31,3.55,3.26,4.77,5.48,8.32,8.74
5,2022,418,Mozart St & Jackson Blvd,41.88,-87.7,2,3,0,0,2,3,4,0.5,0.75,0.0,0.0,0.5,0.75
5,2022,15666,California Ave & Lake St,41.884467,-87.69633283333333,53,46,31,27,84,73,29,1.83,1.59,1.07,0.93,2.9,2.52
5,2022,776,Komensky Ave & 59th St,41.79,-87.72,12,9,0,0,12,9,11,1.09,0.82,0.0,0.0,1.09,0.82
5,2022,20134,Maryland Ave & 104th St,41.71,-87.6,31,28,0,0,31,28,19,1.63,1.47,0.0,0.0,1.63,1.47
5,2022,20111,Olive Harvey College,41.709532,-87.59022533333334,12,11,2,0,14,11,16,0.75,0.69,0.12,0.0,0.88,0.69
5,2022,444,N Shore Channel Trail & Argyle St,41.97,-87.7,106,109,0,0,106,109,28,3.79,3.89,0.0,0.0,3.79,3.89
5,2022,550,Laramie Ave & Grand Ave,41.92,-87.76,10,10,0,0,10,10,12,0.83,0.83,0.0,0.0,0.83,0.83
5,2022,371,Kildare Ave & Chicago Ave,41.9,-87.73,11,12,0,0,11,12,12,0.92,1.0,0.0,0.0,0.92,1.0
5,2022,KA1503000021,Stony Island Ave & 64th St,41.778881,-87.586647,34,28,30,16,64,44,24,1.42,1.17,1.25,0.67,2.67,1.83
5,2022,20232,Big Marsh Park,41.685877,-87.573824,1,1,8,8,9,9,9,0.11,0.11,0.89,0.89,1.0,1.0
5,2022,KA1503000019,Stony Island Ave & 75th St,41.75869266666667,-87.58694366666667,11,11,25,26,36,37,24,0.46,0.46,1.04,1.08,1.5,1.54
5,2022,20101,Summit Ave & 86th St,41.73784847673341,-87.64489978551863,2,2,9,9,11,11,12,0.17,0.17,0.75,0.75,0.92,0.92
5,2022,897,Homewood Ave & Monterey Ave,41.69,-87.67,5,4,0,0,5,4,4,1.25,1.0,0.0,0.0,1.25,1.0
5,2022,390,California Ave & Marquette Rd,41.77,-87.69,27,25,0,0,27,25,14,1.93,1.79,0.0,0.0,1.93,1.79
5,2022,20222,Burnham Greenway & 105th St,41.704597,-87.52833083333333,4,4,13,14,17,18,17,0.24,0.24,0.76,0.82,1.0,1.06
5,2022,301,Monticello Ave & Chicago Ave,41.9,-87.72,13,13,0,0,13,13,16,0.81,0.81,0.0,0.0,0.81,0.81
5,2022,Hubbard Bike-checking (LBS-WH-TEST),Base - 2132 W Hubbard Warehouse,41.90215,-87.7509225,168,7,1,11,169,18,29,5.79,0.24,0.03,0.38,5.83,0.62
5,2022,796,Waller Ave & Chicago Ave,41.89,-87.77,4,6,0,0,4,6,4,1.0,1.5,0.0,0.0,1.0,1.5
5,2022,557,Seeley Ave & Garfield Blvd,41.794087,-87.675478,1,1,11,12,12,13,13,0.08,0.08,0.85,0.92,0.92,1.0
5,2022,20236,Stony Island Ave & 90th St,41.73139494330236,-87.58574366569519,12,12,7,9,19,21,21,0.57,0.57,0.33,0.43,0.9,1.0
5,2022,18025,Carpenter St & 63rd St,41.77987,-87.650919,0,0,3,6,3,6,5,0.0,0.0,0.6,1.2,0.6,1.2
5,2022,20231,East End Ave & 87th St,41.73681521440671,-87.58280128240585,3,3,5,4,8,7,9,0.33,0.33,0.56,0.44,0.89,0.78
5,2022,16932,Ashland Ave & Pershing Rd,41.823465,-87.665577,8,6,11,5,19,11,21,0.38,0.29,0.52,0.24,0.9,0.52
5,2022,20238,Greenwood Ave & 97th St,41.718757272,-87.596991897,23,18,4,2,27,20,23,1.0,0.78,0.17,0.09,1.17,0.87
5,2022,307,Leamington Ave & Hirsch St,41.91,-87.75,11,10,0,0,11,10,9,1.22,1.11,0.0,0.0,1.22,1.11
5,2022,490,Kimball Ave & Carmen Ave,41.97,-87.71,7,7,0,0,7,7,7,1.0,1.0,0.0,0.0,1.0,1.0
5,2022,702,Western Ave & 92nd Pl,41.73,-87.68,10,7,0,0,10,7,7,1.43,1.0,0.0,0.0,1.43,1.0
5,2022,20131,Cottage Grove Ave & 111th Pl,41.69161166666667,-87.609998,4,4,23,22,27,26,17,0.24,0.24,1.35,1.29,1.59,1.53
5,2022,20214,Avenue O & 134th St,41.65195,-87.53952783333334,1,2,11,8,12,10,8,0.12,0.25,1.38,1.0,1.5,1.25
5,2022,336,La Villita Park (Albany/30th),41.84,-87.7,28,28,0,0,28,28,17,1.65,1.65,0.0,0.0,1.65,1.65
5,2022,594,Western Blvd & 48th Pl,41.805661,-87.683392,23,11,19,14,42,25,25,0.92,0.44,0.76,0.56,1.68,1.0
5,2022,303,Kildare Ave & Division St,41.9,-87.73,9,9,0,0,9,9,10,0.9,0.9,0.0,0.0,0.9,0.9
5,2022,819,Robert Fulton Elementary School,41.8,-87.67,9,7,0,0,9,7,10,0.9,0.7,0.0,0.0,0.9,0.7
5,2022,575,Cottage Grove Ave & 78th St,41.753151333333335,-87.605011,4,5,11,5,15,10,14,0.29,0.36,0.79,0.36,1.07,0.71
5,2022,752,Kimbark Ave & 63rd St,41.78,-87.59,4,6,0,0,4,6,6,0.67,1.0,0.0,0.0,0.67,1.0
5,2022,15599,Calumet Ave & 71st St,41.765527,-87.616954,1,1,2,1,3,2,5,0.2,0.2,0.4,0.2,0.6,0.4
5,2022,621,Lafayette Ave & 95th St,41.72,-87.62,6,6,0,0,6,6,7,0.86,0.86,0.0,0.0,0.86,0.86
5,2022,791,Mason Ave & Roosevelt Rd,41.87,-87.77,1,3,0,0,1,3,4,0.25,0.75,0.0,0.0,0.25,0.75
5,2022,555,Latrobe Ave & Lake St,41.89,-87.76,7,7,0,0,7,7,13,0.54,0.54,0.0,0.0,0.54,0.54
5,2022,578,Oleander Ave & Addison St,41.95,-87.82,3,2,0,0,3,2,4,0.75,0.5,0.0,0.0,0.75,0.5
5,2022,20118,Eggleston Ave & 92nd St,41.78661516666666,-87.697368,6,3,9,7,15,10,14,0.43,0.21,0.64,0.5,1.07,0.71
5,2022,404,Pulaski Rd & 60th St,41.78,-87.72,6,6,0,0,6,6,10,0.6,0.6,0.0,0.0,0.6,0.6
5,2022,843,Ashland Ave & 45th St,41.81,-87.66,4,4,0,0,4,4,5,0.8,0.8,0.0,0.0,0.8,0.8
5,2022,651,Michigan Ave & 71st St,41.765286,-87.621748,4,4,5,1,9,5,11,0.36,0.36,0.45,0.09,0.82,0.45
5,2022,845,Ashland Ave & 45th St - midblock south,41.81,-87.66,2,4,0,0,2,4,4,0.5,1.0,0.0,0.0,0.5,1.0
5,2022,20107,Walden Pkwy & 100th St,41.71216410359803,-87.66773343086243,19,14,21,15,40,29,23,0.83,0.61,0.91,0.65,1.74,1.26
5,2022,574,Vernon Ave & 79th St,41.75094,-87.61379,5,4,8,2,13,6,14,0.36,0.29,0.57,0.14,0.93,0.43
5,2022,497,Lowell Ave & Elston Ave,41.97,-87.74,25,31,0,0,25,31,20,1.25,1.55,0.0,0.0,1.25,1.55
5,2022,524,Central Park Ave & Fillmore St,41.87,-87.71,1,1,0,0,1,1,1,1.0,1.0,0.0,0.0,1.0,1.0
5,2022,697,Longwood Dr & 95th St,41.72,-87.67,1,2,0,0,1,2,2,0.5,1.0,0.0,0.0,0.5,1.0
5,2022,20233,Halsted St & 78th St,41.75248701249013,-87.6439021574879,7,4,24,24,31,28,18,0.39,0.22,1.33,1.33,1.72,1.56
5,2022,543,Cicero Ave & Roscoe St,41.94,-87.75,16,13,5,3,21,16,17,0.94,0.76,0.29,0.18,1.24,0.94
5,2022,417,Troy St & Jackson Blvd,41.88,-87.7,11,8,0,0,11,8,11,1.0,0.73,0.0,0.0,1.0,0.73
5,2022,362.0,Lawndale Ave & 16th St,41.86,-87.72,12,11,0,0,12,11,6,2.0,1.83,0.0,0.0,2.0,1.83
5,2022,537,Kenton Ave & Madison St,41.880686833333336,-87.74102233333333,18,16,3,3,21,19,19,0.95,0.84,0.16,0.16,1.11,1.0
5,2022,545,Linder Ave & Belmont Ave,41.94,-87.76,51,51,0,3,51,54,20,2.55,2.55,0.0,0.15,2.55,2.7
5,2022,714,Western Ave & 79th St,41.75,-87.68,4,2,0,0,4,2,5,0.8,0.4,0.0,0.0,0.8,0.4
5,2022,482,Chase Ave & Touhy Ave - NE,42.01,-87.69,4,3,0,0,4,3,6,0.67,0.5,0.0,0.0,0.67,0.5
5,2022,16950,Ashland Ave & 66th St,41.774074,-87.663815,3,2,3,4,6,6,10,0.3,0.2,0.3,0.4,0.6,0.6
5,2022,704,Honore St & 87th St - SE,41.74,-87.67,1,1,0,0,1,1,1,1.0,1.0,0.0,0.0,1.0,1.0
5,2022,648,Cottage Grove Ave & 91st St,41.73,-87.6,1,1,0,0,1,1,1,1.0,1.0,0.0,0.0,1.0,1.0
5,2022,354,Parkside Ave & Armitage Ave,41.92,-87.77,5,1,0,0,5,1,6,0.83,0.17,0.0,0.0,0.83,0.17
5,2022,20208,Major Taylor Trail & 124th St,41.66869635332246,-87.63711333274841,0,3,10,9,10,12,8,0.0,0.38,1.25,1.12,1.25,1.5
5,2022,16953,Vincennes Ave & 75th St,41.75797,-87.63121,0,0,11,6,11,6,6,0.0,0.0,1.83,1.0,1.83,1.0
5,2022,549,Marshfield Ave & 44th St,41.813996,-87.666589,30,35,15,19,45,54,30,1.0,1.17,0.5,0.63,1.5,1.8
5,2022,386,Rockwell St & 57th St,41.79,-87.69,10,13,0,0,10,13,12,0.83,1.08,0.0,0.0,0.83,1.08
5,2022,342,Kedzie Ave & 45th St,41.81,-87.7,17,15,0,0,17,15,14,1.21,1.07,0.0,0.0,1.21,1.07
5,2022,392,Homan Ave & 65th St,41.78,-87.71,14,16,0,0,14,16,11,1.27,1.45,0.0,0.0,1.27,1.45
5,2022,822,Talman Ave & 51st St - midblock,41.8,-87.69,11,9,0,0,11,9,11,1.0,0.82,0.0,0.0,1.0,0.82
5,2022,20106,Chicago State University,41.71896342165455,-87.60829567909241,6,6,8,7,14,13,14,0.43,0.43,0.57,0.5,1.0,0.93
5,2022,601,Morgan St & 103rd St,41.71,-87.65,2,2,0,0,2,2,2,1.0,1.0,0.0,0.0,1.0,1.0
5,2022,565,Austin Ave & Wrightwood Ave,41.93,-87.78,5,4,0,0,5,4,4,1.25,1.0,0.0,0.0,1.25,1.0
5,2022,805,Neva Ave & Grand Ave,41.92,-87.81,11,11,0,0,11,11,12,0.92,0.92,0.0,0.0,0.92,0.92
5,2022,857,Sawyer Ave & Bryn Mawr Ave - SE,41.98,-87.71,4,4,0,0,4,4,3,1.33,1.33,0.0,0.0,1.33,1.33
5,2022,571,Vernon Ave & 75th St,41.7583505,-87.6141455,9,8,3,3,12,11,11,0.82,0.73,0.27,0.27,1.09,1.0
5,2022,492,Hamlin Ave & Montrose Ave,41.96,-87.72,27,23,0,0,27,23,16,1.69,1.44,0.0,0.0,1.69,1.44
5,2022,318,Oak Park & Wellington,41.93,-87.8,57,56,0,0,57,56,23,2.48,2.43,0.0,0.0,2.48,2.43
5,2022,762,Kenneth Ave & 63rd St,41.78,-87.73,4,2,0,0,4,2,3,1.33,0.67,0.0,0.0,1.33,0.67
