month,year,station_id,station_name,lat,lng,ebike_start,ebike_end,cbike_start,cbike_end,total_start,total_end,active_days,daily_ebike_start,daily_ebike_end,daily_cbike_start,daily_cbike_end,daily_start,daily_end
8,2022,KA1503000075,DuSable Museum,41.79156801058,-87.6078521774,52,53,84,83,136,136,30,1.73,1.77,2.8,2.77,4.53,4.53
8,2022,819,Robert Fulton Elementary School,41.8,-87.67,23,24,0,0,23,24,21,1.1,1.14,0.0,0.0,1.1,1.14
8,2022,13084,California Ave & Milwaukee Ave,41.922695,-87.697153,1013,1006,855,849,1868,1855,31,32.68,32.45,27.58,27.39,60.26,59.84
8,2022,15623,Campbell Ave & Montrose Ave,41.96154883333333,-87.6911825,223,226,231,248,454,474,31,7.19,7.29,7.45,8.0,14.65,15.29
8,2022,13256,California Ave & Division St,41.903029,-87.697474,365,363,304,359,669,722,31,11.77,11.71,9.81,11.58,21.58,23.29
8,2022,751,Kimbark Ave & 67th St,41.77,-87.59,30,34,0,0,30,34,26,1.15,1.31,0.0,0.0,1.15,1.31
8,2022,637,Wood St & Chicago Ave,41.895673333333335,-87.67207516666667,488,482,534,554,1022,1036,31,15.74,15.55,17.23,17.87,32.97,33.42
8,2022,20106,Chicago State University,41.71898733333333,-87.608471,26,28,19,16,45,44,23,1.13,1.22,0.83,0.7,1.96,1.91
8,2022,15634,Western Ave & Roscoe St,41.94306083333333,-87.68735366666667,286,276,242,249,528,525,31,9.23,8.9,7.81,8.03,17.03,16.94
8,2022,KA1504000106,Kedzie Ave & Lake St,41.93619666666667,-87.65366333333333,114,103,43,46,157,149,31,3.68,3.32,1.39,1.48,5.06,4.81
8,2022,361,Kenosha & Wellington,41.93,-87.73,90,76,0,0,90,76,29,3.1,2.62,0.0,0.0,3.1,2.62
8,2022,20222,Burnham Greenway & 105th St,41.70461216666666,-87.52839533333334,5,5,36,41,41,46,22,0.23,0.23,1.64,1.86,1.86,2.09
8,2022,550,Public Rack - Laramie Ave & Grand Ave,41.92,-87.76,9,11,0,0,9,11,13,0.69,0.85,0.0,0.0,0.69,0.85
8,2022,TA1306000002,Morgan Ave & 14th Pl,41.862371,-87.65116516666667,270,267,376,376,646,643,31,8.71,8.61,12.13,12.13,20.84,20.74
8,2022,329.0,Central Park Ave & Douglas Blvd,41.86,-87.72,21,16,0,0,21,16,21,1.0,0.76,0.0,0.0,1.0,0.76
8,2022,320,Orange & Addison,41.94,-87.82,22,22,0,0,22,22,22,1.0,1.0,0.0,0.0,1.0,1.0
8,2022,481,Public Rack - Chase Ave & Touhy Ave - NW,42.01,-87.69,3,3,0,0,3,3,5,0.6,0.6,0.0,0.0,0.6,0.6
8,2022,20109,Vernon Ave & 107th St,41.70012137923888,-87.61225998401642,8,6,13,14,21,20,16,0.5,0.38,0.81,0.88,1.31,1.25
8,2022,TA1309000067,Cottage Grove Ave & 51st St,41.803038,-87.606615,91,82,141,104,232,186,31,2.94,2.65,4.55,3.35,7.48,6.0
8,2022,20214,Avenue O & 134th St,41.65186780228521,-87.53967136144637,3,1,5,6,8,7,8,0.38,0.12,0.62,0.75,1.0,0.88
8,2022,336,La Villita Park (Albany/30th),41.84,-87.7,3,3,0,0,3,3,5,0.6,0.6,0.0,0.0,0.6,0.6
8,2022,691,Western Ave & 105th St,41.7,-87.68,5,7,0,0,5,7,6,0.83,1.17,0.0,0.0,0.83,1.17
8,2022,13341,Canal St & Madison St,41.88246033333333,-87.6397055,897,890,962,971,1859,1861,31,28.94,28.71,31.03,31.32,59.97,60.03
8,2022,13029,Field Museum,41.865312,-87.617867,590,489,608,561,1198,1050,31,19.03,15.77,19.61,18.1,38.65,33.87
8,2022,TA1309000006,Larrabee St & Armitage Ave,41.918084,-87.643749,459,445,736,727,1195,1172,31,14.81,14.35,23.74,23.45,38.55,37.81
8,2022,13017,Franklin St & Chicago Ave,41.896746973093805,-87.63566762208939,1021,972,1159,1014,2180,1986,31,32.94,31.35,37.39,32.71,70.32,64.06
8,2022,15576,Lakefront Trail & Bryn Mawr Ave,41.98396183333333,-87.65233866666667,865,853,1245,1310,2110,2163,32,27.03,26.66,38.91,40.94,65.94,67.59
8,2022,TA1305000006,Dearborn St & Monroe St,41.881319815,-87.6295209193,994,967,1189,1219,2183,2186,31,32.06,31.19,38.35,39.32,70.42,70.52
8,2022,15550,Canal St & Taylor St,41.87015152,-87.639466286,413,407,431,459,844,866,31,13.32,13.13,13.9,14.81,27.23,27.94
8,2022,13221,Wood St & Milwaukee Ave,41.907655,-87.672552,1035,1021,1042,1064,2077,2085,31,33.39,32.94,33.61,34.32,67.0,67.26
8,2022,15642,California Ave & Fletcher St,41.9384335,-87.69799933333333,246,256,223,304,469,560,31,7.94,8.26,7.19,9.81,15.13,18.06
8,2022,13034,Michigan Ave & Pearson St,41.89760716666667,-87.6233045,611,568,786,673,1397,1241,31,19.71,18.32,25.35,21.71,45.06,40.03
8,2022,15443,Shields Ave & 28th Pl,41.84287066666667,-87.63547883333334,157,157,236,210,393,367,31,5.06,5.06,7.61,6.77,12.68,11.84
8,2022,15544,Shedd Aquarium,41.867226,-87.615355,1375,1287,1773,1780,3148,3067,31,44.35,41.52,57.19,57.42,101.55,98.94
8,2022,TA1307000143,Sedgwick St & Schiller St,41.907626,-87.638566,243,235,354,354,597,589,31,7.84,7.58,11.42,11.42,19.26,19.0
8,2022,TA1309000023,Sheffield Ave & Wrightwood Ave,41.9286685,-87.65381683333334,951,940,1348,1348,2299,2288,31,30.68,30.32,43.48,43.48,74.16,73.81
8,2022,657,Wood St & Augusta Blvd,41.8992135,-87.67214433333334,483,482,367,369,850,851,31,15.58,15.55,11.84,11.9,27.42,27.45
8,2022,TA1307000113,Southport Ave & Wrightwood Ave,41.928773,-87.663913,833,829,895,918,1728,1747,32,26.03,25.91,27.97,28.69,54.0,54.59
8,2022,KA1503000069,Dorchester Ave & 49th St,41.805772,-87.592464,95,78,82,43,177,121,31,3.06,2.52,2.65,1.39,5.71,3.9
8,2022,13085,Kedzie Ave & Milwaukee Ave,41.92961783333333,-87.70790916666667,1287,1298,813,894,2100,2192,31,41.52,41.87,26.23,28.84,67.74,70.71
8,2022,15615,Christiana Ave & Lawrence Ave,41.96835449363,-87.7118306675,221,220,103,152,324,372,31,7.13,7.1,3.32,4.9,10.45,12.0
8,2022,13074,Broadway & Wilson - Truman College Vaccination Site,41.965221,-87.658139,868,868,737,729,1605,1597,32,27.12,27.12,23.03,22.78,50.16,49.91
8,2022,13071,Southport Ave & Roscoe St,41.943739,-87.66402,1230,1248,1660,1683,2890,2931,31,39.68,40.26,53.55,54.29,93.23,94.55
8,2022,TA1306000010,Daley Center Plaza,41.884241,-87.629634,676,656,989,990,1665,1646,31,21.81,21.16,31.9,31.94,53.71,53.1
8,2022,TA1309000019,Lakeview Ave & Fullerton Pkwy,41.925858,-87.638973,1407,1407,2031,2052,3438,3459,31,45.39,45.39,65.52,66.19,110.9,111.58
8,2022,20246.0,N Green St & W Lake St,41.89,-87.65,1130,1069,0,0,1130,1069,31,36.45,34.48,0.0,0.0,36.45,34.48
8,2022,644,Western Ave & Fillmore St,41.868568333333336,-87.68625483333334,555,558,363,378,918,936,31,17.9,18.0,11.71,12.19,29.61,30.19
8,2022,13036,Michigan Ave & Madison St,41.882134,-87.625125,631,621,634,685,1265,1306,31,20.35,20.03,20.45,22.1,40.81,42.13
8,2022,KA1503000015,Wabash Ave & Adams St,41.87947235235,-87.6256886059,526,491,653,675,1179,1166,31,16.97,15.84,21.06,21.77,38.03,37.61
8,2022,TA1309000001,Halsted St & Maxwell St,41.86486766666667,-87.64708233333333,614,609,702,722,1316,1331,32,19.19,19.03,21.94,22.56,41.12,41.59
8,2022,TA1307000062,Sedgwick St & Huron St,41.89468433333333,-87.63816033333333,754,619,965,770,1719,1389,31,24.32,19.97,31.13,24.84,55.45,44.81
8,2022,KA1504000104,Paulina St & Flournoy St,41.87295,-87.66913,497,494,602,621,1099,1115,32,15.53,15.44,18.81,19.41,34.34,34.84
8,2022,TA1305000032,Clinton St & Madison St,41.882242,-87.641066,1568,1552,1758,1742,3326,3294,31,50.58,50.06,56.71,56.19,107.29,106.26
8,2022,13224,Ashland Ave & Blackhawk St,41.907044166666665,-87.66721466666667,637,627,732,729,1369,1356,32,19.91,19.59,22.88,22.78,42.78,42.38
8,2022,546,Damen Ave & Pershing Rd,41.823192,-87.676597,55,57,12,17,67,74,30,1.83,1.9,0.4,0.57,2.23,2.47
8,2022,RP-008,Clark St & Columbia Ave,42.004451,-87.672402,227,223,139,141,366,364,31,7.32,7.19,4.48,4.55,11.81,11.74
8,2022,744,Halsted St & 64th St,41.78,-87.64,3,3,0,0,3,3,3,1.0,1.0,0.0,0.0,1.0,1.0
8,2022,13300,DuSable Lake Shore Dr & Monroe St,41.880958,-87.616743,1987,1871,3086,3136,5073,5007,31,64.1,60.35,99.55,101.16,163.65,161.52
8,2022,15631,Troy St & Elston Ave,41.94524356848,-87.7066499009,172,180,162,236,334,416,31,5.55,5.81,5.23,7.61,10.77,13.42
8,2022,525,Glenwood Ave & Touhy Ave,42.012701,-87.666058,103,103,163,157,266,260,31,3.32,3.32,5.26,5.06,8.58,8.39
8,2022,TA1309000063,Lake Park Ave & 56th St,41.793242,-87.587782,215,208,552,565,767,773,31,6.94,6.71,17.81,18.23,24.74,24.94
8,2022,chargingstx1,Bissell St & Armitage Ave*,41.9182955629354,-87.65218332409859,941,1045,1510,1664,2451,2709,31,30.35,33.71,48.71,53.68,79.06,87.39
8,2022,TA1307000126,Sheffield Ave & Waveland Ave,41.94910883333333,-87.65443466666666,1635,1668,1476,1698,3111,3366,31,52.74,53.81,47.61,54.77,100.35,108.58
8,2022,15530,Rush St & Superior St,41.895541,-87.62599516666667,850,822,1098,1016,1948,1838,32,26.56,25.69,34.31,31.75,60.88,57.44
8,2022,443,California Ave & Winona St,41.97,-87.7,92,84,0,0,92,84,28,3.29,3.0,0.0,0.0,3.29,3.0
8,2022,KA1503000007,Cornell Ave & Hyde Park Blvd,41.802532,-87.58648766666667,313,294,716,625,1029,919,31,10.1,9.48,23.1,20.16,33.19,29.65
8,2022,13196,Carpenter St & Huron St,41.894578218,-87.653468609,759,700,675,606,1434,1306,31,24.48,22.58,21.77,19.55,46.26,42.13
8,2022,RP-006,Ridge Blvd & Touhy Ave,42.012132,-87.682913,64,63,42,47,106,110,31,2.06,2.03,1.35,1.52,3.42,3.55
8,2022,TA1307000115,Clybourn Ave & Division St,41.904613,-87.640552,370,344,697,705,1067,1049,31,11.94,11.1,22.48,22.74,34.42,33.84
8,2022,KA1503000059,Lake Park Ave & 53rd St,41.79949429373,-87.5864498959,361,359,605,611,966,970,31,11.65,11.58,19.52,19.71,31.16,31.29
8,2022,585,Cottage Grove Ave & 83rd St,41.7434315,-87.6048285,47,47,18,23,65,70,30,1.57,1.57,0.6,0.77,2.17,2.33
8,2022,TA1308000022,Pine Grove Ave & Irving Park Rd,41.954383,-87.648043,1074,1049,1304,1295,2378,2344,32,33.56,32.78,40.75,40.47,74.31,73.25
8,2022,TA1305000020,Ogden Ave & Chicago Ave,41.896362458,-87.6540612729,843,815,760,788,1603,1603,31,27.19,26.29,24.52,25.42,51.71,51.71
8,2022,TA1309000036,Burling St & Diversey Pkwy,41.93314,-87.64776,879,876,1378,1391,2257,2267,31,28.35,28.26,44.45,44.87,72.81,73.13
8,2022,KA1706005007,Delano Ct & Roosevelt Rd,41.86748583333333,-87.63230016666667,482,478,438,447,920,925,31,15.55,15.42,14.13,14.42,29.68,29.84
8,2022,20205,Western Ave & 111th St,41.691088666666666,-87.681259,33,22,19,20,52,42,25,1.32,0.88,0.76,0.8,2.08,1.68
8,2022,TA1307000158,Damen Ave & Leland Ave,41.967094,-87.679028,422,418,353,355,775,773,32,13.19,13.06,11.03,11.09,24.22,24.16
8,2022,TA1309000066,Ravenswood Ave & Lawrence Ave,41.96909,-87.674237,1320,1311,992,1025,2312,2336,31,42.58,42.29,32.0,33.06,74.58,75.35
8,2022,13294,Greenview Ave & Diversey Pkwy,41.93258963429789,-87.66593635082245,461,449,539,538,1000,987,31,14.87,14.48,17.39,17.35,32.26,31.84
8,2022,chargingstx0,Wilton Ave & Diversey Pkwy*,41.93251133333333,-87.65275316666667,267,250,545,462,812,712,31,8.61,8.06,17.58,14.9,26.19,22.97
8,2022,TA1305000037,Paulina Ave & North Ave,41.91034866666666,-87.6700725,726,726,579,569,1305,1295,31,23.42,23.42,18.68,18.35,42.1,41.77
8,2022,TA1307000121,Halsted St & Polk St,41.87184,-87.64664,972,963,1283,1336,2255,2299,31,31.35,31.06,41.39,43.1,72.74,74.16
8,2022,KA1504000151,Clark St & Bryn Mawr Ave,41.983593,-87.669154,678,678,589,634,1267,1312,31,21.87,21.87,19.0,20.45,40.87,42.32
8,2022,15545,Burnham Harbor,41.85751283333333,-87.61381666666666,369,359,979,1017,1348,1376,31,11.9,11.58,31.58,32.81,43.48,44.39
8,2022,13289,Eckhart Park,41.896400094,-87.660966158,596,592,612,648,1208,1240,31,19.23,19.1,19.74,20.9,38.97,40.0
8,2022,TA1306000032,Sheffield Ave & Willow St,41.913688,-87.652855,588,575,917,948,1505,1523,31,18.97,18.55,29.58,30.58,48.55,49.13
8,2022,636,Orleans St & Hubbard St,41.890028,-87.636618,503,499,620,605,1123,1104,31,16.23,16.1,20.0,19.52,36.23,35.61
8,2022,15682,Kedzie Ave & Roosevelt Rd,41.866552353,-87.70645833,37,37,7,9,44,46,25,1.48,1.48,0.28,0.36,1.76,1.84
8,2022,TA1308000023,Cottage Grove Ave & 43rd St,41.816499,-87.606582,95,92,69,73,164,165,31,3.06,2.97,2.23,2.35,5.29,5.32
8,2022,KA17018068,Leavitt St & Belmont Ave,41.939330816,-87.683228016,406,402,234,258,640,660,31,13.1,12.97,7.55,8.32,20.65,21.29
8,2022,16806,Bosworth Ave & Howard St,42.019537,-87.669563,72,72,71,58,143,130,31,2.32,2.32,2.29,1.87,4.61,4.19
8,2022,KA1504000155,2112 W Peterson Ave,41.99117966666667,-87.68356533333333,109,100,39,36,148,136,31,3.52,3.23,1.26,1.16,4.77,4.39
8,2022,KA1503000043,Kingsbury St & Kinzie St,41.88913466666666,-87.638408,1833,1732,2385,2351,4218,4083,31,59.13,55.87,76.94,75.84,136.06,131.71
8,2022,13193,Larrabee St & Webster Ave,41.921822,-87.64414,1356,1321,1939,1920,3295,3241,31,43.74,42.61,62.55,61.94,106.29,104.55
8,2022,624,Dearborn St & Van Buren St,41.876268,-87.629155,344,330,434,399,778,729,31,11.1,10.65,14.0,12.87,25.1,23.52
8,2022,632,Clark St & Newport St,41.94454,-87.654678,1594,1574,1854,1883,3448,3457,31,51.42,50.77,59.81,60.74,111.23,111.52
8,2022,13075,Wentworth Ave & Cermak Rd,41.85308455741279,-87.63193130493164,575,582,761,841,1336,1423,31,18.55,18.77,24.55,27.13,43.1,45.9
8,2022,TA1307000134,Wilton Ave & Belmont Ave,41.94023966666666,-87.6529715,1780,1777,2091,2092,3871,3869,31,57.42,57.32,67.45,67.48,124.87,124.81
8,2022,KA1503000040,Loomis St & Archer Ave,41.84163253965,-87.6574349533,84,81,109,108,193,189,31,2.71,2.61,3.52,3.48,6.23,6.1
8,2022,13409,Sangamon St & Washington Blvd,41.883165,-87.6511,558,554,683,721,1241,1275,31,18.0,17.87,22.03,23.26,40.03,41.13
8,2022,15571,Broadway & Granville Ave,41.994776,-87.6603125,545,537,524,559,1069,1096,31,17.58,17.32,16.9,18.03,34.48,35.35
8,2022,13235,Southport Ave & Waveland Ave,41.9481245,-87.66416033333333,1187,1177,1398,1423,2585,2600,31,38.29,37.97,45.1,45.9,83.39,83.87
8,2022,13016,St. Clair St & Erie St,41.89406266666667,-87.62289,1579,1543,1776,1720,3355,3263,31,50.94,49.77,57.29,55.48,108.23,105.26
8,2022,TA1308000043,Halsted St & 35th St,41.830661,-87.647172,192,192,190,203,382,395,31,6.19,6.19,6.13,6.55,12.32,12.74
8,2022,KA1504000162,Clark St & Lunt Ave,42.0091095,-87.674286,301,307,174,188,475,495,31,9.71,9.9,5.61,6.06,15.32,15.97
8,2022,13108,Broadway & Argyle St,41.973815,-87.65966,538,530,640,645,1178,1175,31,17.35,17.1,20.65,20.81,38.0,37.9
8,2022,13001,Michigan Ave & Washington St,41.8839840647265,-87.6246839761734,1193,1137,1681,1620,2874,2757,31,38.48,36.68,54.23,52.26,92.71,88.94
8,2022,TA1309000029,Leavitt St & Armitage Ave,41.917805,-87.682437,396,401,412,427,808,828,31,12.77,12.94,13.29,13.77,26.06,26.71
8,2022,13139,Throop St & Taylor St,41.868968,-87.659141,440,431,672,667,1112,1098,32,13.75,13.47,21.0,20.84,34.75,34.31
8,2022,13163,Morgan St & 18th St,41.858086,-87.651073,400,403,371,402,771,805,31,12.9,13.0,11.97,12.97,24.87,25.97
8,2022,13056,Canal St & Monroe St,41.881875038,-87.63961947,660,659,648,634,1308,1293,31,21.29,21.26,20.9,20.45,42.19,41.71
8,2022,TA1305000041,Damen Ave & Pierce Ave,41.9093960065,-87.6776919292,1393,1390,1541,1582,2934,2972,31,44.94,44.84,49.71,51.03,94.65,95.87
8,2022,623,Michigan Ave & 8th St,41.872773,-87.623981,872,764,1290,1092,2162,1856,31,28.13,24.65,41.61,35.23,69.74,59.87
8,2022,15664,Artesian Ave & Hubbard St,41.889492,-87.688219,223,222,192,153,415,375,31,7.19,7.16,6.19,4.94,13.39,12.1
8,2022,13033,Milwaukee Ave & Grand Ave,41.89152633333333,-87.64838,1075,1077,963,961,2038,2038,31,34.68,34.74,31.06,31.0,65.74,65.74
8,2022,TA1306000026,Racine Ave & Fullerton Ave,41.92556258,-87.65840426,799,793,1053,1049,1852,1842,32,24.97,24.78,32.91,32.78,57.88,57.56
8,2022,TA1306000009,Larrabee St & Kingsbury St,41.897764,-87.642884,1172,1154,1074,1093,2246,2247,31,37.81,37.23,34.65,35.26,72.45,72.48
8,2022,TA1308000019,Racine Ave & Belmont Ave,41.939547,-87.65891566666667,984,984,1067,1079,2051,2063,31,31.74,31.74,34.42,34.81,66.16,66.55
8,2022,13304,Racine Ave & 15th St,41.86122683333333,-87.65643766666666,204,209,238,248,442,457,31,6.58,6.74,7.68,8.0,14.26,14.74
8,2022,13257,Campbell Ave & North Ave,41.910535,-87.689556,492,484,408,419,900,903,31,15.87,15.61,13.16,13.52,29.03,29.13
8,2022,515,Paulina St & Howard St,42.019159,-87.673573,202,203,172,186,374,389,31,6.52,6.55,5.55,6.0,12.06,12.55
8,2022,528,Pulaski Rd & Lake St,41.88546983333333,-87.7266485,22,24,9,10,31,34,24,0.92,1.0,0.38,0.42,1.29,1.42
8,2022,13042,Michigan Ave & Oak St,41.90096,-87.623777,2290,2218,3454,3407,5744,5625,31,73.87,71.55,111.42,109.9,185.29,181.45
8,2022,Hubbard Bike-checking (LBS-WH-TEST),Base - 2132 W Hubbard Warehouse,41.71619153,-87.637313366,413,29,2,12,415,41,31,13.32,0.94,0.06,0.39,13.39,1.32
8,2022,13063,Sheridan Rd & Irving Park Rd,41.954354333333335,-87.6544585,1218,1213,1446,1401,2664,2614,32,38.06,37.91,45.19,43.78,83.25,81.69
8,2022,13137,Broadway & Barry Ave,41.93758231600629,-87.6440978050232,1943,1927,2542,2606,4485,4533,32,60.72,60.22,79.44,81.44,140.16,141.66
8,2022,TA1306000029,McClurg Ct & Ohio St,41.892592,-87.617289,1322,1289,1677,1679,2999,2968,32,41.31,40.28,52.41,52.47,93.72,92.75
8,2022,13285,Wood St & Taylor St (Temp),41.869251966,-87.673741221,367,396,487,512,854,908,31,11.84,12.77,15.71,16.52,27.55,29.29
8,2022,13431,Adler Planetarium,41.866095,-87.607267,948,868,1324,1238,2272,2106,31,30.58,28.0,42.71,39.94,73.29,67.94
8,2022,TA1308000029,Stetson Ave & South Water St,41.88654583333334,-87.62162383333333,818,796,709,665,1527,1461,31,26.39,25.68,22.87,21.45,49.26,47.13
8,2022,655,Hoyne Ave & Balmoral Ave,41.980029464,-87.681919456,185,188,96,119,281,307,31,5.97,6.06,3.1,3.84,9.06,9.9
8,2022,TA1306000016,Sheffield Ave & Fullerton Ave,41.9255735,-87.65368916666667,1284,1269,1627,1636,2911,2905,31,41.42,40.94,52.48,52.77,93.9,93.71
8,2022,20104,State St & 95th St,41.7218499,-87.6228544,67,68,37,29,104,97,30,2.23,2.27,1.23,0.97,3.47,3.23
8,2022,TA1305000034,Honore St & Division St,41.903136,-87.67374233333334,824,824,848,857,1672,1681,32,25.75,25.75,26.5,26.78,52.25,52.53
8,2022,15529,Mies van der Rohe Way & Chestnut St,41.8985866514,-87.6219152258,887,875,1125,1105,2012,1980,31,28.61,28.23,36.29,35.65,64.9,63.87
8,2022,13319,Ashland Ave & Grace St,41.950687,-87.6687,547,528,596,561,1143,1089,31,17.65,17.03,19.23,18.1,36.87,35.13
8,2022,13296,Ashland Ave & Wrightwood Ave,41.92887116666667,-87.66857283333333,426,416,503,497,929,913,31,13.74,13.42,16.23,16.03,29.97,29.45
8,2022,TA1307000070,Damen Ave & Thomas St (Augusta Blvd),41.901315,-87.677409,497,398,600,412,1097,810,31,16.03,12.84,19.35,13.29,35.39,26.13
8,2022,TA1307000159,Paulina St & 18th St,41.85793083333333,-87.66884216666666,392,372,325,334,717,706,31,12.65,12.0,10.48,10.77,23.13,22.77
8,2022,435,Rockwell St & Fletcher St,41.94,-87.69,302,285,0,0,302,285,31,9.74,9.19,0.0,0.0,9.74,9.19
8,2022,TA1307000139,MLK Jr Dr & 29th St,41.842009,-87.61686883333333,527,515,576,573,1103,1088,32,16.47,16.09,18.0,17.91,34.47,34.0
8,2022,TA1307000127,Clark St & Grace St,41.951003666666665,-87.65920683333333,1002,1005,975,1002,1977,2007,32,31.31,31.41,30.47,31.31,61.78,62.72
8,2022,13191,Sedgwick St & Webster Ave,41.922167,-87.638888,809,796,1213,1215,2022,2011,31,26.1,25.68,39.13,39.19,65.23,64.87
8,2022,13128,Clark St & North Ave,41.911974,-87.631942,693,686,1113,1145,1806,1831,31,22.35,22.13,35.9,36.94,58.26,59.06
8,2022,TA1307000107,Sheridan Rd & Montrose Ave,41.96167,-87.65464,1097,1096,1120,1134,2217,2230,31,35.39,35.35,36.13,36.58,71.52,71.94
8,2022,13146,Clark St & Armitage Ave,41.918306,-87.636282,1736,1710,2268,2288,4004,3998,31,56.0,55.16,73.16,73.81,129.16,128.97
8,2022,600,Dodge Ave & Church St,42.048308,-87.698224,80,73,51,55,131,128,31,2.58,2.35,1.65,1.77,4.23,4.13
8,2022,TA1307000136,Clark St & Wellington Ave,41.936497,-87.647539,1021,1007,1442,1456,2463,2463,31,32.94,32.48,46.52,46.97,79.45,79.45
8,2022,TA1309000025,Halsted St & Roscoe St,41.94367,-87.64895,1541,1515,1450,1460,2991,2975,32,48.16,47.34,45.31,45.62,93.47,92.97
8,2022,18067,Walsh Park,41.91461,-87.667968,361,340,564,561,925,901,31,11.65,10.97,18.19,18.1,29.84,29.06
8,2022,KA1504000139,Monticello Ave & Irving Park Rd,41.953996539,-87.719114065,149,153,89,97,238,250,31,4.81,4.94,2.87,3.13,7.68,8.06
8,2022,KA1503000044,Rush St & Hubbard St,41.8901935,-87.62623516666666,637,607,703,681,1340,1288,31,20.55,19.58,22.68,21.97,43.23,41.55
8,2022,13157,Aberdeen St & Jackson Blvd,41.87772613,-87.65478743,784,746,900,876,1684,1622,31,25.29,24.06,29.03,28.26,54.32,52.32
8,2022,TA1308000009,Shore Dr & 55th St,41.7951605,-87.58103616666666,523,514,989,996,1512,1510,31,16.87,16.58,31.9,32.13,48.77,48.71
8,2022,TA1308000047,Southport Ave & Clark St,41.957081,-87.664199,157,141,253,254,410,395,31,5.06,4.55,8.16,8.19,13.23,12.74
8,2022,13229,Southport Ave & Belmont Ave,41.939421892,-87.663703561,872,865,1053,1056,1925,1921,31,28.13,27.9,33.97,34.06,62.1,61.97
8,2022,TA1308000021,Winthrop Ave & Lawrence Ave,41.968812,-87.657659,451,454,516,500,967,954,31,14.55,14.65,16.65,16.13,31.19,30.77
8,2022,TA1307000128,Dearborn Pkwy & Delaware Pl,41.898945,-87.62996416666667,1158,1120,1716,1681,2874,2801,31,37.35,36.13,55.35,54.23,92.71,90.35
8,2022,KA1504000090,St. Louis Ave & Fullerton Ave,41.92479133333333,-87.71447483333333,241,250,220,253,461,503,31,7.77,8.06,7.1,8.16,14.87,16.23
8,2022,643,Smith Park,41.891943216,-87.689395547,211,207,114,121,325,328,31,6.81,6.68,3.68,3.9,10.48,10.58
8,2022,13058,Dayton St & North Ave,41.9105780349,-87.6494219288,850,827,899,787,1749,1614,31,27.42,26.68,29.0,25.39,56.42,52.06
8,2022,13354,Ashland Ave & 13th St,41.865234,-87.666507,242,231,280,301,522,532,31,7.81,7.45,9.03,9.71,16.84,17.16
8,2022,chargingstx3,Green St & Randolph St*,41.883723833333335,-87.64840966666667,884,946,927,933,1811,1879,31,28.52,30.52,29.9,30.1,58.42,60.61
8,2022,520,Greenview Ave & Jarvis Ave,42.0159925,-87.668616,288,291,268,276,556,567,31,9.29,9.39,8.65,8.9,17.94,18.29
8,2022,13179,Clark St & Lincoln Ave,41.915689,-87.6346,1645,1634,2549,2562,4194,4196,31,53.06,52.71,82.23,82.65,135.29,135.35
8,2022,TA1307000124,Michigan Ave & 14th St,41.864059,-87.623727,709,698,885,889,1594,1587,31,22.87,22.52,28.55,28.68,51.42,51.19
8,2022,KA1504000143,Leavitt St & Addison St,41.94653916666667,-87.68339183333333,238,233,226,252,464,485,31,7.68,7.52,7.29,8.13,14.97,15.65
8,2022,WL-012,Clinton St & Washington Blvd,41.8834535,-87.64112383333334,1517,1472,1469,1452,2986,2924,31,48.94,47.48,47.39,46.84,96.32,94.32
8,2022,17660,California Ave & Cortez St,41.90034683333333,-87.69679466666666,560,559,351,404,911,963,31,18.06,18.03,11.32,13.03,29.39,31.06
8,2022,SL-009,Clark St & 9th St (AMLI),41.870790243,-87.631122828,350,339,466,443,816,782,31,11.29,10.94,15.03,14.29,26.32,25.23
8,2022,TA1309000021,Paulina St & Montrose Ave,41.961507,-87.671387,312,308,314,293,626,601,31,10.06,9.94,10.13,9.45,20.19,19.39
8,2022,13269,Ashland Ave & Wellington Ave,41.93605866666667,-87.6699425,390,399,538,540,928,939,31,12.58,12.87,17.35,17.42,29.94,30.29
8,2022,TA1305000003,Fairbanks Ct & Grand Ave,41.89184737210993,-87.62058019638062,1069,1057,1491,1405,2560,2462,31,34.48,34.1,48.1,45.32,82.58,79.42
8,2022,TA1306000006,Orleans St & Elm St,41.902924,-87.637715,326,324,490,429,816,753,31,10.52,10.45,15.81,13.84,26.32,24.29
8,2022,13290,Noble St & Milwaukee Ave,41.90068,-87.6626,462,448,584,598,1046,1046,31,14.9,14.45,18.84,19.29,33.74,33.74
8,2022,334.0,Lawndale Ave & 30th St,41.84,-87.72,42,45,0,0,42,45,30,1.4,1.5,0.0,0.0,1.4,1.5
8,2022,TA1306000003,Desplaines St & Kinzie St,41.888716036,-87.6444478533,1215,1205,1437,1423,2652,2628,31,39.19,38.87,46.35,45.9,85.55,84.77
8,2022,620,Orleans St & Chestnut St (NEXT Apts),41.898203,-87.637536,546,523,673,611,1219,1134,31,17.61,16.87,21.71,19.71,39.32,36.58
8,2022,446,Francisco Ave & Montrose Ave,41.96,-87.7,200,179,0,0,200,179,31,6.45,5.77,0.0,0.0,6.45,5.77
8,2022,452,Richmond St & Lincoln Ave,41.99,-87.7,16,18,0,0,16,18,15,1.07,1.2,0.0,0.0,1.07,1.2
8,2022,464,Western Ave & Ardmore Ave,41.99,-87.69,35,35,0,0,35,35,26,1.35,1.35,0.0,0.0,1.35,1.35
8,2022,TA1307000149,Ravenswood Ave & Irving Park Rd,41.9546045,-87.67388616666666,457,448,417,442,874,890,31,14.74,14.45,13.45,14.26,28.19,28.71
8,2022,596,Benson Ave & Church St,42.048214,-87.683485,440,442,328,354,768,796,31,14.19,14.26,10.58,11.42,24.77,25.68
8,2022,TA1309000024,Clark St & Schiller St,41.907993,-87.631501,1121,1110,1520,1503,2641,2613,30,37.37,37.0,50.67,50.1,88.03,87.1
8,2022,TA1309000041,Sheridan Rd & Lawrence Ave,41.969517,-87.654691,545,537,496,488,1041,1025,32,17.03,16.78,15.5,15.25,32.53,32.03
8,2022,KA1504000129,Western Ave & Granville Ave,41.99415583333333,-87.68952616666667,99,99,73,102,172,201,31,3.19,3.19,2.35,3.29,5.55,6.48
8,2022,TA1307000144,Wolcott (Ravenswood) Ave & Montrose Ave,41.96154283333333,-87.67634066666666,423,407,402,392,825,799,31,13.65,13.13,12.97,12.65,26.61,25.77
8,2022,15445,Wentworth Ave & 33rd St,41.83452988563,-87.6318229814,163,159,236,242,399,401,31,5.26,5.13,7.61,7.81,12.87,12.94
8,2022,20123,Western Ave & 104th St,41.70458710218908,-87.68120348453522,32,26,27,12,59,38,28,1.14,0.93,0.96,0.43,2.11,1.36
8,2022,TA1307000005,Indiana Ave & 26th St,41.845686316,-87.622544646,211,208,178,177,389,385,31,6.81,6.71,5.74,5.71,12.55,12.42
8,2022,13249,Ashland Ave & Belle Plaine Ave,41.956057,-87.668835,309,302,227,234,536,536,31,9.97,9.74,7.32,7.55,17.29,17.29
8,2022,20108,Hale Ave & 107th St,41.699217833333336,-87.66887233333334,20,19,10,17,30,36,29,0.69,0.66,0.34,0.59,1.03,1.24
8,2022,13138,Canal St & Jackson Blvd,41.876924,-87.6396995,702,702,691,668,1393,1370,31,22.65,22.65,22.29,21.55,44.94,44.19
8,2022,KA1504000148,Clark St & Elmdale Ave,41.99084916666666,-87.6697425,279,271,236,262,515,533,31,9.0,8.74,7.61,8.45,16.61,17.19
8,2022,RP-001,Warren Park West,42.001785,-87.688829,86,79,67,75,153,154,31,2.77,2.55,2.16,2.42,4.94,4.97
8,2022,13263,Columbus Dr & Randolph St,41.8846385,-87.61940666666666,1116,1053,1118,886,2234,1939,31,36.0,33.97,36.06,28.58,72.06,62.55
8,2022,E002,Chicago Ave & Washington St,42.032562,-87.679101,290,285,178,179,468,464,31,9.35,9.19,5.74,5.77,15.1,14.97
8,2022,202480.0,Hampden Ct & Diversey Ave,41.93,-87.64,650,626,0,0,650,626,31,20.97,20.19,0.0,0.0,20.97,20.19
8,2022,13303,Clark St & Chicago Ave,41.89675,-87.63089,681,652,906,797,1587,1449,31,21.97,21.03,29.23,25.71,51.19,46.74
8,2022,KA1504000114,Kedzie Ave & Chicago Ave,41.89546530305,-87.7061278837,70,68,63,80,133,148,31,2.26,2.19,2.03,2.58,4.29,4.77
8,2022,13216,State St & 33rd St,41.834761,-87.62583216666667,669,662,1051,1076,1720,1738,31,21.58,21.35,33.9,34.71,55.48,56.06
8,2022,445,Western Ave & Gunnison St,41.97,-87.69,139,115,0,0,139,115,31,4.48,3.71,0.0,0.0,4.48,3.71
8,2022,15655,Albany Ave & Bloomingdale Ave,41.91402671273,-87.705126462,366,351,319,307,685,658,31,11.81,11.32,10.29,9.9,22.1,21.23
8,2022,TA1307000161,Halsted St & 37th St,41.827079535,-87.645742297,21,20,28,34,49,54,30,0.7,0.67,0.93,1.13,1.63,1.8
8,2022,13259,California Ave & Francis Pl (Temp),41.91863516666667,-87.69740966666667,416,423,291,285,707,708,31,13.42,13.65,9.39,9.19,22.81,22.84
8,2022,TA1309000050,Lincoln Ave & Addison St,41.94626633333333,-87.67330316666667,233,230,301,305,534,535,31,7.52,7.42,9.71,9.84,17.23,17.26
8,2022,TA1308000005,Leavitt St & North Ave,41.91050936666395,-87.6823890209198,441,432,498,478,939,910,31,14.23,13.94,16.06,15.42,30.29,29.35
8,2022,510,Public Rack - Spaulding Ave & North Ave,41.91,-87.71,91,88,0,0,91,88,31,2.94,2.84,0.0,0.0,2.94,2.84
8,2022,KA1504000096,Sawyer Ave & Irving Park Rd,41.953670979,-87.709350228,73,73,63,74,136,147,31,2.35,2.35,2.03,2.39,4.39,4.74
8,2022,021320,MTV Hubbard St,41.89,-87.68,101,103,0,0,101,103,31,3.26,3.32,0.0,0.0,3.26,3.32
8,2022,TA1307000001,Greenview Ave & Fullerton Ave,41.92543633333333,-87.665891,823,812,1004,1062,1827,1874,32,25.72,25.38,31.38,33.19,57.09,58.56
8,2022,13011,Canal St & Adams St,41.879255,-87.639904,1207,1140,1357,1157,2564,2297,31,38.94,36.77,43.77,37.32,82.71,74.1
8,2022,15651,Humboldt Blvd & Armitage Ave,41.91751339399,-87.7018089555,427,422,338,350,765,772,31,13.77,13.61,10.9,11.29,24.68,24.9
8,2022,TA1309000027,Sheridan Rd & Buena Ave,41.958494,-87.654966,715,716,648,647,1363,1363,31,23.06,23.1,20.9,20.87,43.97,43.97
8,2022,18058,Leavitt St & Chicago Ave,41.895501,-87.682017,355,354,284,287,639,641,31,11.45,11.42,9.16,9.26,20.61,20.68
8,2022,13325,Broadway & Waveland Ave,41.94906533333333,-87.64858216666667,1494,1476,1744,1737,3238,3213,32,46.69,46.12,54.5,54.28,101.19,100.41
8,2022,TA1309000007,Franklin St & Monroe St,41.880317,-87.635185,1040,1034,1049,1025,2089,2059,31,33.55,33.35,33.84,33.06,67.39,66.42
8,2022,TA1309000002,Michigan Ave & Jackson Blvd,41.87785,-87.62408,658,616,966,918,1624,1534,31,21.23,19.87,31.16,29.61,52.39,49.48
8,2022,13266,Stave St & Armitage Ave,41.917745113,-87.691419005,396,395,300,299,696,694,31,12.77,12.74,9.68,9.65,22.45,22.39
8,2022,TA1305000029,State St & Randolph St,41.884621,-87.627834,997,1002,1353,1334,2350,2336,31,32.16,32.32,43.65,43.03,75.81,75.35
8,2022,TA1307000064,Lincoln Ave & Diversey Pkwy,41.932225,-87.658617,1015,1003,1072,1077,2087,2080,31,32.74,32.35,34.58,34.74,67.32,67.1
8,2022,13008,Millennium Park,41.881032,-87.624084,1966,1914,2551,2513,4517,4427,31,63.42,61.74,82.29,81.06,145.71,142.81
8,2022,TA1308000001,Theater on the Lake,41.926277,-87.630834,1676,1575,3581,3550,5257,5125,31,54.06,50.81,115.52,114.52,169.58,165.32
8,2022,TA1307000150,Pine Grove Ave & Waveland Ave,41.94947274088333,-87.64645278453827,1266,1221,1899,1733,3165,2954,32,39.56,38.16,59.34,54.16,98.91,92.31
8,2022,TA1307000061,State St & Pearson St,41.897448,-87.628722,486,466,554,474,1040,940,31,15.68,15.03,17.87,15.29,33.55,30.32
8,2022,13136,Damen Ave & Division St,41.903266,-87.678435,644,629,609,602,1253,1231,31,20.77,20.29,19.65,19.42,40.42,39.71
8,2022,KA1503000034,LaSalle St & Adams St,41.87982866666667,-87.631982,269,250,272,274,541,524,31,8.68,8.06,8.77,8.84,17.45,16.9
8,2022,TA1308000050,Wells St & Concord Ln,41.91189666666666,-87.63485016666667,2416,2330,2920,2940,5336,5270,31,77.94,75.16,94.19,94.84,172.13,170.0
8,2022,13059,Sheridan Rd & Argyle St,41.97328682025979,-87.65475958585739,496,495,456,460,952,955,31,16.0,15.97,14.71,14.84,30.71,30.81
8,2022,15686,Kedzie Ave & 21st St,41.979464,-87.6930175,69,56,22,26,91,82,31,2.23,1.81,0.71,0.84,2.94,2.65
8,2022,13245,Claremont Ave & Hirsch St,41.907768607,-87.685896635,197,196,221,233,418,429,31,6.35,6.32,7.13,7.52,13.48,13.84
8,2022,KA1504000103,Western Ave & Walton St,41.89842,-87.68657183333333,592,579,498,485,1090,1064,31,19.1,18.68,16.06,15.65,35.16,34.32
8,2022,TA1309000014,Clark St & Leland Ave,41.96705642894563,-87.6669904589653,573,564,711,729,1284,1293,32,17.91,17.62,22.22,22.78,40.12,40.41
8,2022,RP-002,Warren Park East,42.00452966666667,-87.68059483333333,82,72,35,41,117,113,30,2.73,2.4,1.17,1.37,3.9,3.77
8,2022,KA1504000097,Drake Ave & Montrose Ave,41.96115407569,-87.7165690733,96,95,79,90,175,185,31,3.1,3.06,2.55,2.9,5.65,5.97
8,2022,13155,Racine Ave & Randolph St,41.884069,-87.656853,387,338,469,417,856,755,31,12.48,10.9,15.13,13.45,27.61,24.35
8,2022,20204,Kedzie Ave & 110th St,41.69239474587557,-87.70096063613892,13,15,7,6,20,21,20,0.65,0.75,0.35,0.3,1.0,1.05
8,2022,RP-009,Sheridan Rd & Loyola Ave,42.00114833333333,-87.66123183333333,349,348,385,388,734,736,31,11.26,11.23,12.42,12.52,23.68,23.74
8,2022,TA1307000039,Clark St & Elm St,41.90294216666667,-87.6316055,1991,1965,2780,2776,4771,4741,31,64.23,63.39,89.68,89.55,153.9,152.94
8,2022,13081,Ogden Ave & Congress Pkwy,41.875013113,-87.673180461,198,197,230,237,428,434,31,6.39,6.35,7.42,7.65,13.81,14.0
8,2022,TA1309000010,Wabash Ave & 9th St,41.870769,-87.625734,735,692,901,857,1636,1549,32,22.97,21.62,28.16,26.78,51.12,48.41
8,2022,13089,Damen Ave & Cullerton St,41.854954,-87.675539,293,291,170,205,463,496,32,9.16,9.09,5.31,6.41,14.47,15.5
8,2022,WL-008,Clinton St & Roosevelt Rd,41.8671177825,-87.6410879593,585,583,577,619,1162,1202,31,18.87,18.81,18.61,19.97,37.48,38.77
8,2022,TA1307000140,Western Ave & Leland Ave,41.966399801840986,-87.68870428204536,644,653,481,520,1125,1173,31,20.77,21.06,15.52,16.77,36.29,37.84
8,2022,13133,Damen Ave & Cortland St,41.916073918,-87.677277565,875,870,842,865,1717,1735,31,28.23,28.06,27.16,27.9,55.39,55.97
8,2022,TA1307000052,Sheffield Ave & Wellington Ave,41.9362534831413,-87.65266209840775,1226,1245,1520,1547,2746,2792,31,39.55,40.16,49.03,49.9,88.58,90.06
8,2022,RP-004,Oakley Ave & Touhy Ave,42.01231885,-87.688193083,47,45,37,34,84,79,30,1.57,1.5,1.23,1.13,2.8,2.63
8,2022,523,Eastlake Ter & Rogers Ave,42.0208872805206,-87.66505792737007,216,209,158,150,374,359,31,6.97,6.74,5.1,4.84,12.06,11.58
8,2022,18062,Aberdeen St & Randolph St,41.884114,-87.654264,724,732,790,860,1514,1592,31,23.35,23.61,25.48,27.74,48.84,51.35
8,2022,TA1305000030,Clark St & Randolph St,41.884576228,-87.63188991,735,738,1033,1009,1768,1747,31,23.71,23.81,33.32,32.55,57.03,56.35
8,2022,13154,Sheffield Ave & Kingsbury St,41.910522,-87.653106,826,809,1017,1029,1843,1838,31,26.65,26.1,32.81,33.19,59.45,59.29
8,2022,TA1305000022,Orleans St & Merchandise Mart Plaza,41.887925,-87.63724183333333,1030,984,1085,966,2115,1950,32,32.19,30.75,33.91,30.19,66.09,60.94
8,2022,TA1305000009,Clark St & Ida B Wells Dr,41.8759326655,-87.6305845355,321,289,517,439,838,728,31,10.35,9.32,16.68,14.16,27.03,23.48
8,2022,KA1504000135,Wells St & Elm St,41.903222,-87.634324,1838,1754,2363,2214,4201,3968,31,59.29,56.58,76.23,71.42,135.52,128.0
8,2022,15541,Buckingham Fountain,41.876423,-87.620339,519,470,755,671,1274,1141,31,16.74,15.16,24.35,21.65,41.1,36.81
8,2022,KA1503000072,Wacker Dr & Washington St,41.883048534,-87.637572885,588,571,508,478,1096,1049,31,18.97,18.42,16.39,15.42,35.35,33.84
8,2022,KA1503000027,Prairie Ave & 43rd St,41.816706181,-87.619427562,77,75,53,57,130,132,31,2.48,2.42,1.71,1.84,4.19,4.26
8,2022,929,Public Rack - Campbell Ave & Pratt Blvd,42.01,-87.69,7,9,0,0,7,9,11,0.64,0.82,0.0,0.0,0.64,0.82
8,2022,18016,Bernard St & Elston Ave,41.9498585,-87.71394566666666,218,218,80,89,298,307,31,7.03,7.03,2.58,2.87,9.61,9.9
8,2022,KA1503000071,University Ave & 57th St,41.791478,-87.599861,488,496,998,1145,1486,1641,31,15.74,16.0,32.19,36.94,47.94,52.94
8,2022,13258,California Ave & North Ave,41.9104754,-87.6968944,331,326,373,376,704,702,31,10.68,10.52,12.03,12.13,22.71,22.65
8,2022,13109,Broadway & Berwyn Ave,41.978353,-87.659753,591,592,603,611,1194,1203,31,19.06,19.1,19.45,19.71,38.52,38.81
8,2022,KP1705001026,LaSalle Dr & Huron St,41.894877,-87.632326,767,697,995,864,1762,1561,31,24.74,22.48,32.1,27.87,56.84,50.35
8,2022,13197,Elizabeth (May) St & Fulton St,41.886587262,-87.658371329,445,450,360,393,805,843,31,14.35,14.52,11.61,12.68,25.97,27.19
8,2022,TA1307000131,Wabash Ave & Wacker Pl,41.886875,-87.62603,743,733,887,903,1630,1636,31,23.97,23.65,28.61,29.13,52.58,52.77
8,2022,13278,Broadway & Cornelia Ave,41.945522785,-87.646449924,1413,1383,1853,1868,3266,3251,31,45.58,44.61,59.77,60.26,105.35,104.87
8,2022,TA1309000015,Leavitt St & Lawrence Ave,41.968885,-87.684001,250,245,205,212,455,457,31,8.06,7.9,6.61,6.84,14.68,14.74
8,2022,TA1305000011,Michigan Ave & Lake St,41.886024,-87.624117,1157,1149,1536,1556,2693,2705,31,37.32,37.06,49.55,50.19,86.87,87.26
8,2022,13379,Clarendon Ave & Gordon Ter,41.95786652415174,-87.64950513839722,993,964,996,999,1989,1963,31,32.03,31.1,32.13,32.23,64.16,63.32
8,2022,654,Racine Ave & Washington Blvd,41.883073,-87.656952,351,349,431,415,782,764,31,11.32,11.26,13.9,13.39,25.23,24.65
8,2022,639,Lakefront Trail & Wilson Ave,41.965845,-87.645361,549,517,880,877,1429,1394,31,17.71,16.68,28.39,28.29,46.1,44.97
8,2022,13050,State St & Kinzie St,41.888649,-87.62754916666667,962,922,1085,1032,2047,1954,32,30.06,28.81,33.91,32.25,63.97,61.06
8,2022,13217,Calumet Ave & 33rd St,41.8349,-87.61793,341,344,659,662,1000,1006,31,11.0,11.1,21.26,21.35,32.26,32.45
8,2022,13022,Streeter Dr & Grand Ave,41.892278,-87.612043,4098,3917,6429,6416,10527,10333,31,132.19,126.35,207.39,206.97,339.58,333.32
8,2022,331,Halsted St & Clybourn Ave,41.90959516666667,-87.6481625,1292,1274,1634,1560,2926,2834,31,41.68,41.1,52.71,50.32,94.39,91.42
8,2022,897,Homewood Ave & Monterey Ave,41.69,-87.67,10,9,0,0,10,9,12,0.83,0.75,0.0,0.0,0.83,0.75
8,2022,599,Valli Produce - Evanston Plaza,42.039742,-87.699413,59,58,41,41,100,99,30,1.97,1.93,1.37,1.37,3.33,3.3
8,2022,343,Pulaski Rd & 51st St,41.8,-87.72,170,133,0,0,170,133,31,5.48,4.29,0.0,0.0,5.48,4.29
8,2022,18069,Cherry Ave & Blackhawk St,41.907221,-87.655618,209,212,135,199,344,411,31,6.74,6.84,4.35,6.42,11.1,13.26
8,2022,TA1309000043,Southport Ave & Irving Park Rd,41.954177,-87.664358,432,418,641,616,1073,1034,31,13.94,13.48,20.68,19.87,34.61,33.35
8,2022,TA1309000033,Sheffield Ave & Webster Ave,41.92171033333333,-87.65381533333333,996,982,1316,1321,2312,2303,32,31.12,30.69,41.12,41.28,72.25,71.97
8,2022,TA1307000111,Franklin St & Lake St,41.885837,-87.6355,1036,1004,944,936,1980,1940,31,33.42,32.39,30.45,30.19,63.87,62.58
8,2022,KA1504000134,Ritchie Ct & Banks St,41.90683383333333,-87.6260505,747,731,1008,1047,1755,1778,31,24.1,23.58,32.52,33.77,56.61,57.35
8,2022,TA1308000031,Logan Blvd & Elston Ave,41.9294065,-87.68415683333333,485,484,342,414,827,898,31,15.65,15.61,11.03,13.35,26.68,28.97
8,2022,379,Rockwell St & Archer Ave,41.82,-87.69,56,49,0,0,56,49,29,1.93,1.69,0.0,0.0,1.93,1.69
8,2022,490,Public Rack - Kimball Ave & Carmen Ave,41.97,-87.71,8,8,0,0,8,8,10,0.8,0.8,0.0,0.0,0.8,0.8
8,2022,13323,Broadway & Sheridan Rd,41.952833,-87.649993,1066,1044,1233,1139,2299,2183,31,34.39,33.68,39.77,36.74,74.16,70.42
8,2022,TA1308000038,Cottage Grove Ave & Oakwood Blvd,41.822985,-87.6071,82,82,77,86,159,168,31,2.65,2.65,2.48,2.77,5.13,5.42
8,2022,13241,Western Ave & Division St,41.902893,-87.687275,419,371,310,306,729,677,31,13.52,11.97,10.0,9.87,23.52,21.84
8,2022,TA1307000166,Halsted St & Willow St,41.91385266666666,-87.6489235,725,723,798,810,1523,1533,31,23.39,23.32,25.74,26.13,49.13,49.45
8,2022,13432,Wood St & Hubbard St,41.889899,-87.671473,301,274,358,339,659,613,31,9.71,8.84,11.55,10.94,21.26,19.77
8,2022,LP-,Lincoln Park Conservatory,41.92393131136619,-87.63582453131676,627,606,1175,1159,1802,1765,31,20.23,19.55,37.9,37.39,58.13,56.94
8,2022,TA1309000012,Damen Ave & Sunnyside Ave,41.96325,-87.679258,219,214,309,311,528,525,32,6.84,6.69,9.66,9.72,16.5,16.41
8,2022,21544,State St & Chicago Ave,41.89663266666667,-87.628637,1313,1286,1580,1580,2893,2866,31,42.35,41.48,50.97,50.97,93.32,92.45
8,2022,KA1503000022,Clark St & Montrose Ave,41.961571574,-87.666278362,495,481,505,494,1000,975,31,15.97,15.52,16.29,15.94,32.26,31.45
8,2022,KA1503000041,McClurg Ct & Erie St,41.89509666666667,-87.61884683333334,743,723,1132,1122,1875,1845,31,23.97,23.32,36.52,36.19,60.48,59.52
8,2022,RN-,Franklin St & Illinois St,41.89102331025185,-87.63547986745834,917,906,1072,1063,1989,1969,31,29.58,29.23,34.58,34.29,64.16,63.52
8,2022,KA1504000160,Francisco Ave & Foster Ave,41.97563272521,-87.7014194389,174,169,174,187,348,356,31,5.61,5.45,5.61,6.03,11.23,11.48
8,2022,KA1504000082,Kedzie Ave & Harrison St,41.87358716666667,-87.70489616666667,21,19,11,11,32,30,25,0.84,0.76,0.44,0.44,1.28,1.2
8,2022,677,Rockwell & 111th St,41.69,-87.69,3,2,0,0,3,2,3,1.0,0.67,0.0,0.0,1.0,0.67
8,2022,KA1504000147,Winchester (Ravenswood) Ave & Balmoral Ave,41.979762,-87.67753,183,183,107,124,290,307,31,5.9,5.9,3.45,4.0,9.35,9.9
8,2022,KA1503000055,Halsted & 63rd - Kennedy-King Vaccination Site,41.77942166666666,-87.644886,37,31,28,13,65,44,30,1.23,1.03,0.93,0.43,2.17,1.47
8,2022,13143,Damen Ave & Melrose Ave,41.9406,-87.6785,322,324,268,300,590,624,31,10.39,10.45,8.65,9.68,19.03,20.13
8,2022,20254.0,W Armitage Ave & N Sheffield Ave,41.92,-87.65,413,350,0,0,413,350,31,13.32,11.29,0.0,0.0,13.32,11.29
8,2022,429,Francisco Ave & Bloomingdale Ave,41.91,-87.7,176,123,0,0,176,123,31,5.68,3.97,0.0,0.0,5.68,3.97
8,2022,662,Dodge Ave & Mulford St,42.023463,-87.699595,42,41,28,40,70,81,30,1.4,1.37,0.93,1.33,2.33,2.7
8,2022,13162,Halsted St & 21st St,41.85377981072743,-87.6466029882431,128,126,173,191,301,317,31,4.13,4.06,5.58,6.16,9.71,10.23
8,2022,13307,Laflin St & Cullerton St,41.85491457576575,-87.66355991363525,274,269,177,208,451,477,31,8.84,8.68,5.71,6.71,14.55,15.39
8,2022,604,Sheridan Rd & Noyes St (NU),42.058239,-87.677432,223,218,269,264,492,482,31,7.19,7.03,8.68,8.52,15.87,15.55
8,2022,506,Public Rack - Lawndale Ave & Diversey Ave,41.93,-87.72,78,80,0,0,78,80,31,2.52,2.58,0.0,0.0,2.52,2.58
8,2022,15644,Central Park Ave & Elbridge Ave,41.9353995,-87.71688416666667,309,315,141,160,450,475,31,9.97,10.16,4.55,5.16,14.52,15.32
8,2022,382,Kedzie Ave & 48th Pl,41.8,-87.7,231,195,0,0,231,195,31,7.45,6.29,0.0,0.0,7.45,6.29
8,2022,TA1307000130,Morgan St & Polk St,41.871958,-87.65100333333334,735,712,1048,1069,1783,1781,31,23.71,22.97,33.81,34.48,57.52,57.45
8,2022,RP-007,Clark St & Touhy Ave,42.012539833333335,-87.674275,67,70,45,45,112,115,31,2.16,2.26,1.45,1.45,3.61,3.71
8,2022,15621,Albany Ave & Montrose Ave,41.961041,-87.705866,198,200,136,147,334,347,31,6.39,6.45,4.39,4.74,10.77,11.19
8,2022,13268,Damen Ave & Wellington Ave,41.935872436,-87.67844677,397,382,326,353,723,735,31,12.81,12.32,10.52,11.39,23.32,23.71
8,2022,TA1309000008,Franklin St & Adams St (Temp),41.87943409140013,-87.63550400733948,537,522,586,559,1123,1081,31,17.32,16.84,18.9,18.03,36.23,34.87
8,2022,KA1504000079,Larrabee St & Division St,41.90348607004,-87.6433534936,735,690,922,857,1657,1547,31,23.71,22.26,29.74,27.65,53.45,49.9
8,2022,KA1504000159,Sheridan Rd & Greenleaf Ave,42.010587,-87.662412,150,148,181,172,331,320,31,4.84,4.77,5.84,5.55,10.68,10.32
8,2022,660,Sheridan Rd & Columbia Ave,42.0045595,-87.66153483333333,293,293,210,225,503,518,31,9.45,9.45,6.77,7.26,16.23,16.71
8,2022,13353,Ada St & Washington Blvd,41.88283,-87.661206,508,518,549,552,1057,1070,31,16.39,16.71,17.71,17.81,34.1,34.52
8,2022,TA1309000032,Elston Ave & Wabansia Ave,41.9129545,-87.66413683333333,256,253,303,335,559,588,31,8.26,8.16,9.77,10.81,18.03,18.97
8,2022,485,Public Rack - Sacramento Ave & Devon Ave,42.0,-87.7,46,48,0,0,46,48,27,1.7,1.78,0.0,0.0,1.7,1.78
8,2022,20251.0,N Carpenter St & W Lake St,41.89,-87.65,460,390,0,0,460,390,31,14.84,12.58,0.0,0.0,14.84,12.58
8,2022,20244,Halsted St & 73rd St,41.761692286,-87.644117713,14,13,3,1,17,14,16,0.88,0.81,0.19,0.06,1.06,0.88
8,2022,931,Public Rack - Western Ave & Devon Ave,42.0,-87.69,35,35,0,0,35,35,25,1.4,1.4,0.0,0.0,1.4,1.4
8,2022,SL-006,Wells St & 19th St,41.856802,-87.633879,106,107,154,176,260,283,31,3.42,3.45,4.97,5.68,8.39,9.13
8,2022,15632,Talman Ave & Addison St,41.9466358306,-87.694614758,259,259,226,243,485,502,31,8.35,8.35,7.29,7.84,15.65,16.19
8,2022,20253.0,N Paulina St & Lincoln Ave,41.94,-87.67,161,105,0,0,161,105,29,5.55,3.62,0.0,0.0,5.55,3.62
8,2022,18022,Archer (Damen) Ave & 37th St,41.826723666666666,-87.68312183333333,31,32,22,30,53,62,29,1.07,1.1,0.76,1.03,1.83,2.14
8,2022,598,Elmwood Ave & Austin St,42.025755333333336,-87.68408566666666,100,105,68,74,168,179,31,3.23,3.39,2.19,2.39,5.42,5.77
8,2022,13420,MLK Jr Dr & Pershing Rd,41.82456,-87.61677583333334,89,89,86,91,175,180,31,2.87,2.87,2.77,2.94,5.65,5.81
8,2022,KA1504000142,Drake Ave & Addison St,41.947326,-87.717582,127,118,80,73,207,191,31,4.1,3.81,2.58,2.35,6.68,6.16
8,2022,TA1307000164,Woodlawn Ave & 55th St,41.79542283333333,-87.596528,342,328,556,529,898,857,31,11.03,10.58,17.94,17.06,28.97,27.65
8,2022,472,Elston Ave & George St,41.93,-87.69,269,234,0,0,269,234,31,8.68,7.55,0.0,0.0,8.68,7.55
8,2022,SL-007,State St & Harrison St,41.874053,-87.627716,390,352,627,452,1017,804,31,12.58,11.35,20.23,14.58,32.81,25.94
8,2022,13073,Ashland Ave & Lake St,41.88592,-87.66717,357,344,354,311,711,655,31,11.52,11.1,11.42,10.03,22.94,21.13
8,2022,13215,Rhodes Ave & 32nd St,41.836781,-87.61332083333333,268,268,347,351,615,619,31,8.65,8.65,11.19,11.32,19.84,19.97
8,2022,KA1504000158,Oakley Ave & Irving Park Rd,41.95434085219,-87.6860796243,115,119,250,266,365,385,31,3.71,3.84,8.06,8.58,11.77,12.42
8,2022,TA1309000030,Southport Ave & Clybourn Ave,41.92079666666667,-87.6637195,612,610,764,817,1376,1427,31,19.74,19.68,24.65,26.35,44.39,46.03
8,2022,13206,Loomis St & Jackson Blvd,41.877945,-87.662007,278,272,509,482,787,754,31,8.97,8.77,16.42,15.55,25.39,24.32
8,2022,991,Public Rack - Western Ave & 96th St,41.72,-87.68,15,13,0,0,15,13,14,1.07,0.93,0.0,0.0,1.07,0.93
8,2022,KA1504000127,Manor Ave & Leland Ave,41.965776,-87.70076466666667,188,182,113,120,301,302,31,6.06,5.87,3.65,3.87,9.71,9.74
8,2022,13165,Racine Ave & 13th St,41.865054,-87.656959,38,33,65,58,103,91,31,1.23,1.06,2.1,1.87,3.32,2.94
8,2022,TA1309000003,Western Ave & 24th St,41.84847,-87.685109,84,84,42,48,126,132,31,2.71,2.71,1.35,1.55,4.06,4.26
8,2022,661,Evanston Civic Center,42.057044,-87.686554,85,88,89,93,174,181,31,2.74,2.84,2.87,3.0,5.61,5.84
8,2022,KA1503000054,Cottage Grove Ave & 63rd St,41.780531,-87.60597,76,73,90,91,166,164,31,2.45,2.35,2.9,2.94,5.35,5.29
8,2022,13398,Blackstone Ave & Hyde Park Blvd,41.802562,-87.590368,194,190,369,330,563,520,31,6.26,6.13,11.9,10.65,18.16,16.77
8,2022,20128,S Wentworth Ave & W 111th St,41.69,-87.63,1,1,0,0,1,1,2,0.5,0.5,0.0,0.0,0.5,0.5
8,2022,KA1503000065,Woodlawn Ave & Lake Park Ave,41.81409271048,-87.5970051479,91,87,93,98,184,185,31,2.94,2.81,3.0,3.16,5.94,5.97
8,2022,964,Public Rack - Lockwood Ave & Diversey Ave,41.93,-87.76,46,53,0,0,46,53,29,1.59,1.83,0.0,0.0,1.59,1.83
8,2022,458,Washtenaw Ave & Peterson Ave,41.99,-87.7,35,36,0,0,35,36,21,1.67,1.71,0.0,0.0,1.67,1.71
8,2022,13091,Western Ave & 21st St,41.854109,-87.685838,120,120,84,92,204,212,31,3.87,3.87,2.71,2.97,6.58,6.84
8,2022,507,Public Rack - Hamlin Ave & Fullerton Ave,41.92,-87.72,94,97,0,0,94,97,30,3.13,3.23,0.0,0.0,3.13,3.23
8,2022,841,Damen Ave & 47th St,41.81,-87.68,5,5,0,0,5,5,5,1.0,1.0,0.0,0.0,1.0,1.0
8,2022,16918,Austin Blvd & Madison St,41.88029616666667,-87.774541,5,5,18,9,23,14,23,0.22,0.22,0.78,0.39,1.0,0.61
8,2022,15624,Avondale Ave & Irving Park Rd,41.95331166666666,-87.73202033333334,182,178,102,88,284,266,31,5.87,5.74,3.29,2.84,9.16,8.58
8,2022,TA1309000037,Kimbark Ave & 53rd St,41.799568,-87.594747,620,619,1219,1233,1839,1852,31,20.0,19.97,39.32,39.77,59.32,59.74
8,2022,KA1504000130,Maplewood Ave & Peterson Ave,41.99023602867,-87.6933696402,43,42,46,70,89,112,31,1.39,1.35,1.48,2.26,2.87,3.61
8,2022,554,Damen Ave & 51st St,41.80097878,-87.674614906,22,22,9,9,31,31,21,1.05,1.05,0.43,0.43,1.48,1.48
8,2022,SL-005,Indiana Ave & Roosevelt Rd,41.867888,-87.623041,1435,1344,2100,1966,3535,3310,32,44.84,42.0,65.62,61.44,110.47,103.44
8,2022,TA1307000138,Wood St & Webster Ave,41.92105672992757,-87.67279744148254,164,161,126,129,290,290,31,5.29,5.19,4.06,4.16,9.35,9.35
8,2022,15539,Desplaines St & Jackson Blvd,41.8781345,-87.64411516666667,743,734,763,750,1506,1484,31,23.97,23.68,24.61,24.19,48.58,47.87
8,2022,TA1305000025,Franklin St & Jackson Blvd,41.878337,-87.63553416666667,1017,1005,921,981,1938,1986,32,31.78,31.41,28.78,30.66,60.56,62.06
8,2022,20256.0,N Sheffield Ave & W Wellington Ave,41.94,-87.65,288,226,0,0,288,226,31,9.29,7.29,0.0,0.0,9.29,7.29
8,2022,517,Clark St & Jarvis Ave,42.015963,-87.675005,140,136,86,72,226,208,31,4.52,4.39,2.77,2.32,7.29,6.71
8,2022,TA1305000035,State St & Van Buren St,41.877181,-87.627844,439,434,616,593,1055,1027,31,14.16,14.0,19.87,19.13,34.03,33.13
8,2022,20243,Michigan Ave & 114th St,41.68701479467118,-87.62105226516724,5,4,7,12,12,16,20,0.25,0.2,0.35,0.6,0.6,0.8
8,2022,TA1309000053,Cottage Grove Ave & 47th St,41.809855,-87.606755,87,87,150,134,237,221,31,2.81,2.81,4.84,4.32,7.65,7.13
8,2022,E007,Central St & Girard Ave,42.064313,-87.686152,86,87,114,120,200,207,31,2.77,2.81,3.68,3.87,6.45,6.68
8,2022,15622,California Ave & Montrose Ave,41.961068,-87.695439,217,221,246,272,463,493,31,7.0,7.13,7.94,8.77,14.94,15.9
8,2022,425,Rockwell St & Cermak Rd,41.85,-87.69,170,136,0,0,170,136,31,5.48,4.39,0.0,0.0,5.48,4.39
8,2022,20219,Burnham Greenway & 112th St,41.69177385116831,-87.53043115139008,11,10,62,58,73,68,27,0.41,0.37,2.3,2.15,2.7,2.52
8,2022,TA1307000153,Emerald Ave & 28th St,41.843545914,-87.645460129,106,103,293,288,399,391,31,3.42,3.32,9.45,9.29,12.87,12.61
8,2022,KA1503000011,Halsted St & 56th St,41.79292964599,-87.6449900565,12,11,8,9,20,20,21,0.57,0.52,0.38,0.43,0.95,0.95
8,2022,20114,Doty Ave & 111th St,41.69501044938143,-87.59871482849121,13,12,15,12,28,24,22,0.59,0.55,0.68,0.55,1.27,1.09
8,2022,KA1503000074,Museum of Science and Industry,41.791728,-87.583945,196,196,327,289,523,485,31,6.32,6.32,10.55,9.32,16.87,15.65
8,2022,KA1706005015,Kildare Ave & Montrose Ave,41.96108,-87.73569,46,47,64,65,110,112,31,1.48,1.52,2.06,2.1,3.55,3.61
8,2022,KA1503000029,South Shore Dr & 67th St,41.773643,-87.567514,65,53,94,83,159,136,31,2.1,1.71,3.03,2.68,5.13,4.39
8,2022,KA1503000004,Lake Park Ave & 35th St,41.831274,-87.608799,107,101,223,219,330,320,31,3.45,3.26,7.19,7.06,10.65,10.32
8,2022,TA1309000011,Ellis Ave & 58th St,41.788746,-87.601334,237,235,487,585,724,820,31,7.65,7.58,15.71,18.87,23.35,26.45
8,2022,13326,Canal St & Harrison St,41.874255,-87.639573,142,113,221,162,363,275,31,4.58,3.65,7.13,5.23,11.71,8.87
8,2022,TA1305000001,Wabash Ave & Cermak Rd,41.85260272,-87.626606822,245,247,258,287,503,534,31,7.9,7.97,8.32,9.26,16.23,17.23
8,2022,18017,Central Park Ave & Bloomingdale Ave,41.914166,-87.716755,210,208,246,294,456,502,31,6.77,6.71,7.94,9.48,14.71,16.19
8,2022,641,Loomis St & 87th St,41.74,-87.66,21,20,0,0,21,20,22,0.95,0.91,0.0,0.0,0.95,0.91
8,2022,13096,California Ave & 21st St,41.85379016666667,-87.695771,104,103,65,84,169,187,31,3.35,3.32,2.1,2.71,5.45,6.03
8,2022,539,Public Rack - Eli Whitney Public School,41.84,-87.73,11,9,0,0,11,9,13,0.85,0.69,0.0,0.0,0.85,0.69
8,2022,564,Racine Ave & 65th St,41.775375333333336,-87.654292,21,23,6,3,27,26,17,1.24,1.35,0.35,0.18,1.59,1.53
8,2022,20232,Big Marsh Park,41.68588783333333,-87.573705,13,11,8,8,21,19,20,0.65,0.55,0.4,0.4,1.05,0.95
8,2022,16950,Ashland Ave & 66th St,41.774074,-87.663815,6,6,6,4,12,10,12,0.5,0.5,0.5,0.33,1.0,0.83
8,2022,15691,Albany Ave & 26th St,41.84447501366,-87.7020130128,24,36,15,23,39,59,25,0.96,1.44,0.6,0.92,1.56,2.36
8,2022,590,Kilbourn Ave & Irving Park Rd,41.953714,-87.74052866666666,31,26,44,35,75,61,31,1.0,0.84,1.42,1.13,2.42,1.97
8,2022,15645,Richmond St & Diversey Ave,41.93190196886,-87.7011951301,290,286,209,222,499,508,31,9.35,9.23,6.74,7.16,16.1,16.39
8,2022,15491,63rd St Beach,41.78097016666667,-87.57626883333333,10,11,51,55,61,66,28,0.36,0.39,1.82,1.96,2.18,2.36
8,2022,20115,Martin Luther King Dr & 111th St,41.69,-87.61,21,19,0,0,21,19,14,1.5,1.36,0.0,0.0,1.5,1.36
8,2022,594,Western Blvd & 48th Pl,41.805661,-87.683392,27,25,44,29,71,54,31,0.87,0.81,1.42,0.94,2.29,1.74
8,2022,16921,Austin Blvd & Chicago Ave,41.89483583333333,-87.77451083333334,14,13,17,19,31,32,25,0.56,0.52,0.68,0.76,1.24,1.28
8,2022,502,Public Rack - Milwaukee Ave & Addison St,41.95,-87.74,20,23,0,0,20,23,17,1.18,1.35,0.0,0.0,1.18,1.35
8,2022,935,Public Rack - Lorel Ave & Grand Ave,41.92,-87.76,17,18,0,0,17,18,18,0.94,1.0,0.0,0.0,0.94,1.0
8,2022,20131,Cottage Grove Ave & 111th Pl,41.69170975847015,-87.61000156402588,7,4,19,15,26,19,24,0.29,0.17,0.79,0.62,1.08,0.79
8,2022,13253,Lincoln Ave & Waveland Ave,41.948797,-87.675278,303,295,415,439,718,734,31,9.77,9.52,13.39,14.16,23.16,23.68
8,2022,378,Nordica & Medill,41.92,-87.8,13,4,0,0,13,4,10,1.3,0.4,0.0,0.0,1.3,0.4
8,2022,KA1504000168,Western & 28th - Velasquez Institute Vaccination Site,41.841563,-87.68511083333334,29,25,8,15,37,40,25,1.16,1.0,0.32,0.6,1.48,1.6
8,2022,20218,Avenue O & 118th St,41.68100145911039,-87.5379312226869,8,6,19,24,27,30,22,0.36,0.27,0.86,1.09,1.23,1.36
8,2022,KA1504000141,Pulaski Rd & Eddy St (Temp),41.946246333333335,-87.73111166666666,58,63,38,43,96,106,31,1.87,2.03,1.23,1.39,3.1,3.42
8,2022,866,Kostner Ave & Armitage Ave,41.92,-87.74,99,108,0,0,99,108,31,3.19,3.48,0.0,0.0,3.19,3.48
8,2022,13389,Clarendon Ave & Junior Ter,41.961004,-87.649603,1005,1002,920,942,1925,1944,31,32.42,32.32,29.68,30.39,62.1,62.71
8,2022,KA1504000140,Winchester Ave & Elston Ave,41.92401433333333,-87.67643666666666,289,295,269,299,558,594,31,9.32,9.52,8.68,9.65,18.0,19.16
8,2022,426,California & 16th St,41.86,-87.7,9,9,0,0,9,9,12,0.75,0.75,0.0,0.0,0.75,0.75
8,2022,821,Western Blvd & 49th St,41.81,-87.68,43,44,0,0,43,44,24,1.79,1.83,0.0,0.0,1.79,1.83
8,2022,649,Stewart Ave & 63rd St,41.77984216666667,-87.63477866666666,14,14,13,19,27,33,25,0.56,0.56,0.52,0.76,1.08,1.32
8,2022,KA1504000167,Kedzie Ave & Bryn Mawr Ave,41.98222975911517,-87.70888656377792,71,70,78,91,149,161,31,2.29,2.26,2.52,2.94,4.81,5.19
8,2022,20247.0,W Washington Blvd & N Peoria St,41.88,-87.65,144,78,0,0,144,78,30,4.8,2.6,0.0,0.0,4.8,2.6
8,2022,TA1308000002,Greenwood Ave & 47th St,41.809754372,-87.599234343,120,117,186,165,306,282,31,3.87,3.77,6.0,5.32,9.87,9.1
8,2022,E014,Lincolnwood Dr & Central St,42.06480066666666,-87.71536616666667,57,52,35,36,92,88,30,1.9,1.73,1.17,1.2,3.07,2.93
8,2022,428,Milwaukee Ave & Fullerton Ave,41.92,-87.7,526,478,0,0,526,478,31,16.97,15.42,0.0,0.0,16.97,15.42
8,2022,KA1503000031,Cottage Grove Ave & 67th St,41.7737285,-87.60562983333334,21,19,39,33,60,52,27,0.78,0.7,1.44,1.22,2.22,1.93
8,2022,514,Ridge Blvd & Howard St,42.0193295,-87.684475,79,80,59,38,138,118,31,2.55,2.58,1.9,1.23,4.45,3.81
8,2022,20255.0,N Damen Ave & W Chicago Ave,41.9,-87.68,89,52,0,0,89,52,28,3.18,1.86,0.0,0.0,3.18,1.86
8,2022,20113,Dauphin Ave & 103rd St,41.7072503677818,-87.60766267776489,4,0,10,12,14,12,15,0.27,0.0,0.67,0.8,0.93,0.8
8,2022,438,Western Ave & Berteau Ave,41.96,-87.69,131,123,0,0,131,123,31,4.23,3.97,0.0,0.0,4.23,3.97
8,2022,720,Racine Ave & 76th,41.76,-87.66,7,6,0,0,7,6,9,0.78,0.67,0.0,0.0,0.78,0.67
8,2022,932,Public Rack - Jensen Park,41.96,-87.72,37,36,0,0,37,36,24,1.54,1.5,0.0,0.0,1.54,1.5
8,2022,20257.0,N Southport Ave & W Newport Ave,41.94,-87.66,133,150,0,0,133,150,28,4.75,5.36,0.0,0.0,4.75,5.36
8,2022,KA1504000076,Ellis Ave & 55th St,41.79430062054,-87.6014497734,518,519,1045,1032,1563,1551,32,16.19,16.22,32.66,32.25,48.84,48.47
8,2022,16994,Kilbourn Ave & Milwaukee Ave,41.94707089418471,-87.74000823497772,40,37,23,23,63,60,31,1.29,1.19,0.74,0.74,2.03,1.94
8,2022,431,Western Ave & Grace St,41.95,-87.69,244,196,0,0,244,196,31,7.87,6.32,0.0,0.0,7.87,6.32
8,2022,LF-005,DuSable Lake Shore Dr & North Blvd,41.911722,-87.626804,2226,2118,4218,4429,6444,6547,32,69.56,66.19,131.81,138.41,201.38,204.59
8,2022,345,Artesian Ave & 55th St,41.79,-87.69,27,20,0,0,27,20,20,1.35,1.0,0.0,0.0,1.35,1.0
8,2022,TA1309000059,Racine Ave & Wrightwood Ave,41.928887,-87.658971,428,428,639,636,1067,1064,31,13.81,13.81,20.61,20.52,34.42,34.32
8,2022,TA1308000006,Damen Ave & Grand Ave,41.8925275,-87.67677916666666,391,381,318,339,709,720,31,12.61,12.29,10.26,10.94,22.87,23.23
8,2022,579,Phillips Ave & 79th St,41.75182,-87.565211,29,28,34,31,63,59,30,0.97,0.93,1.13,1.03,2.1,1.97
8,2022,15643,Kosciuszko Park,41.930548787,-87.723801613,264,279,164,209,428,488,31,8.52,9.0,5.29,6.74,13.81,15.74
8,2022,491,Public Rack - Kedzie Ave & Argyle St,41.97,-87.71,35,35,0,0,35,35,21,1.67,1.67,0.0,0.0,1.67,1.67
8,2022,KA1503000021,Stony Island Ave & 64th St,41.778881,-87.586647,19,18,44,28,63,46,26,0.73,0.69,1.69,1.08,2.42,1.77
8,2022,930,Public Rack - Washtenaw Ave & Devon Ave,42.0,-87.7,47,47,0,0,47,47,25,1.88,1.88,0.0,0.0,1.88,1.88
8,2022,TA1307000160,Prairie Ave & Garfield Blvd,41.794853,-87.618691,91,76,101,78,192,154,31,2.94,2.45,3.26,2.52,6.19,4.97
8,2022,E011,Dodge Ave & Main St,42.034877,-87.6991905,52,51,19,19,71,70,31,1.68,1.65,0.61,0.61,2.29,2.26
8,2022,15652,Central Park Ave & North Ave,41.90962066666667,-87.71665866666666,143,138,68,79,211,217,31,4.61,4.45,2.19,2.55,6.81,7.0
8,2022,TA1309000055,Emerald Ave & 31st St,41.838198,-87.645143,370,370,520,542,890,912,31,11.94,11.94,16.77,17.48,28.71,29.42
8,2022,TA1307000044,Clinton St & 18th St,41.85780833333333,-87.640807,215,213,209,221,424,434,31,6.94,6.87,6.74,7.13,13.68,14.0
8,2022,E006,Central St Metra,42.063598,-87.69873,93,87,52,52,145,139,31,3.0,2.81,1.68,1.68,4.68,4.48
8,2022,SL-011,Wells St & Polk St,41.87273154226308,-87.63351649045944,644,639,645,664,1289,1303,31,20.77,20.61,20.81,21.42,41.58,42.03
8,2022,TA1307000117,Wabash Ave & Grand Ave,41.891466,-87.626761,1464,1445,1931,1849,3395,3294,31,47.23,46.61,62.29,59.65,109.52,106.26
8,2022,KA1504000156,Clark St & Schreiber Ave,41.99925182186,-87.6713773393,276,276,199,236,475,512,31,8.9,8.9,6.42,7.61,15.32,16.52
8,2022,TA1308000035,Lake Park Ave & 47th St,41.809443,-87.591875,125,119,206,204,331,323,31,4.03,3.84,6.65,6.58,10.68,10.42
8,2022,337,Hoyne Ave & 34th St,41.83,-87.68,22,21,0,0,22,21,22,1.0,0.95,0.0,0.0,1.0,0.95
8,2022,KA1504000164,Keystone Ave & Montrose Ave,41.96103433333333,-87.72894483333333,112,107,47,50,159,157,31,3.61,3.45,1.52,1.61,5.13,5.06
8,2022,TA1305000002,Wabash Ave & Roosevelt Rd,41.867227,-87.625961,1171,1152,1526,1527,2697,2679,31,37.77,37.16,49.23,49.26,87.0,86.42
8,2022,TA1308000046,Morgan St & 31st St,41.837797,-87.6511335,225,225,231,241,456,466,31,7.26,7.26,7.45,7.77,14.71,15.03
8,2022,TA1309000049,DuSable Lake Shore Dr & Belmont Ave,41.940775,-87.639192,1318,1290,1891,1919,3209,3209,31,42.52,41.61,61.0,61.9,103.52,103.52
8,2022,13053,Green St & Washington Blvd,41.88318130597391,-87.64872461557388,456,442,528,561,984,1003,31,14.71,14.26,17.03,18.1,31.74,32.35
8,2022,13292,Kedzie Ave & Palmer Ct,41.92153616666667,-87.70741383333333,347,349,268,289,615,638,31,11.19,11.26,8.65,9.32,19.84,20.58
8,2022,KA1504000146,Clark St & Berwyn Ave,41.97803583333334,-87.668079,900,905,744,785,1644,1690,31,29.03,29.19,24.0,25.32,53.03,54.52
8,2022,TA1306000014,Wilton Ave & Diversey Pkwy,41.932418,-87.652705,1081,1024,1408,1224,2489,2248,31,34.87,33.03,45.42,39.48,80.29,72.52
8,2022,13124,Cannon Dr & Fullerton Ave,41.9267559875,-87.6344287848,334,326,562,565,896,891,31,10.77,10.52,18.13,18.23,28.9,28.74
8,2022,TA1307000151,Wells St & Hubbard St,41.889906,-87.634266,1478,1438,1688,1637,3166,3075,31,47.68,46.39,54.45,52.81,102.13,99.19
8,2022,WL-011,Jefferson St & Monroe St,41.880329633634624,-87.64274597167967,531,526,605,611,1136,1137,31,17.13,16.97,19.52,19.71,36.65,36.68
8,2022,KA1504000078,Lincoln Ave & Winona St,41.97491129677,-87.6925025594,256,269,151,183,407,452,31,8.26,8.68,4.87,5.9,13.13,14.58
8,2022,TA1309000058,Lincoln Ave & Fullerton Ave,41.924246333333336,-87.64637716666667,1483,1469,1870,1883,3353,3352,31,47.84,47.39,60.32,60.74,108.16,108.13
8,2022,13192,Halsted St & Dickens Ave,41.919936,-87.64883,1151,1149,1281,1289,2432,2438,31,37.13,37.06,41.32,41.58,78.45,78.65
8,2022,20.0,Damen Ave & Wabansia Ave,41.91,-87.68,468,398,0,0,468,398,31,15.1,12.84,0.0,0.0,15.1,12.84
8,2022,KA1504000080,Washtenaw Ave & Lawrence Ave,41.968987,-87.696027,249,248,202,210,451,458,31,8.03,8.0,6.52,6.77,14.55,14.77
8,2022,TA1305000005,Dearborn St & Adams St,41.8793563587,-87.6297910363,415,408,587,634,1002,1042,31,13.39,13.16,18.94,20.45,32.32,33.61
8,2022,TA1308000026,Wentworth Ave & 24th St (Temp),41.85005533333333,-87.6320955,102,104,175,197,277,301,31,3.29,3.35,5.65,6.35,8.94,9.71
8,2022,13434,Ashland Ave & Grand Ave,41.8911095,-87.66671366666667,412,405,412,417,824,822,31,13.29,13.06,13.29,13.45,26.58,26.52
8,2022,442,Lincoln Ave & Balmoral Ave,41.98,-87.69,127,106,0,0,127,106,31,4.1,3.42,0.0,0.0,4.1,3.42
8,2022,TA1309000004,LaSalle St & Jackson Blvd,41.878166,-87.631929,809,784,775,782,1584,1566,31,26.1,25.29,25.0,25.23,51.1,50.52
8,2022,364.0,Homan Ave & Fillmore St,41.87,-87.71,12,11,0,0,12,11,10,1.2,1.1,0.0,0.0,1.2,1.1
8,2022,444,N Shore Channel Trail & Argyle St,41.97,-87.7,150,130,0,0,150,130,31,4.84,4.19,0.0,0.0,4.84,4.19
8,2022,352,Sayre & Diversey,41.93,-87.8,44,44,0,0,44,44,28,1.57,1.57,0.0,0.0,1.57,1.57
8,2022,501,Public Rack - Milwaukee Ave & School St,41.94,-87.73,38,38,0,0,38,38,24,1.58,1.58,0.0,0.0,1.58,1.58
8,2022,TA1309000061,Halsted St & Wrightwood Ave,41.929143,-87.649077,1240,1224,1660,1669,2900,2893,32,38.75,38.25,51.88,52.16,90.62,90.41
8,2022,TA1307000142,Clark St & Drummond Pl,41.931248,-87.644336,1204,1180,2171,2150,3375,3330,31,38.84,38.06,70.03,69.35,108.87,107.42
8,2022,13248,Ashland Ave & Augusta Blvd,41.899643,-87.6677,503,485,531,532,1034,1017,31,16.23,15.65,17.13,17.16,33.35,32.81
8,2022,SL-010,Financial Pl & Ida B Wells Dr,41.8750236280333,-87.6330940425396,439,387,705,482,1144,869,31,14.16,12.48,22.74,15.55,36.9,28.03
8,2022,13332,Loomis St & Lexington St,41.872187,-87.661501,1327,1308,1772,1789,3099,3097,32,41.47,40.88,55.38,55.91,96.84,96.78
8,2022,338,California Ave & 36th St,41.83,-87.69,15,11,0,0,15,11,14,1.07,0.79,0.0,0.0,1.07,0.79
8,2022,chargingstx5,Lincoln Ave & Roscoe St*,41.94330883333333,-87.67086616666667,688,823,936,1025,1624,1848,31,22.19,26.55,30.19,33.06,52.39,59.61
8,2022,15535,Desplaines St & Randolph St,41.88461618962,-87.6445705849,723,722,680,682,1403,1404,31,23.32,23.29,21.94,22.0,45.26,45.29
8,2022,KA1503000002,South Shore Dr & 71st St,41.7664094567,-87.5656875719,118,112,160,167,278,279,31,3.81,3.61,5.16,5.39,8.97,9.0
8,2022,15668,Western Ave & Congress Pkwy,41.87469516666667,-87.686356,274,275,279,272,553,547,31,8.84,8.87,9.0,8.77,17.84,17.65
8,2022,13265,Kingsbury St & Erie St,41.89380805624359,-87.64169722795485,1005,984,1132,1128,2137,2112,31,32.42,31.74,36.52,36.39,68.94,68.13
8,2022,15578,Broadway & Ridge Ave,41.98410666666667,-87.6602375,569,555,535,549,1104,1104,31,18.35,17.9,17.26,17.71,35.61,35.61
8,2022,524,Public Rack - Central Park Ave & Fillmore St,41.87,-87.72,5,4,0,0,5,4,7,0.71,0.57,0.0,0.0,0.71,0.57
8,2022,760,Kedzie Ave & 64th St - SW,41.78,-87.7,4,8,0,0,4,8,8,0.5,1.0,0.0,0.0,0.5,1.0
8,2022,800,Harriet E Sayre Public School,41.91,-87.8,4,4,0,0,4,4,8,0.5,0.5,0.0,0.0,0.5,0.5
8,2022,16948,Ashland Ave & 63rd St,41.779374,-87.664843,16,13,9,5,25,18,24,0.67,0.54,0.38,0.21,1.04,0.75
8,2022,351,Mulligan Ave & Wellington Ave,41.93,-87.78,57,41,0,0,57,41,26,2.19,1.58,0.0,0.0,2.19,1.58
8,2022,573,State St & 79th St,41.75074433333333,-87.62445316666667,36,29,63,49,99,78,31,1.16,0.94,2.03,1.58,3.19,2.52
8,2022,832,Christiana Ave & Archer Ave,41.81,-87.71,26,27,0,0,26,27,28,0.93,0.96,0.0,0.0,0.93,0.96
8,2022,595,Wabash Ave & 87th St,41.736652166666666,-87.6226315,51,52,22,18,73,70,30,1.7,1.73,0.73,0.6,2.43,2.33
8,2022,509,Public Rack - Mozart Elementary School,41.92,-87.72,59,61,0,0,59,61,29,2.03,2.1,0.0,0.0,2.03,2.1
8,2022,KA1503000066,Wood St & 35th St,41.830109,-87.670332,68,70,50,49,118,119,31,2.19,2.26,1.61,1.58,3.81,3.84
8,2022,KA1503000001,Shields Ave & 43rd St,41.81620767856,-87.6348193497,19,25,8,22,27,47,26,0.73,0.96,0.31,0.85,1.04,1.81
8,2022,16991,Milwaukee Ave & Cuyler Ave,41.954469085,-87.749630809,68,62,32,33,100,95,30,2.27,2.07,1.07,1.1,3.33,3.17
8,2022,542,Public Rack - Chopin Park,41.94,-87.76,31,29,0,0,31,29,25,1.24,1.16,0.0,0.0,1.24,1.16
8,2022,KA1503000024,Yates Blvd & 75th St,41.758630333333336,-87.56633916666667,11,12,20,19,31,31,27,0.41,0.44,0.74,0.7,1.15,1.15
8,2022,KA1503000018,Jeffery Blvd & 71st St,41.76663823695,-87.5764501141,31,26,40,47,71,73,30,1.03,0.87,1.33,1.57,2.37,2.43
8,2022,20227,Bradley Park,41.717878301935,-87.56459176540375,1,2,2,2,3,4,5,0.2,0.4,0.4,0.4,0.6,0.8
8,2022,810,Nagle Ave & Belmont Ave,41.94,-87.79,23,28,0,0,23,28,24,0.96,1.17,0.0,0.0,0.96,1.17
8,2022,387,St Louis Ave & 59th St,41.79,-87.71,36,41,0,0,36,41,27,1.33,1.52,0.0,0.0,1.33,1.52
8,2022,439,Campbell Ave & Irving Park Rd,41.95,-87.69,63,47,0,0,63,47,30,2.1,1.57,0.0,0.0,2.1,1.57
8,2022,20237,Yates Blvd & 93rd St,41.72615683333333,-87.566404,8,3,1,2,9,5,9,0.89,0.33,0.11,0.22,1.0,0.56
8,2022,504,Public Rack - Milwaukee Ave & Diversey Ave,41.93,-87.71,216,227,0,0,216,227,31,6.97,7.32,0.0,0.0,6.97,7.32
8,2022,583,Stony Island Ave & 82nd St,41.74656816666667,-87.58598716666667,8,7,5,8,13,15,19,0.42,0.37,0.26,0.42,0.68,0.79
8,2022,505,Public Rack - Milwaukee Ave & Haussen Ct,41.94,-87.72,48,45,0,0,48,45,29,1.66,1.55,0.0,0.0,1.66,1.55
8,2022,801,N Narragansett Ave & Grand Ave,41.92,-87.79,17,16,0,0,17,16,16,1.06,1.0,0.0,0.0,1.06,1.0
8,2022,15666,California Ave & Lake St,41.884427547,-87.69633317,95,83,61,34,156,117,31,3.06,2.68,1.97,1.1,5.03,3.77
8,2022,20235,Greenwood Ave & 91st St,41.728264268162725,-87.59729862213135,13,12,11,9,24,21,13,1.0,0.92,0.85,0.69,1.85,1.62
8,2022,360,Kilbourn & Roscoe,41.94,-87.74,87,87,0,0,87,87,30,2.9,2.9,0.0,0.0,2.9,2.9
8,2022,384,Kedzie Ave & 52nd St,41.8,-87.7,27,21,0,0,27,21,21,1.29,1.0,0.0,0.0,1.29,1.0
8,2022,KA1504000113,Sacramento Blvd & Franklin Blvd,41.890578833333336,-87.70280416666667,21,23,23,28,44,51,26,0.81,0.88,0.88,1.08,1.69,1.96
8,2022,20230,Clyde Ave & 87th St,41.73715146431056,-87.57274031639099,10,10,9,7,19,17,18,0.56,0.56,0.5,0.39,1.06,0.94
8,2022,540,Laramie Ave & Madison St,41.880224943,-87.755374789,29,33,19,21,48,54,28,1.04,1.18,0.68,0.75,1.71,1.93
8,2022,377,Bloomingdale Ave & Harlem Ave,41.91,-87.81,24,23,0,0,24,23,20,1.2,1.15,0.0,0.0,1.2,1.15
8,2022,321,Kostner Ave & Wrightwood Ave,41.93,-87.74,46,50,0,0,46,50,31,1.48,1.61,0.0,0.0,1.48,1.61
8,2022,16951,Damen Ave & 74th St,41.75927403933122,-87.67363429069519,0,0,4,5,4,5,3,0.0,0.0,1.33,1.67,1.33,1.67
8,2022,756,Albany Ave & 63rd St,41.78,-87.7,5,9,0,0,5,9,11,0.45,0.82,0.0,0.0,0.45,0.82
8,2022,420,Washtenaw Ave & Polk St,41.87,-87.69,102,97,0,0,102,97,30,3.4,3.23,0.0,0.0,3.4,3.23
8,2022,391,Rockwell St & 63rd St,41.78,-87.69,5,6,0,0,5,6,7,0.71,0.86,0.0,0.0,0.71,0.86
8,2022,KA17018054,Damen Ave & Walnut (Lake) St,41.885951,-87.677009,243,237,136,172,379,409,31,7.84,7.65,4.39,5.55,12.23,13.19
8,2022,KA1503000045,Stony Island Ave & 71st St,41.7664825,-87.5864805,20,20,29,29,49,49,28,0.71,0.71,1.04,1.04,1.75,1.75
8,2022,577,Stony Island Ave & South Chicago Ave,41.751173,-87.585337,6,4,8,6,14,10,20,0.3,0.2,0.4,0.3,0.7,0.5
8,2022,15667,Western Ave & Monroe St,41.8798025,-87.6861365,169,163,179,196,348,359,31,5.45,5.26,5.77,6.32,11.23,11.58
8,2022,20116,Dauphin Ave & 87th St,41.73655902282214,-87.60125756263733,19,9,9,9,28,18,19,1.0,0.47,0.47,0.47,1.47,0.95
8,2022,436,Kedzie Ave & George St,41.93,-87.71,166,119,0,0,166,119,31,5.35,3.84,0.0,0.0,5.35,3.84
8,2022,658,Leavitt St & Division St,41.903011,-87.68372433333333,271,253,336,310,607,563,31,8.74,8.16,10.84,10.0,19.58,18.16
8,2022,TA1308000013,Halsted St & Archer Ave,41.847203,-87.646795,159,156,198,179,357,335,31,5.13,5.03,6.39,5.77,11.52,10.81
8,2022,13271,Damen Ave & Clybourn Ave,41.93185733333333,-87.67779,382,387,325,406,707,793,31,12.32,12.48,10.48,13.1,22.81,25.58
8,2022,665,South Chicago Ave & Elliot Ave,41.747363,-87.580046,11,11,4,1,15,12,15,0.73,0.73,0.27,0.07,1.0,0.8
8,2022,15654,Spaulding Ave & Division St,41.902702833333336,-87.709217,249,244,106,107,355,351,31,8.03,7.87,3.42,3.45,11.45,11.32
8,2022,355,Central Ave & Parker Ave,41.93,-87.77,70,63,0,0,70,63,30,2.33,2.1,0.0,0.0,2.33,2.1
8,2022,20217,Torrence Ave & 126th Pl,41.66631200825726,-87.55721569061278,1,1,11,9,12,10,16,0.06,0.06,0.69,0.56,0.75,0.62
8,2022,569,Woodlawn Ave & 75th St,41.75916,-87.595751,10,10,9,2,19,12,17,0.59,0.59,0.53,0.12,1.12,0.71
8,2022,13099,Halsted St & 18th St,41.85755616666667,-87.645989,291,286,272,252,563,538,31,9.39,9.23,8.77,8.13,18.16,17.35
8,2022,950,Public Rack - Woodlawn Ave & 63rd St - SE,41.78,-87.6,14,16,0,0,14,16,14,1.0,1.14,0.0,0.0,1.0,1.14
8,2022,767,Hyde Park Blvd & 53rd St,41.8,-87.58,31,31,0,0,31,31,21,1.48,1.48,0.0,0.0,1.48,1.48
8,2022,646,State St & 54th St,41.796642,-87.625923,13,8,23,11,36,19,20,0.65,0.4,1.15,0.55,1.8,0.95
8,2022,20229,Baltimore Ave & 87th St,41.737336,-87.548515,9,7,14,8,23,15,20,0.45,0.35,0.7,0.4,1.15,0.75
8,2022,20238,Greenwood Ave & 97th St,41.71875516666667,-87.59699283333333,13,16,3,1,16,17,21,0.62,0.76,0.14,0.05,0.76,0.81
8,2022,20129,Ada St & 113th St,41.687561623357375,-87.65547573566435,3,8,5,5,8,13,12,0.25,0.67,0.42,0.42,0.67,1.08
8,2022,805,Neva Ave & Grand Ave,41.92,-87.8,6,4,0,0,6,4,5,1.2,0.8,0.0,0.0,1.2,0.8
8,2022,634,Oglesby Ave & 95th St,41.72,-87.57,1,1,0,0,1,1,1,1.0,1.0,0.0,0.0,1.0,1.0
8,2022,380,Fairfield Ave & 44th St,41.81,-87.69,18,18,0,0,18,18,15,1.2,1.2,0.0,0.0,1.2,1.2
8,2022,700,Bennett Ave & 96th St,41.72,-87.58,1,1,0,0,1,1,1,1.0,1.0,0.0,0.0,1.0,1.0
8,2022,571,Vernon Ave & 75th St,41.758361,-87.614138,6,10,10,20,16,30,23,0.26,0.43,0.43,0.87,0.7,1.3
8,2022,503,Public Rack - Jonathan Y Scammon Public School,41.94,-87.73,14,16,0,0,14,16,20,0.7,0.8,0.0,0.0,0.7,0.8
8,2022,TA1307000156,Lincoln Ave & Sunnyside Ave,41.963004,-87.684781,457,455,398,404,855,859,31,14.74,14.68,12.84,13.03,27.58,27.71
8,2022,358,Kilpatrick Ave & Parker Ave,41.93,-87.74,82,72,0,0,82,72,29,2.83,2.48,0.0,0.0,2.83,2.48
8,2022,316,Lamon Ave & Belmont Ave,41.94,-87.75,70,65,0,0,70,65,29,2.41,2.24,0.0,0.0,2.41,2.24
8,2022,312,Lockwood Ave & Wrightwood Ave,41.93,-87.76,86,77,0,0,86,77,30,2.87,2.57,0.0,0.0,2.87,2.57
8,2022,15689,California Ave & 23rd Pl,41.84910969176,-87.6951398068,52,47,48,37,100,84,31,1.68,1.52,1.55,1.19,3.23,2.71
8,2022,559,Public Rack - Menard Ave & Dakin St - midblock,41.95,-87.77,19,23,18,12,37,35,25,0.76,0.92,0.72,0.48,1.48,1.4
8,2022,518,Public Rack - Keystone Ave & North Ave,41.91,-87.73,149,141,39,41,188,182,31,4.81,4.55,1.26,1.32,6.06,5.87
8,2022,15692,California Ave & 26th St,41.843659878,-87.694969773,39,30,18,28,57,58,29,1.34,1.03,0.62,0.97,1.97,2.0
8,2022,327,Plainfield & Irving Park,41.95,-87.83,9,6,0,0,9,6,8,1.12,0.75,0.0,0.0,1.12,0.75
8,2022,495,Public Rack - Keystone Ave & Irving Park Rd,41.95,-87.73,53,50,0,0,53,50,30,1.77,1.67,0.0,0.0,1.77,1.67
8,2022,499,Public Rack - Christiana Ave & Belmont Ave,41.94,-87.71,66,74,0,0,66,74,27,2.44,2.74,0.0,0.0,2.44,2.74
8,2022,KA1503000073,MLK Jr Dr & 56th St,41.793429,-87.615853,21,12,45,32,66,44,23,0.91,0.52,1.96,1.39,2.87,1.91
8,2022,512,Public Rack - California Ave & Cortez St,41.9,-87.7,119,132,0,0,119,132,27,4.41,4.89,0.0,0.0,4.41,4.89
8,2022,KA1504000109,Washtenaw Ave & Ogden Ave,41.861963868,-87.693502426,66,65,60,52,126,117,30,2.2,2.17,2.0,1.73,4.2,3.9
8,2022,989,Public Rack - 10557 S Western Ave,41.7,-87.68,1,1,0,0,1,1,2,0.5,0.5,0.0,0.0,0.5,0.5
8,2022,398,Long & Irving Park,41.95,-87.76,137,140,0,0,137,140,31,4.42,4.52,0.0,0.0,4.42,4.52
8,2022,20249.0,N Clark St & W Elm St,41.9,-87.63,26,35,0,0,26,35,21,1.24,1.67,0.0,0.0,1.24,1.67
8,2022,15687,Central Park Ave & 24th St,41.847980499,-87.715915561,38,39,9,24,47,63,29,1.31,1.34,0.31,0.83,1.62,2.17
8,2022,324,Meade Ave & Addison St,41.95,-87.78,22,24,0,0,22,24,18,1.22,1.33,0.0,0.0,1.22,1.33
8,2022,532,Public Rack - Central Park Ave & Ogden Ave,41.85,-87.72,5,6,0,0,5,6,7,0.71,0.86,0.0,0.0,0.71,0.86
8,2022,933,Public Rack - Drake Ave & Leland Ave,41.97,-87.72,9,14,0,0,9,14,16,0.56,0.88,0.0,0.0,0.56,0.88
8,2022,349,Spaulding Ave & 63rd St,41.78,-87.71,25,16,0,0,25,16,21,1.19,0.76,0.0,0.0,1.19,0.76
8,2022,KA150400009X,Kimball Ave & Belmont Ave,41.93942316666666,-87.71151983333333,210,201,153,150,363,351,31,6.77,6.48,4.94,4.84,11.71,11.32
8,2022,393,Oketo Ave & Addison St,41.94,-87.81,21,18,0,0,21,18,16,1.31,1.12,0.0,0.0,1.31,1.12
8,2022,381,Francisco Ave & 47th St,41.81,-87.7,23,29,0,0,23,29,22,1.05,1.32,0.0,0.0,1.05,1.32
8,2022,1019,Public Rack - Kostner Ave & Diversey Ave,41.93,-87.74,16,19,0,0,16,19,16,1.0,1.19,0.0,0.0,1.0,1.19
8,2022,474,Fullerton & Monitor,41.92,-87.77,33,30,0,0,33,30,23,1.43,1.3,0.0,0.0,1.43,1.3
8,2022,492,Public Rack - Hamlin Ave & Montrose Ave,41.96,-87.72,35,37,0,0,35,37,26,1.35,1.42,0.0,0.0,1.35,1.42
8,2022,513,Public Rack - Spaulding Ave & Evergreen Ave,41.91,-87.71,61,61,0,0,61,61,30,2.03,2.03,0.0,0.0,2.03,2.03
8,2022,530,Laramie Ave & Kinzie St,41.88779366666667,-87.75567016666666,24,17,12,6,36,23,24,1.0,0.71,0.5,0.25,1.5,0.96
8,2022,588,South Chicago Ave & 83rd St,41.74403133333333,-87.57517066666666,14,9,6,4,20,13,20,0.7,0.45,0.3,0.2,1.0,0.65
8,2022,582,Phillips Ave & 83rd St,41.744531,-87.56506,5,6,13,12,18,18,17,0.29,0.35,0.76,0.71,1.06,1.06
8,2022,1011,Public Rack - Fullerton Ave & Narragansett Ave,41.92,-87.79,27,29,0,0,27,29,22,1.23,1.32,0.0,0.0,1.23,1.32
8,2022,860,Public Rack - Christiana Ave & Lawrence Ave,41.97,-87.71,32,38,0,0,32,38,24,1.33,1.58,0.0,0.0,1.33,1.58
8,2022,357,Lamon Ave & Armitage Ave,41.92,-87.75,41,34,0,0,41,34,29,1.41,1.17,0.0,0.0,1.41,1.17
8,2022,823,Kedzie Ave & 54th St - SE,41.79,-87.7,12,14,0,0,12,14,14,0.86,1.0,0.0,0.0,0.86,1.0
8,2022,385,St Louis Ave & Norman Bobbins Ave,41.79,-87.71,18,22,0,0,18,22,19,0.95,1.16,0.0,0.0,0.95,1.16
8,2022,392,Homan Ave & 65th St,41.78,-87.71,20,22,0,0,20,22,16,1.25,1.38,0.0,0.0,1.25,1.38
8,2022,757,Kedzie Ave & 63rd St,41.78,-87.7,14,18,0,0,14,18,12,1.17,1.5,0.0,0.0,1.17,1.5
8,2022,775,Kedzie Ave & 58th St,41.79,-87.7,20,19,0,0,20,19,21,0.95,0.9,0.0,0.0,0.95,0.9
8,2022,833,Pulaski Rd & 44th St,41.81,-87.72,49,51,0,0,49,51,26,1.88,1.96,0.0,0.0,1.88,1.96
8,2022,497,Public Rack - Lowell Ave & Elston Ave,41.97,-87.74,50,49,0,0,50,49,25,2.0,1.96,0.0,0.0,2.0,1.96
8,2022,486,Public Rack - California Ave & Devon Ave - NW,42.0,-87.7,18,14,0,0,18,14,19,0.95,0.74,0.0,0.0,0.95,0.74
8,2022,318,Oak Park & Wellington,41.93,-87.8,9,16,0,0,9,16,12,0.75,1.33,0.0,0.0,0.75,1.33
8,2022,346,Kedzie Ave & 57th St,41.79,-87.7,87,75,0,0,87,75,31,2.81,2.42,0.0,0.0,2.81,2.42
8,2022,416,Washtenaw Ave & Madison St,41.88,-87.69,21,24,0,0,21,24,22,0.95,1.09,0.0,0.0,0.95,1.09
8,2022,TA1309000051,Commercial Ave & 83rd St,41.744615,-87.551208,19,19,12,12,31,31,26,0.73,0.73,0.46,0.46,1.19,1.19
8,2022,548,Public Rack - Cicero Ave & Altgeld St,41.93,-87.75,5,11,0,0,5,11,11,0.45,1.0,0.0,0.0,0.45,1.0
8,2022,772,Kedzie Ave & 61st Pl,41.78,-87.7,32,33,0,0,32,33,22,1.45,1.5,0.0,0.0,1.45,1.5
8,2022,KA1503000023,Stony Island Ave & 67th St,41.773458,-87.58534,21,20,45,32,66,52,28,0.75,0.71,1.61,1.14,2.36,1.86
8,2022,777,Midway Orange Line,41.79,-87.74,66,67,0,0,66,67,27,2.44,2.48,0.0,0.0,2.44,2.48
8,2022,16906,Austin Blvd & Lake St,41.88794379427211,-87.77427345514297,43,43,15,25,58,68,29,1.48,1.48,0.52,0.86,2.0,2.34
8,2022,478,Public Rack - California Ave & Touhy Ave - SW,42.01,-87.7,3,3,0,0,3,3,4,0.75,0.75,0.0,0.0,0.75,0.75
8,2022,475,Whipple/Irving Park,41.95,-87.7,94,99,0,0,94,99,31,3.03,3.19,0.0,0.0,3.03,3.19
8,2022,561,Damen Ave & 59th St,41.78601166666667,-87.6741575,30,34,14,16,44,50,27,1.11,1.26,0.52,0.59,1.63,1.85
8,2022,394,Panama Ave & Grace St,41.95,-87.83,3,2,0,0,3,2,4,0.75,0.5,0.0,0.0,0.75,0.5
8,2022,758,Washtenaw Ave & 63rd St,41.78,-87.69,5,5,0,0,5,5,6,0.83,0.83,0.0,0.0,0.83,0.83
8,2022,307,Leamington Ave & Hirsch St,41.91,-87.75,14,11,0,0,14,11,15,0.93,0.73,0.0,0.0,0.93,0.73
8,2022,20201,Kedzie Ave & 104th St,41.7,-87.7,14,5,0,0,14,5,8,1.75,0.62,0.0,0.0,1.75,0.62
8,2022,572,Hiawatha Park,41.94,-87.83,7,6,19,12,26,18,15,0.47,0.4,1.27,0.8,1.73,1.2
8,2022,580,Exchange Ave & 79th St,41.75170362,-87.552823544,18,15,21,24,39,39,21,0.86,0.71,1.0,1.14,1.86,1.86
8,2022,916,Wood St & 47th St,41.81,-87.67,11,16,0,0,11,16,14,0.79,1.14,0.0,0.0,0.79,1.14
8,2022,13083,Indiana Ave & 40th St,41.82162816666667,-87.62142416666667,32,32,26,23,58,55,29,1.1,1.1,0.9,0.79,2.0,1.9
8,2022,753,Jeffery Blvd & 67th St,41.77,-87.58,7,7,0,0,7,7,9,0.78,0.78,0.0,0.0,0.78,0.78
8,2022,861,Public Rack - Sawyer Ave & Lawrence Ave,41.97,-87.71,26,28,0,0,26,28,19,1.37,1.47,0.0,0.0,1.37,1.47
8,2022,KA1503000013,Princeton Ave & Garfield Blvd,41.794982,-87.633124,45,35,30,31,75,66,29,1.55,1.21,1.03,1.07,2.59,2.28
8,2022,830,Pulaski & 52nd,41.8,-87.72,7,7,0,0,7,7,7,1.0,1.0,0.0,0.0,1.0,1.0
8,2022,407,Tripp Ave & 65th St,41.77,-87.73,12,9,0,0,12,9,14,0.86,0.64,0.0,0.0,0.86,0.64
8,2022,702,Western Ave & 92nd Pl,41.73,-87.68,13,13,0,0,13,13,16,0.81,0.81,0.0,0.0,0.81,0.81
8,2022,494,Public Rack - Avers Ave & Irving Park Rd,41.95,-87.72,15,17,0,0,15,17,14,1.07,1.21,0.0,0.0,1.07,1.21
8,2022,20134,Maryland Ave & 104th St,41.71,-87.6,44,37,0,0,44,37,28,1.57,1.32,0.0,0.0,1.57,1.32
8,2022,KA1503000028,Jeffery Blvd & 76th St,41.757116833333335,-87.57588716666666,19,18,16,22,35,40,26,0.73,0.69,0.62,0.85,1.35,1.54
8,2022,612,Ewing Ave & 106th St,41.7,-87.54,2,2,0,0,2,2,3,0.67,0.67,0.0,0.0,0.67,0.67
8,2022,KA1503000033,Eberhart Ave & 61st St,41.784170985,-87.614493489,41,42,27,37,68,79,31,1.32,1.35,0.87,1.19,2.19,2.55
8,2022,20236,Stony Island Ave & 90th St,41.73139494330236,-87.58574366569519,4,2,13,13,17,15,23,0.17,0.09,0.57,0.57,0.74,0.65
8,2022,20221,Torrence Ave & 106th St,41.702801,-87.559726,10,4,5,8,15,12,16,0.62,0.25,0.31,0.5,0.94,0.75
8,2022,350,Hamlin Ave & 62nd Pl,41.78,-87.72,31,34,0,0,31,34,21,1.48,1.62,0.0,0.0,1.48,1.62
8,2022,614,Mackinaw Ave & 106th St,41.7,-87.54,3,2,0,0,3,2,4,0.75,0.5,0.0,0.0,0.75,0.5
8,2022,526,Public Rack - Legler Regional Library,41.88,-87.73,1,2,0,0,1,2,2,0.5,1.0,0.0,0.0,0.5,1.0
8,2022,15640,Avers Ave & Belmont Ave,41.939375166666665,-87.72358066666666,157,168,118,132,275,300,31,5.06,5.42,3.81,4.26,8.87,9.68
8,2022,768,Hyde Park Blvd & 55th St,41.8,-87.58,49,53,0,0,49,53,30,1.63,1.77,0.0,0.0,1.63,1.77
8,2022,418,Mozart St & Jackson Blvd,41.88,-87.7,10,11,0,0,10,11,8,1.25,1.38,0.0,0.0,1.25,1.38
8,2022,16933,Morgan St & Pershing Rd,41.823613,-87.650931,5,5,9,11,14,16,17,0.29,0.29,0.53,0.65,0.82,0.94
8,2022,16916,Central Ave & Madison St,41.880121,-87.763238,10,10,13,22,23,32,24,0.42,0.42,0.54,0.92,0.96,1.33
8,2022,839,Kedzie Ave & Pershing Rd,41.82,-87.7,5,7,0,0,5,7,8,0.62,0.88,0.0,0.0,0.62,0.88
8,2022,958,Public Rack - State ST & 42nd St,41.82,-87.63,19,19,0,0,19,19,21,0.9,0.9,0.0,0.0,0.9,0.9
8,2022,362.0,Lawndale Ave & 16th St,41.86,-87.72,9,9,0,0,9,9,12,0.75,0.75,0.0,0.0,0.75,0.75
8,2022,954,Public Rack - Prairie Ave & Garfield Blvd,41.79,-87.62,4,8,0,0,4,8,8,0.5,1.0,0.0,0.0,0.5,1.0
8,2022,556,Throop St & 52nd St,41.79967966666667,-87.6572295,14,10,5,5,19,15,20,0.7,0.5,0.25,0.25,0.95,0.75
8,2022,20233,Halsted St & 78th St,41.75253283333333,-87.64371966666667,24,20,13,18,37,38,26,0.92,0.77,0.5,0.69,1.42,1.46
8,2022,20228,Constance Ave & 95th St,41.722291,-87.578968,9,7,4,3,13,10,14,0.64,0.5,0.29,0.21,0.93,0.71
8,2022,652,Rhodes Ave & 71st St,41.765986,-87.611733,20,11,1,1,21,12,16,1.25,0.69,0.06,0.06,1.31,0.75
8,2022,537,Kenton Ave & Madison St,41.88066116666667,-87.74093733333333,4,4,2,1,6,5,6,0.67,0.67,0.33,0.17,1.0,0.83
8,2022,325,Harlem Ave & Grace St,41.95,-87.81,12,9,0,0,12,9,14,0.86,0.64,0.0,0.0,0.86,0.64
8,2022,995,Public Rack - King Dr & 71st St,41.77,-87.62,1,2,0,0,1,2,1,1.0,2.0,0.0,0.0,1.0,2.0
8,2022,856,Public Rack - Sawyer Ave & Bryn Mawr Ave - SW,41.98,-87.71,4,3,0,0,4,3,4,1.0,0.75,0.0,0.0,1.0,0.75
8,2022,960,Public Rack - Pulaski Rd & 5th Ave,41.87,-87.73,3,3,0,0,3,3,4,0.75,0.75,0.0,0.0,0.75,0.75
8,2022,570,Public Rack - McVicker Ave & Grand Ave,41.92,-87.78,42,42,15,5,57,47,29,1.45,1.45,0.52,0.17,1.97,1.62
8,2022,365.0,Kildare Ave & 26th St,41.84,-87.73,6,6,0,0,6,6,8,0.75,0.75,0.0,0.0,0.75,0.75
8,2022,366.0,Spaulding Ave & 16th St,41.86,-87.71,2,2,0,0,2,2,4,0.5,0.5,0.0,0.0,0.5,0.5
8,2022,333.0,Kildare & Cermak,41.85,-87.73,20,22,0,0,20,22,21,0.95,1.05,0.0,0.0,0.95,1.05
8,2022,828,Archer Park,41.8,-87.74,4,4,0,0,4,4,3,1.33,1.33,0.0,0.0,1.33,1.33
8,2022,812,Lake Park Ave & 47th St,41.81,-87.59,8,12,0,0,8,12,13,0.62,0.92,0.0,0.0,0.62,0.92
8,2022,905,Yates Blvd & Exchange Ave,41.77,-87.57,6,4,0,0,6,4,7,0.86,0.57,0.0,0.0,0.86,0.57
8,2022,699,Cottage Grove Ave & 98th St,41.72,-87.6,3,4,0,0,3,4,6,0.5,0.67,0.0,0.0,0.5,0.67
8,2022,764,Kedvale Ave & 63rd St,41.78,-87.73,3,1,0,0,3,1,4,0.75,0.25,0.0,0.0,0.75,0.25
8,2022,20119,Elizabeth St & 92nd St,41.726839423,-87.654286981,33,31,8,12,41,43,27,1.22,1.15,0.3,0.44,1.52,1.59
8,2022,KA1503000020,South Shore Dr & 74th St,41.76218896038,-87.55927465,56,53,36,42,92,95,31,1.81,1.71,1.16,1.35,2.97,3.06
8,2022,836,Kedzie Ave & Archer Ave,41.81,-87.7,8,9,0,0,8,9,8,1.0,1.12,0.0,0.0,1.0,1.12
8,2022,687,Mt Greenwood Library - South,41.69,-87.7,3,3,0,0,3,3,5,0.6,0.6,0.0,0.0,0.6,0.6
8,2022,20225,Commercial Ave & 100th St,41.71333033333333,-87.551193,1,1,10,7,11,8,10,0.1,0.1,1.0,0.7,1.1,0.8
8,2022,568,Public Rack - Central Ave & North Ave,41.91,-87.77,11,10,0,0,11,10,10,1.1,1.0,0.0,0.0,1.1,1.0
8,2022,981,Public Rack - Ave L & 105th St,41.7,-87.54,1,1,0,0,1,1,1,1.0,1.0,0.0,0.0,1.0,1.0
8,2022,615,Avenue J & 106th St,41.7,-87.53,2,2,0,0,2,2,3,0.67,0.67,0.0,0.0,0.67,0.67
8,2022,359,Kilbourn & Belden,41.92,-87.74,31,27,0,0,31,27,23,1.35,1.17,0.0,0.0,1.35,1.17
8,2022,912,Halsted St & 41st St,41.82,-87.65,1,1,0,0,1,1,1,1.0,1.0,0.0,0.0,1.0,1.0
8,2022,913,532 E 43rd St,41.82,-87.61,6,5,0,0,6,5,7,0.86,0.71,0.0,0.0,0.86,0.71
8,2022,16937,Ashland Ave & McDowell Ave,41.80888883333333,-87.66451583333334,33,31,26,31,59,62,29,1.14,1.07,0.9,1.07,2.03,2.14
8,2022,314,Narragansett & Wrightwood,41.93,-87.79,165,138,0,0,165,138,31,5.32,4.45,0.0,0.0,5.32,4.45
8,2022,KA1503000070,Harper Ave & 59th St,41.788008,-87.588218,99,98,268,273,367,371,31,3.19,3.16,8.65,8.81,11.84,11.97
8,2022,829,Pulaski Rd & 51st Rd,41.8,-87.72,11,10,0,0,11,10,10,1.1,1.0,0.0,0.0,1.1,1.0
8,2022,982,Public Rack - Ewing Ave & 95th St,41.72,-87.54,1,1,0,0,1,1,2,0.5,0.5,0.0,0.0,0.5,0.5
8,2022,952,Public Rack - Lake Shore Dr & Hayes Dr,41.78,-87.57,13,20,0,0,13,20,12,1.08,1.67,0.0,0.0,1.08,1.67
8,2022,718,Claremont Ave & 71st St,41.76,-87.68,13,12,0,0,13,12,16,0.81,0.75,0.0,0.0,0.81,0.75
8,2022,650,Houston Ave & 91st St,41.73,-87.55,7,7,14,9,21,16,19,0.37,0.37,0.74,0.47,1.11,0.84
8,2022,722,Racine Ave & 74th St,41.76,-87.65,5,5,0,0,5,5,8,0.62,0.62,0.0,0.0,0.62,0.62
8,2022,400,Lawler Ave & 50th St,41.8,-87.75,61,63,0,0,61,63,29,2.1,2.17,0.0,0.0,2.1,2.17
8,2022,KA1503000003,Cottage Grove Ave & 71st St,41.76569116666667,-87.60503783333333,15,14,27,25,42,39,24,0.62,0.58,1.12,1.04,1.75,1.62
8,2022,825,Kedzie Ave & 54th St - SW,41.8,-87.7,15,16,0,0,15,16,14,1.07,1.14,0.0,0.0,1.07,1.14
8,2022,484,Public Rack - Sacramento Ave & Greenleaf Ave,42.01,-87.7,20,21,0,0,20,21,23,0.87,0.91,0.0,0.0,0.87,0.91
8,2022,16903,Cicero Ave & Lake St,41.8868345,-87.74542133333334,31,28,16,9,47,37,26,1.19,1.08,0.62,0.35,1.81,1.42
8,2022,859,Public Rack - Spaulding Ave & Foster Ave,41.98,-87.71,29,30,0,0,29,30,19,1.53,1.58,0.0,0.0,1.53,1.58
8,2022,842,Ashland Ave & 46th St,41.81,-87.67,2,1,0,0,2,1,3,0.67,0.33,0.0,0.0,0.67,0.33
8,2022,799,Newcastle Ave & Belden Ave,41.92,-87.8,5,4,0,0,5,4,8,0.62,0.5,0.0,0.0,0.62,0.5
8,2022,955,Public Rack - Eberhart Ave & 61st St,41.78,-87.61,9,10,0,0,9,10,11,0.82,0.91,0.0,0.0,0.82,0.91
8,2022,20223,Ewing Ave & Burnham Greenway,41.87502066666666,-87.6732605,123,5,11,14,134,19,29,4.24,0.17,0.38,0.48,4.62,0.66
8,2022,373,Augusta Blvd & Laramie Ave,41.9,-87.76,11,12,0,0,11,12,11,1.0,1.09,0.0,0.0,1.0,1.09
8,2022,549,Public Rack - Laramie Ave & Fullerton Ave,41.92,-87.76,48,51,7,8,55,59,28,1.71,1.82,0.25,0.29,1.96,2.11
8,2022,943,Public Rack - Paxton Ave & 79th St,41.75,-87.57,3,3,0,0,3,3,3,1.0,1.0,0.0,0.0,1.0,1.0
8,2022,694,Wood St & 103rd St,41.71,-87.67,3,3,0,0,3,3,4,0.75,0.75,0.0,0.0,0.75,0.75
8,2022,519,Public Rack - Kostner Ave & North Ave,41.91,-87.74,63,64,26,17,89,81,30,2.1,2.13,0.87,0.57,2.97,2.7
8,2022,16915,Central Ave & Harrison St,41.87304816666666,-87.76451233333333,7,8,7,6,14,14,16,0.44,0.5,0.44,0.38,0.88,0.88
8,2022,697,Longwood Dr & 95th St,41.72,-87.67,1,2,0,0,1,2,2,0.5,1.0,0.0,0.0,0.5,1.0
8,2022,788,Greenwood Ave & Lake Park Ave,41.82,-87.6,5,4,0,0,5,4,4,1.25,1.0,0.0,0.0,1.25,1.0
8,2022,20130,Wentworth Ave & 104th St,41.705307996998194,-87.62921690940857,0,0,2,2,2,2,3,0.0,0.0,0.67,0.67,0.67,0.67
8,2022,843,Ashland Ave & 45th St,41.81,-87.66,2,1,0,0,2,1,2,1.0,0.5,0.0,0.0,1.0,0.5
8,2022,522,Public Rack - Lawndale Ave & Polk St,41.87,-87.72,7,5,0,0,7,5,6,1.17,0.83,0.0,0.0,1.17,0.83
8,2022,20112,Indiana Ave & 103rd St,41.707195401,-87.618287563,16,11,10,8,26,19,22,0.73,0.5,0.45,0.36,1.18,0.86
8,2022,946,Public Rack - Vincennes Ave & 77th St,41.76,-87.57,1,1,0,0,1,1,2,0.5,0.5,0.0,0.0,0.5,0.5
8,2022,815,Forrestville Ave & 47th St,41.81,-87.61,3,4,0,0,3,4,5,0.6,0.8,0.0,0.0,0.6,0.8
8,2022,551,Public Rack - Cicero Ave & North Ave,41.91,-87.75,21,20,0,0,21,20,17,1.24,1.18,0.0,0.0,1.24,1.18
8,2022,822,Talman Ave & 51st St - midblock,41.8,-87.69,5,4,0,0,5,4,6,0.83,0.67,0.0,0.0,0.83,0.67
8,2022,565,Public Rack - Austin Ave & Wrightwood Ave,41.93,-87.78,18,23,0,0,18,23,16,1.12,1.44,0.0,0.0,1.12,1.44
8,2022,353,Meade Ave & Diversey Ave,41.93,-87.78,55,62,0,0,55,62,31,1.77,2.0,0.0,0.0,1.77,2.0
8,2022,867,Public Rack - Grand Ave & North Ave,41.91,-87.74,18,20,0,0,18,20,16,1.12,1.25,0.0,0.0,1.12,1.25
8,2022,937,Public Rack - King Dr & 115th St,41.69,-87.61,22,22,0,0,22,22,18,1.22,1.22,0.0,0.0,1.22,1.22
8,2022,736,Jeffrey Blvd & 71st St,41.77,-87.58,7,13,0,0,7,13,12,0.58,1.08,0.0,0.0,0.58,1.08
8,2022,304,Lavergne Ave & Division St,41.9,-87.75,13,11,0,0,13,11,7,1.86,1.57,0.0,0.0,1.86,1.57
8,2022,20242,Houston Ave & 92nd St,41.72820421535798,-87.54970014095306,6,6,15,17,21,23,24,0.25,0.25,0.62,0.71,0.88,0.96
8,2022,942,Public Rack - Saginaw Ave & 93rd St,41.73,-87.56,1,2,0,0,1,2,2,0.5,1.0,0.0,0.0,0.5,1.0
8,2022,602,Percy Julian HS,41.71,-87.65,1,0,0,0,1,0,1,1.0,0.0,0.0,0.0,1.0,0.0
8,2022,555,Public Rack - Latrobe Ave & Lake St,41.89,-87.76,3,5,0,0,3,5,6,0.5,0.83,0.0,0.0,0.5,0.83
8,2022,858,Public Rack - Christiana Ave & Bryn Mawr Ave,41.98,-87.71,1,2,0,0,1,2,2,0.5,1.0,0.0,0.0,0.5,1.0
8,2022,375,Long Ave & North Ave,41.91,-87.76,12,12,0,0,12,12,12,1.0,1.0,0.0,0.0,1.0,1.0
8,2022,322,Cicero Ave & Grace St,41.95,-87.75,43,47,0,0,43,47,26,1.65,1.81,0.0,0.0,1.65,1.81
8,2022,356,Lavergne & Fullerton,41.92,-87.75,54,50,0,0,54,50,28,1.93,1.79,0.0,0.0,1.93,1.79
8,2022,865,Public Rack - Kilbourn Ave & Fullerton Ave,41.92,-87.74,30,31,0,0,30,31,27,1.11,1.15,0.0,0.0,1.11,1.15
8,2022,488,Public Rack - McCormick Blvd & Devon Ave,42.0,-87.71,14,13,0,0,14,13,11,1.27,1.18,0.0,0.0,1.27,1.18
8,2022,965,Public Rack - Fullerton Ave & Lavergne Ave,41.92,-87.75,13,16,0,0,13,16,15,0.87,1.07,0.0,0.0,0.87,1.07
8,2022,482,Public Rack - Chase Ave & Touhy Ave - NE,42.01,-87.69,8,9,0,0,8,9,11,0.73,0.82,0.0,0.0,0.73,0.82
8,2022,947,Public Rack - Exchange Ave & 73rd Pl,41.76,-87.56,2,2,0,0,2,2,3,0.67,0.67,0.0,0.0,0.67,0.67
8,2022,402,Kenneth Ave & 50th St,41.8,-87.73,10,10,0,0,10,10,16,0.62,0.62,0.0,0.0,0.62,0.62
8,2022,376,Menard Ave & North Ave,41.91,-87.77,6,8,0,0,6,8,8,0.75,1.0,0.0,0.0,0.75,1.0
8,2022,406,Kostner Ave & 63rd St,41.78,-87.73,16,15,0,0,16,15,13,1.23,1.15,0.0,0.0,1.23,1.15
8,2022,20206,Homewood Ave & 115th St,41.68460266666666,-87.67089783333333,15,21,6,8,21,29,20,0.75,1.05,0.3,0.4,1.05,1.45
8,2022,734,South Shore High School,41.76,-87.58,1,0,0,0,1,0,1,1.0,0.0,0.0,0.0,1.0,0.0
8,2022,310,North Ave & New England Ave,41.91,-87.8,1,1,0,0,1,1,2,0.5,0.5,0.0,0.0,0.5,0.5
8,2022,419,Sacramento Blvd & Polk St,41.87,-87.7,5,5,0,0,5,5,3,1.67,1.67,0.0,0.0,1.67,1.67
8,2022,855,Washtenaw Ave & Superior St,41.89,-87.7,48,51,0,0,48,51,27,1.78,1.89,0.0,0.0,1.78,1.89
8,2022,684,Mt Greenwood Library - North,41.69,-87.7,1,0,0,0,1,0,1,1.0,0.0,0.0,0.0,1.0,0.0
8,2022,20125,Halsted St & 104th St,41.70514,-87.642424,13,6,2,2,15,8,16,0.81,0.38,0.12,0.12,0.94,0.5
8,2022,998,Public Rack - Marquette Rd & 67th St,41.77,-87.61,3,3,0,0,3,3,3,1.0,1.0,0.0,0.0,1.0,1.0
8,2022,541,Public Rack - Laramie Ave & Warwick Ave,41.95,-87.76,6,6,0,0,6,6,5,1.2,1.2,0.0,0.0,1.2,1.2
8,2022,845,Ashland Ave & 45th St - midblock south,41.81,-87.66,2,2,0,0,2,2,4,0.5,0.5,0.0,0.0,0.5,0.5
8,2022,578,Oleander Ave & Addison St,41.94,-87.82,1,0,0,0,1,0,1,1.0,0.0,0.0,0.0,1.0,0.0
8,2022,854,Sacramento Blvd & Washington Blvd,41.88,-87.7,2,2,0,0,2,2,3,0.67,0.67,0.0,0.0,0.67,0.67
8,2022,301,Monticello Ave & Chicago Ave,41.9,-87.72,36,36,0,0,36,36,31,1.16,1.16,0.0,0.0,1.16,1.16
8,2022,739,63rd & Western Ave - north corner,41.78,-87.68,7,9,0,0,7,9,8,0.88,1.12,0.0,0.0,0.88,1.12
8,2022,640,Morgan St & 87th St,41.74,-87.65,2,2,0,0,2,2,3,0.67,0.67,0.0,0.0,0.67,0.67
8,2022,915,Laflin St & 51st St,41.8,-87.66,3,4,0,0,3,4,6,0.5,0.67,0.0,0.0,0.5,0.67
8,2022,508,Public Rack - Pulaski Rd & Fullerton Ave,41.92,-87.73,29,36,0,0,29,36,21,1.38,1.71,0.0,0.0,1.38,1.71
8,2022,586,MLK Jr Dr & 83rd St,41.743069,-87.61479933333334,8,10,20,15,28,25,20,0.4,0.5,1.0,0.75,1.4,1.25
8,2022,617,Morgan St & 95th St,41.72,-87.65,9,9,0,0,9,9,7,1.29,1.29,0.0,0.0,1.29,1.29
8,2022,809,Newcastle Ave & Belmont Ave,41.94,-87.8,3,3,0,0,3,3,4,0.75,0.75,0.0,0.0,0.75,0.75
8,2022,496,Public Rack - Kedvale Ave & Avondale Ave,41.95,-87.73,11,24,0,0,11,24,16,0.69,1.5,0.0,0.0,0.69,1.5
8,2022,900,Western Ave & 118th St,41.68,-87.68,3,0,0,0,3,0,3,1.0,0.0,0.0,0.0,1.0,0.0
8,2022,887,Halsted St & 80th St,41.75,-87.64,4,2,0,0,4,2,3,1.33,0.67,0.0,0.0,1.33,0.67
8,2022,878,Green St & 103rd St,41.71,-87.64,2,3,0,0,2,3,5,0.4,0.6,0.0,0.0,0.4,0.6
8,2022,KA1503000051,Halsted St & 47th Pl,41.808169,-87.64563616666666,26,27,29,31,55,58,29,0.9,0.93,1.0,1.07,1.9,2.0
8,2022,KA1503000010,Halsted St & 51st St,41.801718,-87.6451955,20,17,22,23,42,40,25,0.8,0.68,0.88,0.92,1.68,1.6
8,2022,863,Public Rack - Karlov Ave & Milwaukee Ave,41.94,-87.73,17,18,0,0,17,18,19,0.89,0.95,0.0,0.0,0.89,0.95
8,2022,877,Racine Ave & 109th Pl,41.69,-87.65,21,22,0,0,21,22,18,1.17,1.22,0.0,0.0,1.17,1.22
8,2022,796,Waller Ave & Chicago Ave,41.89,-87.77,1,0,0,0,1,0,1,1.0,0.0,0.0,0.0,1.0,0.0
8,2022,575,Pittsburgh Ave & Irving Park,41.95,-87.83,23,21,17,11,40,32,26,0.88,0.81,0.65,0.42,1.54,1.23
8,2022,794,Austin Branch Chicago Public Library,41.89,-87.77,2,4,0,0,2,4,4,0.5,1.0,0.0,0.0,0.5,1.0
8,2022,566,Public Rack - Narragansett Ave & Fullerton Ave,41.92,-87.78,6,6,0,0,6,6,8,0.75,0.75,0.0,0.0,0.75,0.75
8,2022,864,Public Rack - Kedvale Ave & Addison St,41.95,-87.73,5,5,0,0,5,5,7,0.71,0.71,0.0,0.0,0.71,0.71
8,2022,20127,Halsted St & 111th St,41.692279166666665,-87.64266466666666,9,8,5,9,14,17,13,0.69,0.62,0.38,0.69,1.08,1.31
8,2022,331.0,Pulaski Rd & 21st St,41.85,-87.72,20,16,0,0,20,16,18,1.11,0.89,0.0,0.0,1.11,0.89
8,2022,742,Ashland Ave & 71st St,41.77,-87.66,1,2,0,0,1,2,2,0.5,1.0,0.0,0.0,0.5,1.0
8,2022,383,Campbell Ave & 51st St,41.8,-87.69,4,7,0,0,4,7,7,0.57,1.0,0.0,0.0,0.57,1.0
8,2022,483,Public Rack - Western Ave & Jarvis Ave,42.02,-87.69,30,30,0,0,30,30,24,1.25,1.25,0.0,0.0,1.25,1.25
8,2022,545,Public Rack - Linder Ave & Belmont Ave,41.94,-87.76,48,47,3,7,51,54,26,1.85,1.81,0.12,0.27,1.96,2.08
8,2022,689,Albany Ave & 103rd St,41.71,-87.7,1,1,0,0,1,1,2,0.5,0.5,0.0,0.0,0.5,0.5
8,2022,698,Bell Ave & 95th St,41.72,-87.68,6,4,0,0,6,4,8,0.75,0.5,0.0,0.0,0.75,0.5
8,2022,898,Western Ave & 111th St - SE,41.69,-87.68,3,1,0,0,3,1,4,0.75,0.25,0.0,0.0,0.75,0.25
8,2022,883,East End Ave & 87th St,41.74,-87.58,2,3,0,0,2,3,3,0.67,1.0,0.0,0.0,0.67,1.0
8,2022,824,Avers Ave & Archer Ave,41.8,-87.72,9,10,0,0,9,10,8,1.12,1.25,0.0,0.0,1.12,1.25
8,2022,706,Winchester Ave & 87th St,41.74,-87.67,4,5,0,0,4,5,5,0.8,1.0,0.0,0.0,0.8,1.0
8,2022,16913,Cicero Ave & Quincy St,41.877613,-87.745405,11,4,7,4,18,8,15,0.73,0.27,0.47,0.27,1.2,0.53
8,2022,KA1504000128,Kedzie Ave & Foster Ave,41.975672,-87.709261,91,93,77,81,168,174,31,2.94,3.0,2.48,2.61,5.42,5.61
8,2022,KA1504000149,Damen Ave & Foster Ave,41.97561480459,-87.6794590387,448,447,295,319,743,766,31,14.45,14.42,9.52,10.29,23.97,24.71
8,2022,TA1306000013,New St & Illinois St,41.89084704062381,-87.61861681938171,1228,1144,1655,1561,2883,2705,31,39.61,36.9,53.39,50.35,93.0,87.26
8,2022,TA1307000041,DuSable Lake Shore Dr & Wellington Ave,41.9366884494997,-87.63682901859283,1206,1171,1914,1923,3120,3094,32,37.69,36.59,59.81,60.09,97.5,96.69
8,2022,679,Western Ave & 111th St - SW,41.69,-87.68,1,6,0,0,1,6,6,0.17,1.0,0.0,0.0,0.17,1.0
8,2022,13194,Ogden Ave & Race Ave,41.891794833333336,-87.658784,620,621,666,703,1286,1324,31,20.0,20.03,21.48,22.68,41.48,42.71
8,2022,562,Racine Ave & 61st St,41.7832015,-87.654382,7,7,0,0,7,7,10,0.7,0.7,0.0,0.0,0.7,0.7
8,2022,724,Halsted St & 76th St,41.76,-87.64,4,3,0,0,4,3,5,0.8,0.6,0.0,0.0,0.8,0.6
8,2022,766,Harold Washington Park,41.8,-87.58,36,37,0,0,36,37,26,1.38,1.42,0.0,0.0,1.38,1.42
8,2022,20110,Eberhart Ave & 91st St,41.729285157254864,-87.6110315322876,4,3,9,8,13,11,15,0.27,0.2,0.6,0.53,0.87,0.73
8,2022,663,Cottage Grove & 85th St,41.74,-87.61,1,1,0,0,1,1,1,1.0,1.0,0.0,0.0,1.0,1.0
8,2022,KA1504000117,Halsted St & North Branch St,41.8993735,-87.64848033333334,133,119,86,83,219,202,31,4.29,3.84,2.77,2.68,7.06,6.52
8,2022,15470,Calumet Ave & 51st St,41.80229465088,-87.6180535802,60,49,92,66,152,115,31,1.94,1.58,2.97,2.13,4.9,3.71
8,2022,1052,Public Rack - Rockwell & Division,41.9,-87.69,6,7,0,0,6,7,3,2.0,2.33,0.0,0.0,2.0,2.33
8,2022,TA1306000012,Wells St & Huron St,41.894722,-87.634362,1623,1559,1945,1834,3568,3393,31,52.35,50.29,62.74,59.16,115.1,109.45
8,2022,TA1308000049,Wells St & Evergreen Ave,41.906724,-87.63483,1353,1329,1492,1478,2845,2807,31,43.65,42.87,48.13,47.68,91.77,90.55
8,2022,SL-013,State St & 19th St,41.856594,-87.627542,211,207,241,260,452,467,32,6.59,6.47,7.53,8.12,14.12,14.59
8,2022,13338,Mies van der Rohe Way & Chicago Ave,41.896944626370825,-87.62175768613815,856,828,1048,1026,1904,1854,31,27.61,26.71,33.81,33.1,61.42,59.81
8,2022,TA1308000007,MLK Jr Dr & 47th St,41.809851,-87.616279,41,29,56,46,97,75,31,1.32,0.94,1.81,1.48,3.13,2.42
8,2022,13134,Damen Ave & Madison St,41.88137,-87.67493,136,135,127,130,263,265,27,5.04,5.0,4.7,4.81,9.74,9.81
8,2022,13028,900 W Harrison St,41.874754,-87.649807,638,633,802,813,1440,1446,31,20.58,20.42,25.87,26.23,46.45,46.65
8,2022,TA1309000042,Lincoln Ave & Belmont Ave (Temp),41.939469,-87.670992,540,537,622,649,1162,1186,31,17.42,17.32,20.06,20.94,37.48,38.26
8,2022,13132,Damen Ave & Chicago Ave,41.8956205,-87.67711,834,811,599,662,1433,1473,31,26.9,26.16,19.32,21.35,46.23,47.52
8,2022,1039,Public Rack - Kedzie Ave & 61st Pl,41.78,-87.7,2,2,0,0,2,2,2,1.0,1.0,0.0,0.0,1.0,1.0
8,2022,651,Commercial Ave & 89th St,41.73,-87.55,6,8,15,22,21,30,20,0.3,0.4,0.75,1.1,1.05,1.5
8,2022,13164,Racine Ave & 18th St,41.858166,-87.656495,623,618,448,457,1071,1075,32,19.47,19.31,14.0,14.28,33.47,33.59
8,2022,984,Public Rack - Ashland Ave & 91st St,41.73,-87.66,3,3,0,0,3,3,5,0.6,0.6,0.0,0.0,0.6,0.6
8,2022,395,Shabbona Park,41.94,-87.8,27,30,0,0,27,30,22,1.23,1.36,0.0,0.0,1.23,1.36
8,2022,TA1305000010,Michigan Ave & Ida B Wells Dr,41.876243,-87.624426,364,351,563,531,927,882,31,11.74,11.32,18.16,17.13,29.9,28.45
8,2022,RP-005,Western Ave & Lunt Ave,42.00862933333333,-87.69039583333333,112,116,99,103,211,219,31,3.61,3.74,3.19,3.32,6.81,7.06
8,2022,13331,May St & Cullerton St,41.855136,-87.654127,170,175,208,217,378,392,31,5.48,5.65,6.71,7.0,12.19,12.65
8,2022,TA1307000038,Sedgwick St & North Ave,41.911386,-87.638677,840,833,1329,1327,2169,2160,31,27.1,26.87,42.87,42.81,69.97,69.68
8,2022,KA1503000038,Shields Ave & 31st St,41.838464,-87.635406,254,252,476,472,730,724,31,8.19,8.13,15.35,15.23,23.55,23.35
8,2022,13277,Broadway & Belmont Ave,41.940106,-87.645451,1063,1061,1475,1472,2538,2533,31,34.29,34.23,47.58,47.48,81.87,81.71
8,2022,432,Sacramento Blvd & Addison St,41.95,-87.7,178,151,0,0,178,151,31,5.74,4.87,0.0,0.0,5.74,4.87
8,2022,15650,Spaulding Ave & Armitage Ave,41.91710803478932,-87.71022096276283,492,496,287,325,779,821,31,15.87,16.0,9.26,10.48,25.13,26.48
8,2022,TA1306000015,Sangamon St & Lake St,41.88577925240433,-87.65102460980414,1182,1198,1494,1597,2676,2795,31,38.13,38.65,48.19,51.52,86.32,90.16
8,2022,543,Laramie Ave & Gladys Ave,41.875806,-87.755285,33,38,7,6,40,44,29,1.14,1.31,0.24,0.21,1.38,1.52
8,2022,553,Public Rack - Lorel Ave & Chicago Ave,41.89,-87.76,13,12,4,4,17,16,20,0.65,0.6,0.2,0.2,0.85,0.8
8,2022,20105,Halsted St & 96th St,41.71971966666667,-87.64282283333333,38,32,17,13,55,45,22,1.73,1.45,0.77,0.59,2.5,2.05
8,2022,20211,Eberhart Ave & 131st St,41.65804166666667,-87.61078683333334,4,3,1,2,5,5,6,0.67,0.5,0.17,0.33,0.83,0.83
8,2022,15599,Calumet Ave & 71st St,41.76550800581,-87.616917925,1,0,7,5,8,5,12,0.08,0.0,0.58,0.42,0.67,0.42
8,2022,KA1503000014,Ellis Ave & 60th St,41.785099,-87.60117166666667,298,293,740,744,1038,1037,31,9.61,9.45,23.87,24.0,33.48,33.45
8,2022,682,111th St - Morgan Park Metra,41.69,-87.67,6,5,0,0,6,5,9,0.67,0.56,0.0,0.0,0.67,0.56
8,2022,589,Lafayette Ave & 119th St,41.68,-87.62,2,3,0,0,2,3,4,0.5,0.75,0.0,0.0,0.5,0.75
8,2022,KA1503000053,MLK Jr Dr & 63rd St,41.7801195,-87.61604733333333,36,34,37,27,73,61,31,1.16,1.1,1.19,0.87,2.35,1.97
8,2022,KA1503000052,Ellis Ave & 53rd St,41.79933626261,-87.6009581145,163,157,444,442,607,599,31,5.26,5.06,14.32,14.26,19.58,19.32
8,2022,759,Springfield Ave & 63rd St,41.78,-87.72,8,10,0,0,8,10,11,0.73,0.91,0.0,0.0,0.73,0.91
8,2022,339,Sacramento Ave & Pershing Rd,41.82,-87.7,27,31,0,0,27,31,27,1.0,1.15,0.0,0.0,1.0,1.15
8,2022,18003,Fairbanks St & Superior St,41.8957865,-87.619881,489,468,538,553,1027,1021,31,15.77,15.1,17.35,17.84,33.13,32.94
8,2022,15446,Racine Ave & 35th St,41.83068856472101,-87.65621066093445,83,79,85,96,168,175,31,2.68,2.55,2.74,3.1,5.42,5.65
8,2022,638,Clinton St & Jackson Blvd,41.878317,-87.640981,959,952,1164,1147,2123,2099,31,30.94,30.71,37.55,37.0,68.48,67.71
8,2022,KA1503000064,Dusable Harbor,41.88708566666666,-87.612803,1055,1026,1406,1477,2461,2503,31,34.03,33.1,45.35,47.65,79.39,80.74
8,2022,20101,Summit Ave & 86th St,41.73785016666667,-87.6448915,18,12,39,42,57,54,28,0.64,0.43,1.39,1.5,2.04,1.93
8,2022,TA1308000045,Wallace St & 35th St,41.8306505,-87.64130666666667,90,89,125,119,215,208,31,2.9,2.87,4.03,3.84,6.94,6.71
8,2022,TA1305000004,McCormick Place,41.8513751729,-87.6188346489,277,264,384,357,661,621,31,8.94,8.52,12.39,11.52,21.32,20.03
8,2022,KA1504000116,Larrabee St & Oak St,41.90021949323,-87.6429854676,359,348,589,577,948,925,31,11.58,11.23,19.0,18.61,30.58,29.84
8,2022,13045,Dearborn St & Erie St,41.894296833333335,-87.629209,1331,1318,1885,1883,3216,3201,32,41.59,41.19,58.91,58.84,100.5,100.03
8,2022,TA1305000039,Elston Ave & Cortland St,41.916431333333335,-87.66680033333333,568,554,593,628,1161,1182,31,18.32,17.87,19.13,20.26,37.45,38.13
8,2022,15646,California Ave & Altgeld St,41.92669,-87.697668,258,262,292,288,550,550,32,8.06,8.19,9.12,9.0,17.19,17.19
8,2022,13247,Ashland Ave & Chicago Ave,41.895186,-87.66777566666667,443,444,399,396,842,840,31,14.29,14.32,12.87,12.77,27.16,27.1
8,2022,783,California Ave & Pershing Rd,41.82,-87.69,2,2,0,0,2,2,4,0.5,0.5,0.0,0.0,0.5,0.5
8,2022,793,Central Ave & Corcoran Pl,41.89,-87.77,5,6,0,0,5,6,7,0.71,0.86,0.0,0.0,0.71,0.86
8,2022,536,Public Rack - Keeler Ave & 26th St,41.84,-87.73,17,9,3,1,20,10,15,1.13,0.6,0.2,0.07,1.33,0.67
8,2022,538,Public Rack - Karlov Ave & 26th St,41.84,-87.73,1,2,0,0,1,2,3,0.33,0.67,0.0,0.0,0.33,0.67
8,2022,13427,Cityfront Plaza Dr & Pioneer Ct,41.890573,-87.622072,624,581,758,637,1382,1218,31,20.13,18.74,24.45,20.55,44.58,39.29
8,2022,574,Vernon Ave & 79th St,41.75094,-87.61379,14,10,11,10,25,20,23,0.61,0.43,0.48,0.43,1.09,0.87
8,2022,631,Malcolm X College Vaccination Site,41.877575517,-87.673803687,159,142,150,133,309,275,31,5.13,4.58,4.84,4.29,9.97,8.87
8,2022,TA1307000163,Clifton Ave & Armitage Ave,41.918216,-87.656936,536,529,857,902,1393,1431,31,17.29,17.06,27.65,29.1,44.94,46.16
8,2022,20239,Marquette Ave & 89th St,41.73366879071472,-87.55834221839905,8,5,14,17,22,22,22,0.36,0.23,0.64,0.77,1.0,1.0
8,2022,344,Springfield Ave & 47th St,41.81,-87.72,11,11,0,0,11,11,14,0.79,0.79,0.0,0.0,0.79,0.79
8,2022,560,Marshfield Ave & 59th St,41.786859166666666,-87.6661675,27,28,1,1,28,29,23,1.17,1.22,0.04,0.04,1.22,1.26
8,2022,605,University Library (NU),42.05289916666667,-87.6730355,106,108,167,156,273,264,31,3.42,3.48,5.39,5.03,8.81,8.52
8,2022,KA1504000161,St. Louis Ave & Balmoral Ave,41.98039423475,-87.7161149615,57,57,64,51,121,108,31,1.84,1.84,2.06,1.65,3.9,3.48
8,2022,13288,Damen Ave & Charleston St,41.920082,-87.677855,430,422,432,448,862,870,31,13.87,13.61,13.94,14.45,27.81,28.06
8,2022,424,Sacramento Ave & 25th St,41.85,-87.7,8,6,0,0,8,6,12,0.67,0.5,0.0,0.0,0.67,0.5
8,2022,15628,California Ave & Byron St,41.9520795,-87.69805216666667,166,163,187,185,353,348,31,5.35,5.26,6.03,5.97,11.39,11.23
8,2022,774,Christiana Ave & 55th St,41.79,-87.71,7,6,0,0,7,6,8,0.88,0.75,0.0,0.0,0.88,0.75
8,2022,SL-012,Wabash Ave & 16th St,41.860384,-87.625813,509,459,747,670,1256,1129,31,16.42,14.81,24.1,21.61,40.52,36.42
8,2022,KA1504000093,Rockwell St & Eastwood Ave,41.96590013976,-87.6936384935,279,273,222,223,501,496,31,9.0,8.81,7.16,7.19,16.16,16.0
8,2022,KA1503000005,Wentworth Ave & 35th St,41.830777,-87.632504,146,142,174,155,320,297,31,4.71,4.58,5.61,5.0,10.32,9.58
8,2022,TA1308000036,Indiana Ave & 31st St,41.83875983333333,-87.62184783333333,191,193,343,348,534,541,31,6.16,6.23,11.06,11.23,17.23,17.45
8,2022,814,Prairie Ave & 47th St - midblock,41.81,-87.62,9,8,0,0,9,8,10,0.9,0.8,0.0,0.0,0.9,0.8
8,2022,KA1504000110,Millard Ave & 26th St,41.84453112462163,-87.71592199802399,47,44,18,26,65,70,29,1.62,1.52,0.62,0.9,2.24,2.41
8,2022,20107,Walden Pkwy & 100th St,41.71226566666667,-87.66769683333334,34,31,25,24,59,55,26,1.31,1.19,0.96,0.92,2.27,2.12
8,2022,TA1309000039,DuSable Lake Shore Dr & Diversey Pkwy,41.932588,-87.636427,1478,1467,2357,2318,3835,3785,31,47.68,47.32,76.03,74.77,123.71,122.1
