month,year,station_id,station_name,lat,lng,ebike_start,ebike_end,cbike_start,cbike_end,total_start,total_end,active_days,daily_ebike_start,daily_ebike_end,daily_cbike_start,daily_cbike_end,daily_start,daily_end
10,2023,620,Orleans St & Chestnut St (NEXT Apts),41.898203,-87.637536,301,285,496,474,797,759,31,9.71,9.19,16.0,15.29,25.71,24.48
10,2023,TA1306000003,Desplaines St & Kinzie St,41.888641,-87.644415,901,808,1370,1084,2271,1892,31,29.06,26.06,44.19,34.97,73.26,61.03
10,2023,13102,Calumet Ave & 18th St,41.85761755293753,-87.61941075325012,232,231,506,505,738,736,31,7.48,7.45,16.32,16.29,23.81,23.74
10,2023,TA1309000064,Wolcott Ave & Polk St,41.871262,-87.673688,425,399,545,516,970,915,31,13.71,12.87,17.58,16.65,31.29,29.52
10,2023,TA1306000008,Larrabee St & North Ave,41.91021,-87.6435,306,296,463,399,769,695,31,9.87,9.55,14.94,12.87,24.81,22.42
10,2023,13068,Western Ave & Winnebago Ave,41.91565816666667,-87.68707316666666,449,438,505,520,954,958,31,14.48,14.13,16.29,16.77,30.77,30.9
10,2023,KA1504000079,Larrabee St & Division St,41.903519,-87.64333566666667,318,311,478,468,796,779,31,10.26,10.03,15.42,15.1,25.68,25.13
10,2023,331,Halsted St & Clybourn Ave,41.909668,-87.648128,916,922,1108,1164,2024,2086,31,29.55,29.74,35.74,37.55,65.29,67.29
10,2023,13022,Streeter Dr & Grand Ave,41.892278,-87.612043,1029,1010,3100,3296,4129,4306,31,33.19,32.58,100.0,106.32,133.19,138.9
10,2023,TA1309000008,Franklin St & Adams St (Temp),41.87943409140013,-87.63550400733948,419,395,561,597,980,992,31,13.52,12.74,18.1,19.26,31.61,32.0
10,2023,13268,Damen Ave & Wellington Ave,41.93588,-87.67842,235,250,222,266,457,516,31,7.58,8.06,7.16,8.58,14.74,16.65
10,2023,TA1307000115,Clybourn Ave & Division St,41.904613,-87.640552,197,191,431,445,628,636,31,6.35,6.16,13.9,14.35,20.26,20.52
10,2023,13138,Canal St & Jackson Blvd,41.8771495,-87.6394885,665,654,738,693,1403,1347,31,21.45,21.1,23.81,22.35,45.26,43.45
10,2023,TA1307000039,Clark St & Elm St,41.902775166666665,-87.63174633333334,1141,1114,2079,2015,3220,3129,31,36.81,35.94,67.06,65.0,103.87,100.94
10,2023,WL-008,Clinton St & Roosevelt Rd,41.8671177825,-87.6410879593,322,324,375,467,697,791,31,10.39,10.45,12.1,15.06,22.48,25.52
10,2023,13133,Damen Ave & Cortland St,41.915983,-87.677335,481,482,442,510,923,992,31,15.52,15.55,14.26,16.45,29.77,32.0
10,2023,13307,Laflin St & Cullerton St,41.854861259,-87.663695693,116,119,124,167,240,286,31,3.74,3.84,4.0,5.39,7.74,9.23
10,2023,13001,Michigan Ave & Washington St,41.883895333333335,-87.624471,763,755,1406,1379,2169,2134,31,24.61,24.35,45.35,44.48,69.97,68.84
10,2023,13139,Throop St & Taylor St,41.86879921,-87.659109592,352,328,414,372,766,700,31,11.35,10.58,13.35,12.0,24.71,22.58
10,2023,13163,Morgan St & 18th St,41.858089,-87.651147,292,300,233,241,525,541,31,9.42,9.68,7.52,7.77,16.94,17.45
10,2023,13017,Franklin St & Chicago Ave,41.896746973093805,-87.63566762208939,505,500,647,621,1152,1121,31,16.29,16.13,20.87,20.03,37.16,36.16
10,2023,TA1309000006,Larrabee St & Armitage Ave,41.918084,-87.643749,286,286,438,455,724,741,31,9.23,9.23,14.13,14.68,23.35,23.9
10,2023,15550,Canal St & Taylor St,41.870257,-87.639474,280,283,389,429,669,712,31,9.03,9.13,12.55,13.84,21.58,22.97
10,2023,TA1309000029,Leavitt St & Armitage Ave,41.917828321,-87.682540298,307,313,274,275,581,588,31,9.9,10.1,8.84,8.87,18.74,18.97
10,2023,TA1305000006,Dearborn St & Monroe St,41.881319815,-87.6295209193,744,723,1059,1047,1803,1770,31,24.0,23.32,34.16,33.77,58.16,57.1
10,2023,13108,Broadway & Argyle St,41.973815,-87.65966,332,326,494,461,826,787,31,10.71,10.52,15.94,14.87,26.65,25.39
10,2023,13221,Wood St & Milwaukee Ave,41.907655,-87.672552,648,641,600,656,1248,1297,31,20.9,20.68,19.35,21.16,40.26,41.84
10,2023,15576,Lakefront Trail & Bryn Mawr Ave,41.98404411519213,-87.65228122472763,265,263,491,540,756,803,31,8.55,8.48,15.84,17.42,24.39,25.9
10,2023,506,Public Rack - Lawndale Ave & Diversey Ave,41.931864833333336,-87.71925783333333,22,22,0,0,22,22,19,1.16,1.16,0.0,0.0,1.16,1.16
10,2023,15655,Albany Ave & Bloomingdale Ave,41.91402671273,-87.705126462,225,208,287,231,512,439,31,7.26,6.71,9.26,7.45,16.52,14.16
10,2023,SL-012,Wabash Ave & 16th St,41.860384,-87.625813,247,240,577,575,824,815,31,7.97,7.74,18.61,18.55,26.58,26.29
10,2023,592,Knox Ave & Montrose Ave,41.960631,-87.745359,88,84,67,75,155,159,31,2.84,2.71,2.16,2.42,5.0,5.13
10,2023,15624,Avondale Ave & Irving Park Rd,41.95330143,-87.731884122,153,153,104,87,257,240,31,4.94,4.94,3.35,2.81,8.29,7.74
10,2023,632,Clark St & Newport St,41.944502711,-87.654800296,851,835,1027,998,1878,1833,32,26.59,26.09,32.09,31.19,58.69,57.28
10,2023,624,Dearborn St & Van Buren St,41.876323104,-87.629182696,185,181,408,387,593,568,31,5.97,5.84,13.16,12.48,19.13,18.32
10,2023,13143,Damen Ave & Melrose Ave,41.94057405,-87.678588033,184,186,158,201,342,387,31,5.94,6.0,5.1,6.48,11.03,12.48
10,2023,385,St Louis Ave & Norman Bobbins Ave,41.79441083333333,-87.71118383333334,14,9,0,0,14,9,14,1.0,0.64,0.0,0.0,1.0,0.64
10,2023,13059,Sheridan Rd & Argyle St,41.973307848,-87.654777527,297,289,315,318,612,607,31,9.58,9.32,10.16,10.26,19.74,19.58
10,2023,517,Public Rack - Pulaski Rd & Armitage Ave,41.917145729,-87.727151155,108,104,88,76,196,180,31,3.48,3.35,2.84,2.45,6.32,5.81
10,2023,TA1309000010,Wabash Ave & 9th St,41.870769,-87.625734,459,453,936,914,1395,1367,31,14.81,14.61,30.19,29.48,45.0,44.1
10,2023,TA1307000052,Sheffield Ave & Wellington Ave,41.9362534831413,-87.65266209840775,601,584,892,890,1493,1474,31,19.39,18.84,28.77,28.71,48.16,47.55
10,2023,13089,Damen Ave & Cullerton St,41.854966518753926,-87.67569959163664,99,97,80,95,179,192,31,3.19,3.13,2.58,3.06,5.77,6.19
10,2023,TA1308000001,Theater on the Lake,41.926277,-87.630834,483,467,1308,1249,1791,1716,31,15.58,15.06,42.19,40.29,57.77,55.35
10,2023,13323,Broadway & Sheridan Rd,41.952833,-87.649993,629,629,819,794,1448,1423,31,20.29,20.29,26.42,25.61,46.71,45.9
10,2023,13241,Western Ave & Division St,41.902893,-87.687275,206,206,377,357,583,563,31,6.65,6.65,12.16,11.52,18.81,18.16
10,2023,13008,Millennium Park,41.8810317,-87.62408432,740,732,1654,1782,2394,2514,31,23.87,23.61,53.35,57.48,77.23,81.1
10,2023,13136,Damen Ave & Division St,41.903266,-87.678435,405,412,391,440,796,852,31,13.06,13.29,12.61,14.19,25.68,27.48
10,2023,TA1307000064,Lincoln Ave & Diversey Pkwy,41.93224466666667,-87.65867566666667,513,501,636,606,1149,1107,31,16.55,16.16,20.52,19.55,37.06,35.71
10,2023,TA1307000150,Pine Grove Ave & Waveland Ave,41.949392557,-87.646359921,578,562,1191,1175,1769,1737,31,18.65,18.13,38.42,37.9,57.06,56.03
10,2023,TA1307000061,State St & Pearson St,41.897448,-87.628722,274,232,649,483,923,715,31,8.84,7.48,20.94,15.58,29.77,23.06
10,2023,KA1504000175,Glenwood Ave & Morse Ave,42.00797192287,-87.6655023944,178,178,216,235,394,413,31,5.74,5.74,6.97,7.58,12.71,13.32
10,2023,KA1503000012,Clark St & Lake St,41.88602082773,-87.6308760584,649,624,996,925,1645,1549,31,20.94,20.13,32.13,29.84,53.06,49.97
10,2023,TA1308000012,Montrose Harbor,41.963982,-87.638181,232,227,833,753,1065,980,31,7.48,7.32,26.87,24.29,34.35,31.61
10,2023,13150,Michigan Ave & 18th St,41.857813,-87.62455,343,344,525,587,868,931,31,11.06,11.1,16.94,18.94,28.0,30.03
10,2023,TA1307000120,Green St & Madison St,41.88185932803823,-87.64926373958588,763,761,999,1111,1762,1872,31,24.61,24.55,32.23,35.84,56.84,60.39
10,2023,13158,Peoria St & Jackson Blvd,41.877607226,-87.649731517,655,640,1020,1001,1675,1641,31,21.13,20.65,32.9,32.29,54.03,52.94
10,2023,TA1307000006,Southport Ave & Wellington Ave,41.9357265,-87.66359116666666,543,532,833,821,1376,1353,31,17.52,17.16,26.87,26.48,44.39,43.65
10,2023,13144,Seeley Ave & Roscoe St,41.943403,-87.679618,315,320,249,279,564,599,31,10.16,10.32,8.03,9.0,18.19,19.32
10,2023,TA1306000007,Larrabee St & Menomonee St,41.91468,-87.64332,171,168,338,362,509,530,31,5.52,5.42,10.9,11.68,16.42,17.1
10,2023,1140.0,Public Rack - Natoma Ave & Bryn Mawr Ave,41.98291866666667,-87.79085316666666,7,5,0,0,7,5,8,0.88,0.62,0.0,0.0,0.88,0.62
10,2023,20254.0,W Armitage Ave & N Sheffield Ave,41.917908311,-87.65330565,229,227,0,0,229,227,31,7.39,7.32,0.0,0.0,7.39,7.32
10,2023,TA1309000032,Elston Ave & Wabansia Ave,41.912919,-87.664169,144,145,153,186,297,331,31,4.65,4.68,4.94,6.0,9.58,10.68
10,2023,660,Sheridan Rd & Columbia Ave,42.00455633333333,-87.661428,125,125,144,154,269,279,31,4.03,4.03,4.65,4.97,8.68,9.0
10,2023,TA1308000050,Wells St & Concord Ln,41.911942,-87.63479033333333,1323,1327,1543,1608,2866,2935,31,42.68,42.81,49.77,51.87,92.45,94.68
10,2023,13165,Racine Ave & 13th St,41.864990166666665,-87.65701183333333,76,74,84,57,160,131,31,2.45,2.39,2.71,1.84,5.16,4.23
10,2023,RN-,Franklin St & Illinois St,41.891000986,-87.635559201,470,463,828,838,1298,1301,31,15.16,14.94,26.71,27.03,41.87,41.97
10,2023,KA1503000041,McClurg Ct & Erie St,41.894503,-87.617854,555,559,920,892,1475,1451,31,17.9,18.03,29.68,28.77,47.58,46.81
10,2023,15541.1.1,Buckingham Fountain,41.876665,-87.620483,199,158,673,471,872,629,28,7.11,5.64,24.04,16.82,31.14,22.46
10,2023,15621,Albany Ave & Montrose Ave,41.961041,-87.705866,90,90,80,117,170,207,30,3.0,3.0,2.67,3.9,5.67,6.9
10,2023,15642,California Ave & Fletcher St,41.938444614,-87.698099494,156,157,124,183,280,340,31,5.03,5.06,4.0,5.9,9.03,10.97
10,2023,TA1307000140,Western Ave & Leland Ave,41.966314554,-87.688712955,358,369,357,391,715,760,31,11.55,11.9,11.52,12.61,23.06,24.52
10,2023,429,Francisco Ave & Bloomingdale Ave,41.913968444,-87.699475408,54,51,0,0,54,51,28,1.93,1.82,0.0,0.0,1.93,1.82
10,2023,13430,LaSalle St & Illinois St,41.890762,-87.631697,867,853,1243,1167,2110,2020,31,27.97,27.52,40.1,37.65,68.06,65.16
10,2023,13156,Aberdeen St & Monroe St,41.880419,-87.655519,374,359,569,560,943,919,31,12.06,11.58,18.35,18.06,30.42,29.65
10,2023,TA1305000017,Halsted St & Roosevelt Rd,41.86736966666667,-87.648644,463,425,761,746,1224,1171,31,14.94,13.71,24.55,24.06,39.48,37.77
10,2023,TA1309000018,Ravenswood Ave & Berteau Ave,41.957900763,-87.673555851,178,179,247,250,425,429,31,5.74,5.77,7.97,8.06,13.71,13.84
10,2023,426,California & 16th St,41.85922733333334,-87.69541066666666,14,14,0,0,14,14,15,0.93,0.93,0.0,0.0,0.93,0.93
10,2023,13081,Ogden Ave & Congress Pkwy,41.87501,-87.67328,157,153,252,222,409,375,31,5.06,4.94,8.13,7.16,13.19,12.1
10,2023,655,Hoyne Ave & Balmoral Ave,41.979913473,-87.681918979,142,138,61,71,203,209,31,4.58,4.45,1.97,2.29,6.55,6.74
10,2023,RP-009,Sheridan Rd & Loyola Ave,42.0010975,-87.6612035,250,240,229,245,479,485,31,8.06,7.74,7.39,7.9,15.45,15.65
10,2023,KA1503000005,Wentworth Ave & 35th St,41.830764294,-87.632421136,93,90,143,153,236,243,31,3.0,2.9,4.61,4.94,7.61,7.84
10,2023,415,Western Ave & Lake St,41.884553194,-87.685941339,11,10,0,0,11,10,13,0.85,0.77,0.0,0.0,0.85,0.77
10,2023,20252.0,W Oakdale Ave & N Broadway,41.93565766666666,-87.64404616666667,294,297,0,0,294,297,31,9.48,9.58,0.0,0.0,9.48,9.58
10,2023,15575,Broadway & Thorndale Ave,41.98974251144,-87.6601406209,271,270,344,344,615,614,31,8.74,8.71,11.1,11.1,19.84,19.81
10,2023,E008,Chicago Ave & Sheridan Rd,42.050482631,-87.677920222,243,235,428,413,671,648,31,7.84,7.58,13.81,13.32,21.65,20.9
10,2023,KA1504000082,Kedzie Ave & Harrison St,41.87359967462,-87.7048707493,8,2,8,12,16,14,20,0.4,0.1,0.4,0.6,0.8,0.7
10,2023,13353,Ada St & Washington Blvd,41.88283,-87.661206,274,266,364,385,638,651,31,8.84,8.58,11.74,12.42,20.58,21.0
10,2023,20251.0,N Carpenter St & W Lake St,41.885637999,-87.653012514,214,187,0,0,214,187,30,7.13,6.23,0.0,0.0,7.13,6.23
10,2023,KA1504000159,Sheridan Rd & Greenleaf Ave,42.01058656284,-87.6624120948,46,44,112,106,158,150,31,1.48,1.42,3.61,3.42,5.1,4.84
10,2023,13245,Claremont Ave & Hirsch St,41.907726833333335,-87.68584783333333,203,190,182,168,385,358,31,6.55,6.13,5.87,5.42,12.42,11.55
10,2023,604,Sheridan Rd & Noyes St (NU),42.0582675,-87.67755483333333,377,367,570,573,947,940,31,12.16,11.84,18.39,18.48,30.55,30.32
10,2023,15534,Field Blvd & South Water St,41.886425495,-87.617578149,512,506,534,496,1046,1002,31,16.52,16.32,17.23,16.0,33.74,32.32
10,2023,KA1503000068,Leavitt St & Archer Ave,41.82879201994,-87.6806044594,79,79,68,66,147,145,31,2.55,2.55,2.19,2.13,4.74,4.68
10,2023,13242,Milwaukee Ave & Rockwell St,41.920182,-87.692789,152,148,169,165,321,313,31,4.9,4.77,5.45,5.32,10.35,10.1
10,2023,KA1504000091,Hoyne Ave & 47th St,41.808227,-87.67718,11,7,25,20,36,27,26,0.42,0.27,0.96,0.77,1.38,1.04
10,2023,TA1309000039,DuSable Lake Shore Dr & Diversey Pkwy,41.932568333333336,-87.63636216666667,525,532,965,997,1490,1529,31,16.94,17.16,31.13,32.16,48.06,49.32
10,2023,SL-008,Federal St & Polk St,41.87207763285,-87.6295437729,495,492,1012,1022,1507,1514,31,15.97,15.87,32.65,32.97,48.61,48.84
10,2023,13213,State St & 29th St,41.841732025,-87.626969576,46,52,78,115,124,167,31,1.48,1.68,2.52,3.71,4.0,5.39
10,2023,15648,Campbell Ave & Fullerton Ave,41.924604297,-87.689319134,160,162,128,144,288,306,31,5.16,5.23,4.13,4.65,9.29,9.87
10,2023,13206,Loomis St & Jackson Blvd,41.877945,-87.662007,259,225,400,395,659,620,31,8.35,7.26,12.9,12.74,21.26,20.0
10,2023,13379,Clarendon Ave & Gordon Ter,41.957850695,-87.649466753,516,517,752,759,1268,1276,31,16.65,16.68,24.26,24.48,40.9,41.16
10,2023,SL-007,State St & Harrison St,41.874053,-87.627716,233,197,538,408,771,605,32,7.28,6.16,16.81,12.75,24.09,18.91
10,2023,13050,State St & Kinzie St,41.88937546663168,-87.62707650661469,714,704,747,843,1461,1547,31,23.03,22.71,24.1,27.19,47.13,49.9
10,2023,639,Lakefront Trail & Wilson Ave,41.96586833333333,-87.64547366666666,159,158,408,394,567,552,31,5.13,5.1,13.16,12.71,18.29,17.81
10,2023,654,Racine Ave & Washington Blvd,41.883073,-87.656952,195,192,320,311,515,503,31,6.29,6.19,10.32,10.03,16.61,16.23
10,2023,KA1504000158,Oakley Ave & Irving Park Rd,41.95434085219,-87.6860796243,96,93,142,157,238,250,31,3.1,3.0,4.58,5.06,7.68,8.06
10,2023,13073,Ashland Ave & Lake St,41.8859785,-87.6671475,245,204,416,310,661,514,31,7.9,6.58,13.42,10.0,21.32,16.58
10,2023,TA1307000048,Fort Dearborn Dr & 31st St,41.838556,-87.608218,71,63,195,213,266,276,31,2.29,2.03,6.29,6.87,8.58,8.9
10,2023,1012,Public Rack - Langley Ave & 49th St,41.804864287,-87.609130621,48,52,0,0,48,52,29,1.66,1.79,0.0,0.0,1.66,1.79
10,2023,KA1503000004,Lake Park Ave & 35th St,41.83127423549,-87.6087991946,80,74,197,200,277,274,31,2.58,2.39,6.35,6.45,8.94,8.84
10,2023,15491,63rd St Beach,41.78091096424803,-87.57632374763489,15,6,48,48,63,54,27,0.56,0.22,1.78,1.78,2.33,2.0
10,2023,13091,Western Ave & 21st St,41.854109,-87.685838,84,80,38,32,122,112,31,2.71,2.58,1.23,1.03,3.94,3.61
10,2023,KA1503000029,South Shore Dr & 67th St,41.773643,-87.567514,38,42,56,62,94,104,31,1.23,1.35,1.81,2.0,3.03,3.35
10,2023,KA1503000046,Dorchester Ave & 63rd St,41.7804056457,-87.5914159893,12,12,69,79,81,91,30,0.4,0.4,2.3,2.63,2.7,3.03
10,2023,22002,Woodlawn Ave & 58th St,41.789423227,-87.596477389,303,293,842,915,1145,1208,31,9.77,9.45,27.16,29.52,36.94,38.97
10,2023,TA1308000036,Indiana Ave & 31st St,41.838842,-87.621857,176,172,448,509,624,681,31,5.68,5.55,14.45,16.42,20.13,21.97
10,2023,TA1308000038,Cottage Grove Ave & Oakwood Blvd,41.822985,-87.6071,20,20,45,52,65,72,28,0.71,0.71,1.61,1.86,2.32,2.57
10,2023,22005,Drexel Ave & 60th St,41.785751104,-87.604636073,139,140,468,563,607,703,31,4.48,4.52,15.1,18.16,19.58,22.68
10,2023,KA1503000054,Cottage Grove Ave & 63rd St,41.78061133333333,-87.60614083333333,56,56,101,113,157,169,31,1.81,1.81,3.26,3.65,5.06,5.45
10,2023,TA1307000161,Halsted St & 37th St,41.82700491,-87.645707369,33,36,33,53,66,89,30,1.1,1.2,1.1,1.77,2.2,2.97
10,2023,13217,Calumet Ave & 33rd St,41.83487216666666,-87.61789116666667,505,489,1202,1144,1707,1633,31,16.29,15.77,38.77,36.9,55.06,52.68
10,2023,KA1503000055,Halsted St & 63rd St,41.779393315,-87.64495492,8,8,13,18,21,26,24,0.33,0.33,0.54,0.75,0.88,1.08
10,2023,KA1503000021,Stony Island Ave & 64th St,41.778881,-87.586647,4,2,6,6,10,8,11,0.36,0.18,0.55,0.55,0.91,0.73
10,2023,TA1306000014,Wilton Ave & Diversey Pkwy,41.932410955,-87.65270257,690,693,887,930,1577,1623,31,22.26,22.35,28.61,30.0,50.87,52.35
10,2023,TA1309000049,DuSable Lake Shore Dr & Belmont Ave,41.940775,-87.639192,606,607,898,913,1504,1520,31,19.55,19.58,28.97,29.45,48.52,49.03
10,2023,TA1305000002,Wabash Ave & Roosevelt Rd,41.867113829,-87.625984788,722,719,1353,1381,2075,2100,31,23.29,23.19,43.65,44.55,66.94,67.74
10,2023,13434,Ashland Ave & Grand Ave,41.891112666666665,-87.66667766666667,216,203,231,262,447,465,31,6.97,6.55,7.45,8.45,14.42,15.0
10,2023,13053,Green St & Washington Blvd,41.88318130597391,-87.64872461557388,267,270,327,383,594,653,31,8.61,8.71,10.55,12.35,19.16,21.06
10,2023,13292,Kedzie Ave & Palmer Ct,41.921525,-87.707322,199,182,185,194,384,376,31,6.42,5.87,5.97,6.26,12.39,12.13
10,2023,KA1504000160,Francisco Ave & Foster Ave,41.975672722,-87.701431274,92,89,80,93,172,182,31,2.97,2.87,2.58,3.0,5.55,5.87
10,2023,TA1309000026,Lincoln Ave & Belle Plaine Ave,41.95600355078549,-87.68016144633293,224,224,274,299,498,523,31,7.23,7.23,8.84,9.65,16.06,16.87
10,2023,TA1307000119,Clarendon Ave & Leland Ave,41.967968,-87.650001,258,254,314,301,572,555,31,8.32,8.19,10.13,9.71,18.45,17.9
10,2023,13215,Rhodes Ave & 32nd St,41.836208,-87.613533,390,370,670,562,1060,932,31,12.58,11.94,21.61,18.13,34.19,30.06
10,2023,TA1308000046,Morgan St & 31st St,41.8378,-87.65114,206,205,199,201,405,406,31,6.65,6.61,6.42,6.48,13.06,13.1
10,2023,TA1309000004,LaSalle St & Jackson Blvd,41.878111243,-87.631644368,678,654,877,922,1555,1576,31,21.87,21.1,28.29,29.74,50.16,50.84
10,2023,13124,Cannon Dr & Fullerton Ave,41.9267559875,-87.6344287848,104,100,253,279,357,379,31,3.35,3.23,8.16,9.0,11.52,12.23
10,2023,KA1504000146,Clark St & Berwyn Ave,41.97803062248656,-87.66856491565704,587,581,432,490,1019,1071,31,18.94,18.74,13.94,15.81,32.87,34.55
10,2023,446,Francisco Ave & Montrose Ave,41.961046457,-87.700915337,103,91,0,0,103,91,31,3.32,2.94,0.0,0.0,3.32,2.94
10,2023,20232,Big Marsh Park,41.68587705562333,-87.57382392883301,0,0,9,8,9,8,9,0.0,0.0,1.0,0.89,1.0,0.89
10,2023,445,Western Ave & Gunnison St,41.96960633333333,-87.6896565,101,91,0,0,101,91,31,3.26,2.94,0.0,0.0,3.26,2.94
10,2023,464,Western Ave & Ardmore Ave,41.9866245,-87.68963266666667,18,20,0,0,18,20,16,1.12,1.25,0.0,0.0,1.12,1.25
10,2023,452,Richmond St & Lincoln Ave,41.988333833333336,-87.7030565,15,14,0,0,15,14,10,1.5,1.4,0.0,0.0,1.5,1.4
10,2023,21390,California Ave & Marquette Rd,41.771611,-87.693331,0,0,3,2,3,2,4,0.0,0.0,0.75,0.5,0.75,0.5
10,2023,KA1503000024,Yates Blvd & 75th St,41.758743286,-87.566471934,9,8,10,9,19,17,17,0.53,0.47,0.59,0.53,1.12,1.0
10,2023,594,Western Blvd & 48th Pl,41.805661,-87.683392,16,16,28,30,44,46,26,0.62,0.62,1.08,1.15,1.69,1.77
10,2023,20212,Altgeld Gardens,41.65666552967373,-87.59880065917969,0,0,2,1,2,1,1,0.0,0.0,2.0,1.0,2.0,1.0
10,2023,402,Kenneth Ave & 50th St,41.802319288,-87.734405756,5,2,0,0,5,2,4,1.25,0.5,0.0,0.0,1.25,0.5
10,2023,KA1504000147,Winchester (Ravenswood) Ave & Balmoral Ave,41.979762,-87.67753,83,82,58,84,141,166,31,2.68,2.65,1.87,2.71,4.55,5.35
10,2023,653B,Stony Island Ave & 63rd St,41.780506,-87.586853,9,9,17,14,26,23,21,0.43,0.43,0.81,0.67,1.24,1.1
10,2023,TA1309000030,Southport Ave & Clybourn Ave,41.92077291,-87.663597345,367,379,434,546,801,925,31,11.84,12.23,14.0,17.61,25.84,29.84
10,2023,16948,Ashland Ave & 63rd St,41.779374,-87.664843,1,1,8,5,9,6,10,0.1,0.1,0.8,0.5,0.9,0.6
10,2023,KA1503000034,LaSalle St & Adams St,41.87946433333333,-87.63243233333333,227,213,285,265,512,478,31,7.32,6.87,9.19,8.55,16.52,15.42
10,2023,15653,Troy St & North Ave,41.909825683,-87.705312252,125,118,88,99,213,217,31,4.03,3.81,2.84,3.19,6.87,7.0
10,2023,KA1503000001,Shields Ave & 43rd St,41.816232166666666,-87.634547,15,19,16,18,31,37,26,0.58,0.73,0.62,0.69,1.19,1.42
10,2023,RP-005,Western Ave & Lunt Ave,42.0085943972,-87.6904922389,96,92,89,102,185,194,31,3.1,2.97,2.87,3.29,5.97,6.26
10,2023,342,Kedzie Ave & 45th St,41.811446667,-87.704043865,4,3,0,0,4,3,7,0.57,0.43,0.0,0.0,0.57,0.43
10,2023,15544,Shedd Aquarium,41.86722595682,-87.6153553902,567,522,1578,1490,2145,2012,31,18.29,16.84,50.9,48.06,69.19,64.9
10,2023,TA1309000023,Sheffield Ave & Wrightwood Ave,41.92866466666667,-87.65375066666667,603,578,1105,1079,1708,1657,31,19.45,18.65,35.65,34.81,55.1,53.45
10,2023,TA1307000143,Sedgwick St & Schiller St,41.907626,-87.638566,176,165,334,288,510,453,31,5.68,5.32,10.77,9.29,16.45,14.61
10,2023,657,Wood St & Augusta Blvd,41.899181,-87.6722,312,297,323,287,635,584,31,10.06,9.58,10.42,9.26,20.48,18.84
10,2023,23003,Halsted St & Fulton St,41.886871,-87.648089,837,836,933,1038,1770,1874,31,27.0,26.97,30.1,33.48,57.1,60.45
10,2023,TA1307000121,Halsted St & Polk St,41.871794224,-87.646674514,931,922,1176,1178,2107,2100,31,30.03,29.74,37.94,38.0,67.97,67.74
10,2023,13294,Greenview Ave & Diversey Pkwy,41.93258963429789,-87.66593635082245,230,234,406,436,636,670,31,7.42,7.55,13.1,14.06,20.52,21.61
10,2023,KA1504000093,Rockwell St & Eastwood Ave,41.96582266666667,-87.6936255,122,121,191,189,313,310,31,3.94,3.9,6.16,6.1,10.1,10.0
10,2023,16010,Keystone Ave & Fullerton Ave,41.924595833333335,-87.727932,54,50,46,34,100,84,30,1.8,1.67,1.53,1.13,3.33,2.8
10,2023,KA1504000126,Kedzie Ave & Leland Ave,41.966683333333336,-87.70803216666667,86,87,80,86,166,173,31,2.77,2.81,2.58,2.77,5.35,5.58
10,2023,KA1503000043,Kingsbury St & Kinzie St,41.88915866666667,-87.6383985,1247,1204,2120,2046,3367,3250,31,40.23,38.84,68.39,66.0,108.61,104.84
10,2023,TA1307000134,Wilton Ave & Belmont Ave,41.94005692,-87.653013825,1036,1031,1528,1505,2564,2536,31,33.42,33.26,49.29,48.55,82.71,81.81
10,2023,TA1307000138,Wood St & Webster Ave,41.921052333333336,-87.67281366666667,140,143,160,167,300,310,31,4.52,4.61,5.16,5.39,9.68,10.0
10,2023,13193,Larrabee St & Webster Ave,41.92183383333333,-87.64408433333334,740,723,1041,1090,1781,1813,31,23.87,23.32,33.58,35.16,57.45,58.48
10,2023,23106,Kenneth Ave & Lawrence Ave,41.967943,-87.739983,5,10,20,20,25,30,15,0.33,0.67,1.33,1.33,1.67,2.0
10,2023,392,Homan Ave & 65th St,41.775207,-87.708141,6,2,0,0,6,2,5,1.2,0.4,0.0,0.0,1.2,0.4
10,2023,TA1307000158,Damen Ave & Leland Ave,41.967094,-87.679028,315,309,373,365,688,674,31,10.16,9.97,12.03,11.77,22.19,21.74
10,2023,TA1305000020,Ogden Ave & Chicago Ave,41.896362458,-87.6540612729,697,675,661,653,1358,1328,31,22.48,21.77,21.32,21.06,43.81,42.84
10,2023,16994,Kilbourn Ave & Milwaukee Ave,41.94707089418471,-87.74000823497772,27,30,16,20,43,50,30,0.9,1.0,0.53,0.67,1.43,1.67
10,2023,TA1307000062,Sedgwick St & Huron St,41.894624114,-87.63841176,621,575,978,779,1599,1354,31,20.03,18.55,31.55,25.13,51.58,43.68
10,2023,TA1309000036,Burling St & Diversey Pkwy,41.93313066666666,-87.64768833333333,401,404,844,864,1245,1268,31,12.94,13.03,27.23,27.87,40.16,40.9
10,2023,23002,Lincoln Ave & Byron St,41.952318,-87.67722766666667,223,220,205,204,428,424,31,7.19,7.1,6.61,6.58,13.81,13.68
10,2023,TA1308000022,Pine Grove Ave & Irving Park Rd,41.954383,-87.648043,607,594,890,823,1497,1417,31,19.58,19.16,28.71,26.55,48.29,45.71
10,2023,chargingstx2,Wilton Ave & Diversey Pkwy*,41.932423949,-87.652702332,86,105,120,177,206,282,26,3.31,4.04,4.62,6.81,7.92,10.85
10,2023,13257,Campbell Ave & North Ave,41.910546064,-87.689534307,285,291,332,313,617,604,31,9.19,9.39,10.71,10.1,19.9,19.48
10,2023,TA1305000037,Paulina Ave & North Ave,41.910370708,-87.670094252,328,334,296,353,624,687,31,10.58,10.77,9.55,11.39,20.13,22.16
10,2023,18062,Aberdeen St & Randolph St,41.884114,-87.654264,505,493,538,547,1043,1040,31,16.29,15.9,17.35,17.65,33.65,33.55
10,2023,RP-004,Oakley Ave & Touhy Ave,42.012342,-87.688243,52,49,44,45,96,94,31,1.68,1.58,1.42,1.45,3.1,3.03
10,2023,20207,Major Taylor Trail & 115th St,41.684947014,-87.645346045,1,1,9,9,10,10,11,0.09,0.09,0.82,0.82,0.91,0.91
10,2023,TA1308000014,Normal Ave & Archer Ave,41.849527,-87.640591,82,87,76,68,158,155,32,2.56,2.72,2.38,2.12,4.94,4.84
10,2023,TA1309000003,Western Ave & 24th St,41.848508358,-87.685150981,35,34,17,19,52,53,31,1.13,1.1,0.55,0.61,1.68,1.71
10,2023,777,Public Rack - Midway Orange Line,41.78566432,-87.738065124,30,29,0,0,30,29,20,1.5,1.45,0.0,0.0,1.5,1.45
10,2023,TA1309000066,Ravenswood Ave & Lawrence Ave,41.968470097,-87.674310446,809,786,662,659,1471,1445,31,26.1,25.35,21.35,21.26,47.45,46.61
10,2023,TA1307000149,Ravenswood Ave & Irving Park Rd,41.95469,-87.67393,259,260,281,326,540,586,31,8.35,8.39,9.06,10.52,17.42,18.9
10,2023,TA1309000050,Lincoln Ave & Addison St,41.946176,-87.673308,134,139,192,215,326,354,31,4.32,4.48,6.19,6.94,10.52,11.42
10,2023,13259,California Ave & Francis Pl,41.9186025,-87.69743533333333,253,237,236,200,489,437,31,8.16,7.65,7.61,6.45,15.77,14.1
10,2023,KA1504000090,St. Louis Ave & Fullerton Ave,41.92483333333333,-87.71449366666667,132,126,187,181,319,307,31,4.26,4.06,6.03,5.84,10.29,9.9
10,2023,TA1308000021,Winthrop Ave & Lawrence Ave,41.968812,-87.657659,324,316,361,397,685,713,31,10.45,10.19,11.65,12.81,22.1,23.0
10,2023,TA1307000128,Dearborn Pkwy & Delaware Pl,41.898969,-87.629912,728,727,1146,1119,1874,1846,31,23.48,23.45,36.97,36.1,60.45,59.55
10,2023,357,Lamon Ave & Armitage Ave,41.9167205,-87.74945916666667,27,25,0,0,27,25,20,1.35,1.25,0.0,0.0,1.35,1.25
10,2023,1047,Public Rack - Maplewood Ave & 47th St,41.808488965,-87.688567519,1,1,0,0,1,1,1,1.0,1.0,0.0,0.0,1.0,1.0
10,2023,13037,Clinton St & Tilden St,41.87577116666667,-87.64083533333333,175,153,405,312,580,465,31,5.65,4.94,13.06,10.06,18.71,15.0
10,2023,345,Artesian Ave & 55th St,41.794090748,-87.685859561,9,8,0,0,9,8,10,0.9,0.8,0.0,0.0,0.9,0.8
10,2023,430,Troy St & Grace St,41.950169333333335,-87.706318,94,90,0,0,94,90,31,3.03,2.9,0.0,0.0,3.03,2.9
10,2023,643,Smith Park,41.891995,-87.68938983333334,106,104,97,107,203,211,31,3.42,3.35,3.13,3.45,6.55,6.81
10,2023,KA1504000104,Paulina St & Flournoy St,41.87306108789792,-87.66913488507271,401,402,406,426,807,828,31,12.94,12.97,13.1,13.74,26.03,26.71
10,2023,15585,Budlong Woods Library,41.98365483333333,-87.69640733333334,60,58,24,39,84,97,31,1.94,1.87,0.77,1.26,2.71,3.13
10,2023,649,Stewart Ave & 63rd St,41.779835,-87.634774,1,1,11,6,12,7,10,0.1,0.1,1.1,0.6,1.2,0.7
10,2023,458,Washtenaw Ave & Peterson Ave,41.990699887,-87.69705224,15,16,0,0,15,16,15,1.0,1.07,0.0,0.0,1.0,1.07
10,2023,16918,Austin Blvd & Madison St,41.880281,-87.774453,8,7,9,7,17,14,19,0.42,0.37,0.47,0.37,0.89,0.74
10,2023,393,Oketo Ave & Addison St,41.944934249,-87.8118155,2,2,0,0,2,2,1,2.0,2.0,0.0,0.0,2.0,2.0
10,2023,1145.0,Public Rack - Peterson Ave & Milwaukee Ave,41.989775538,-87.780903339,2,2,0,0,2,2,2,1.0,1.0,0.0,0.0,1.0,1.0
10,2023,16921,Austin Blvd & Chicago Ave,41.894887,-87.774704,5,7,8,9,13,16,14,0.36,0.5,0.57,0.64,0.93,1.14
10,2023,TA1307000160,Prairie Ave & Garfield Blvd,41.794853,-87.618691,41,36,108,73,149,109,31,1.32,1.16,3.48,2.35,4.81,3.52
10,2023,930,Public Rack - Washtenaw Ave & Devon Ave,41.99773066666667,-87.6973045,9,10,0,0,9,10,13,0.69,0.77,0.0,0.0,0.69,0.77
10,2023,442,Lincoln Ave & Balmoral Ave,41.97946918,-87.693021655,41,33,0,0,41,33,25,1.64,1.32,0.0,0.0,1.64,1.32
10,2023,523,Eastlake Ter & Howard St,42.019214,-87.66437566666667,96,95,110,92,206,187,31,3.1,3.06,3.55,2.97,6.65,6.03
10,2023,570,Evans Ave & 75th St,41.75849,-87.60641,0,0,9,9,9,9,12,0.0,0.0,0.75,0.75,0.75,0.75
10,2023,13243,Milwaukee Ave & Wabansia Ave,41.912616,-87.681391,487,481,619,647,1106,1128,31,15.71,15.52,19.97,20.87,35.68,36.39
10,2023,TA1306000025,Racine Ave & Congress Pkwy,41.87464,-87.65703,317,290,646,558,963,848,31,10.23,9.35,20.84,18.0,31.06,27.35
10,2023,chargingstx4,Morgan St & Lake St*,41.885428786,-87.652364492,442,440,515,633,957,1073,31,14.26,14.19,16.61,20.42,30.87,34.61
10,2023,13006,LaSalle St & Washington St,41.882845333333336,-87.6328195,368,367,371,380,739,747,31,11.87,11.84,11.97,12.26,23.84,24.1
10,2023,KA1504000171,Marine Dr & Ainslie St,41.971604586,-87.650266409,235,235,273,271,508,506,31,7.58,7.58,8.81,8.74,16.39,16.32
10,2023,TA1307000129,State St & 35th St,41.831080166666666,-87.62694533333334,314,319,448,532,762,851,31,10.13,10.29,14.45,17.16,24.58,27.45
10,2023,434,Albany Ave & Belmont Ave,41.93969483333333,-87.70523566666667,59,56,0,0,59,56,28,2.11,2.0,0.0,0.0,2.11,2.0
10,2023,433,Elston Ave & Henderson St,41.941572309,-87.700831294,59,57,0,0,59,57,30,1.97,1.9,0.0,0.0,1.97,1.9
10,2023,KA1503000047,Perry Ave & 69th St,41.76929716666667,-87.62821816666667,12,11,13,10,25,21,22,0.55,0.5,0.59,0.45,1.14,0.95
10,2023,KA1503000059,Lake Park Ave & 53rd St,41.7995575,-87.58613116666666,246,239,610,657,856,896,31,7.94,7.71,19.68,21.19,27.61,28.9
10,2023,13263,Columbus Dr & Randolph St,41.88432666666667,-87.61971933333334,848,767,1238,840,2086,1607,31,27.35,24.74,39.94,27.1,67.29,51.84
10,2023,1036,Public Rack - Kedzie Ave & 60th St,41.785012245,-87.703188896,3,4,0,0,3,4,4,0.75,1.0,0.0,0.0,0.75,1.0
10,2023,13303,Clark St & Chicago Ave,41.8962685,-87.63088866666666,342,320,615,579,957,899,31,11.03,10.32,19.84,18.68,30.87,29.0
10,2023,544,Public Rack - Laramie Ave & Belmont Ave,41.938653333333335,-87.75574316666666,5,7,0,0,5,7,8,0.62,0.88,0.0,0.0,0.62,0.88
10,2023,20128,S Wentworth Ave & W 111th St,41.692635059,-87.62827611,4,2,0,0,4,2,4,1.0,0.5,0.0,0.0,1.0,0.5
10,2023,KA1504000148,Clark St & Elmdale Ave,41.990864992,-87.669615388,169,171,164,158,333,329,31,5.45,5.52,5.29,5.1,10.74,10.61
10,2023,13134,Damen Ave & Madison St,41.881434321,-87.674899936,221,195,208,185,429,380,31,7.13,6.29,6.71,5.97,13.84,12.26
10,2023,13075,Wentworth Ave & Cermak Rd,41.85308455741279,-87.63193130493164,149,146,241,279,390,425,31,4.81,4.71,7.77,9.0,12.58,13.71
10,2023,15443,Shields Ave & 28th Pl,41.842859,-87.635418,99,100,138,167,237,267,31,3.19,3.23,4.45,5.39,7.65,8.61
10,2023,TA1308000005,Leavitt St & North Ave,41.91050936666395,-87.6823890209198,321,314,380,404,701,718,31,10.35,10.13,12.26,13.03,22.61,23.16
10,2023,KA1503000025,Wentworth Ave & 63rd St,41.78007963264,-87.6297463052,9,6,18,11,27,17,23,0.39,0.26,0.78,0.48,1.17,0.74
10,2023,13345,Calumet Ave & 35th St,41.83140333333333,-87.61799866666667,131,138,281,323,412,461,31,4.23,4.45,9.06,10.42,13.29,14.87
10,2023,KA1503000066,Wood St & 35th St,41.83010465416,-87.6702983089,32,31,34,45,66,76,29,1.1,1.07,1.17,1.55,2.28,2.62
10,2023,KA1504000076,Ellis Ave & 55th St,41.794285,-87.60149316666667,536,527,2301,2371,2837,2898,31,17.29,17.0,74.23,76.48,91.52,93.48
10,2023,TA1308000002,Greenwood Ave & 47th St,41.809835,-87.599383,64,58,165,128,229,186,31,2.06,1.87,5.32,4.13,7.39,6.0
10,2023,KA1504000114,Kedzie Ave & Chicago Ave,41.895418,-87.70613583333333,29,26,25,30,54,56,27,1.07,0.96,0.93,1.11,2.0,2.07
10,2023,534,Karlov Ave & Madison St,41.880840063,-87.727929115,9,7,8,3,17,10,15,0.6,0.47,0.53,0.2,1.13,0.67
10,2023,KA1503000020,South Shore Dr & 74th St,41.7623015,-87.5592625,15,13,30,28,45,41,26,0.58,0.5,1.15,1.08,1.73,1.58
10,2023,13216,State St & 33rd St,41.83475583333333,-87.6257675,784,779,1558,1533,2342,2312,31,25.29,25.13,50.26,49.45,75.55,74.58
10,2023,372,Hamlin Ave & Grand Ave,41.90401883333333,-87.72154116666667,11,4,0,0,11,4,11,1.0,0.36,0.0,0.0,1.0,0.36
10,2023,13398,Blackstone Ave & Hyde Park Blvd,41.802562,-87.590368,131,133,431,459,562,592,31,4.23,4.29,13.9,14.81,18.13,19.1
10,2023,16920,Central Ave & Chicago Ave,41.894968271,-87.764863253,19,14,5,4,24,18,15,1.27,0.93,0.33,0.27,1.6,1.2
10,2023,KA1503000014,Ellis Ave & 60th St,41.78509714636,-87.6010727606,693,676,3225,3204,3918,3880,31,22.35,21.81,104.03,103.35,126.39,125.16
10,2023,13338,Mies van der Rohe Way & Chicago Ave,41.896944626370825,-87.62175768613815,556,557,723,802,1279,1359,31,17.94,17.97,23.32,25.87,41.26,43.84
10,2023,13028,900 W Harrison St,41.874754,-87.649807,591,575,933,860,1524,1435,31,19.06,18.55,30.1,27.74,49.16,46.29
10,2023,13164,Racine Ave & 18th St,41.858166,-87.656495,258,256,283,327,541,583,31,8.32,8.26,9.13,10.55,17.45,18.81
10,2023,TA1307000130,Morgan St & Polk St,41.871737,-87.65103,1135,1112,1317,1358,2452,2470,31,36.61,35.87,42.48,43.81,79.1,79.68
10,2023,TA1307000111,Franklin St & Lake St,41.885837,-87.6355,692,643,794,696,1486,1339,31,22.32,20.74,25.61,22.45,47.94,43.19
10,2023,438,Western Ave & Berteau Ave,41.957733035,-87.688251615,65,59,0,0,65,59,29,2.24,2.03,0.0,0.0,2.24,2.03
10,2023,13085,Kedzie Ave & Milwaukee Ave,41.929567,-87.707857,614,615,569,609,1183,1224,31,19.81,19.84,18.35,19.65,38.16,39.48
10,2023,743,Public Rack - May St & 63rd St,41.77968916666666,-87.653135,1,1,0,0,1,1,2,0.5,0.5,0.0,0.0,0.5,0.5
10,2023,20124,Vincennes Ave & 104th St,41.704910874,-87.657071471,11,6,12,2,23,8,16,0.69,0.38,0.75,0.12,1.44,0.5
10,2023,chargingstx06,Fort Dearborn Dr & 31st St*,41.83867632897121,-87.60883212089539,91,89,319,382,410,471,31,2.94,2.87,10.29,12.32,13.23,15.19
10,2023,23001,Elizabeth St & Randolph St,41.884347,-87.6589875,455,457,477,470,932,927,31,14.68,14.74,15.39,15.16,30.06,29.9
10,2023,TA1308000031,Logan Blvd & Elston Ave,41.92943916666667,-87.68418366666667,277,281,286,348,563,629,31,8.94,9.06,9.23,11.23,18.16,20.29
10,2023,chargingstx3,Green St & Randolph St*,41.88346416666667,-87.64862583333333,317,318,420,487,737,805,31,10.23,10.26,13.55,15.71,23.77,25.97
10,2023,13058,Dayton St & North Ave,41.9105780349,-87.6494219288,532,532,669,686,1201,1218,31,17.16,17.16,21.58,22.13,38.74,39.29
10,2023,KA1504000134,Ritchie Ct & Banks St,41.906866,-87.626217,378,376,533,491,911,867,31,12.19,12.13,17.19,15.84,29.39,27.97
10,2023,382,Kedzie Ave & 48th Pl,41.804698,-87.70409566666666,66,58,0,0,66,58,28,2.36,2.07,0.0,0.0,2.36,2.07
10,2023,TA1309000043,Southport Ave & Irving Park Rd,41.954178452,-87.664128542,322,322,450,420,772,742,31,10.39,10.39,14.52,13.55,24.9,23.94
10,2023,TA1309000033,Sheffield Ave & Webster Ave,41.92154,-87.653818,687,677,1089,1124,1776,1801,31,22.16,21.84,35.13,36.26,57.29,58.1
10,2023,324,Meade Ave & Addison St,41.945871833333335,-87.77895533333333,10,7,0,0,10,7,11,0.91,0.64,0.0,0.0,0.91,0.64
10,2023,383,Campbell Ave & 51st St,41.80089316666667,-87.68675233333333,11,9,0,0,11,9,12,0.92,0.75,0.0,0.0,0.92,0.75
10,2023,569,Woodlawn Ave & 75th St,41.75916,-87.595751,11,5,4,4,15,9,12,0.92,0.42,0.33,0.33,1.25,0.75
10,2023,KA1504000102,Fairfield Ave & Roosevelt Rd,41.866624,-87.694521,12,10,10,5,22,15,17,0.71,0.59,0.59,0.29,1.29,0.88
10,2023,20224,Calumet Park,41.71370983035615,-87.53084421157837,1,3,6,5,7,8,6,0.17,0.5,1.0,0.83,1.17,1.33
10,2023,1072,Public Rack - Washington Park Ct & 51st St,41.80215116666667,-87.61513166666667,23,21,0,0,23,21,14,1.64,1.5,0.0,0.0,1.64,1.5
10,2023,651,Michigan Ave & 71st St,41.765286,-87.621748,19,22,22,27,41,49,28,0.68,0.79,0.79,0.96,1.46,1.75
10,2023,KA1504000167,Kedzie Ave & Bryn Mawr Ave,41.98222975911517,-87.70888656377792,25,23,44,53,69,76,31,0.81,0.74,1.42,1.71,2.23,2.45
10,2023,460,Francisco Ave & Hollywood Ave,41.984409,-87.70152416666667,11,7,0,0,11,7,12,0.92,0.58,0.0,0.0,0.92,0.58
10,2023,567,May St & 69th St,41.768938,-87.652934,5,5,13,11,18,16,10,0.5,0.5,1.3,1.1,1.8,1.6
10,2023,1276.0,Public Rack - Hollywood Park,41.989203334,-87.711648822,16,19,0,0,16,19,17,0.94,1.12,0.0,0.0,0.94,1.12
10,2023,KA1503000009,Princeton Ave & 47th St,41.80931770924,-87.633449288,22,18,26,19,48,37,29,0.76,0.62,0.9,0.66,1.66,1.28
10,2023,23101,McCormick Blvd & Devon Ave,41.997136,-87.711217,28,28,55,59,83,87,29,0.97,0.97,1.9,2.03,2.86,3.0
10,2023,20260.0,Ping Tom Park (East),41.858205199,-87.631993413,48,28,0,0,48,28,24,2.0,1.17,0.0,0.0,2.0,1.17
10,2023,931,Public Rack - Western Ave & Devon Ave,41.997750333333336,-87.68964,20,17,0,0,20,17,19,1.05,0.89,0.0,0.0,1.05,0.89
10,2023,E011,Dodge Ave & Main St,42.03463185161588,-87.69918769598006,30,30,41,41,71,71,30,1.0,1.0,1.37,1.37,2.37,2.37
10,2023,20218,Avenue O & 118th St,41.68100145911039,-87.5379312226869,2,5,7,6,9,11,10,0.2,0.5,0.7,0.6,0.9,1.1
10,2023,20131,Cottage Grove Ave & 111th Pl,41.69170975847015,-87.61000156402588,1,0,8,6,9,6,5,0.2,0.0,1.6,1.2,1.8,1.2
10,2023,332.0,Harding Ave & 26th St,41.84459877,-87.723405361,6,5,0,0,6,5,8,0.75,0.62,0.0,0.0,0.75,0.62
10,2023,389,Maplewood Ave & 59th St,41.786307812,-87.687505007,7,6,0,0,7,6,9,0.78,0.67,0.0,0.0,0.78,0.67
10,2023,22001,Wells St & Institute Pl,41.897496833333335,-87.63438983333333,191,160,531,366,722,526,31,6.16,5.16,17.13,11.81,23.29,16.97
10,2023,TA1307000113,Southport Ave & Wrightwood Ave,41.928792666666666,-87.663829,463,459,600,642,1063,1101,31,14.94,14.81,19.35,20.71,34.29,35.52
10,2023,TA1307000163,Clifton Ave & Armitage Ave,41.918232322,-87.657119274,359,358,539,573,898,931,31,11.58,11.55,17.39,18.48,28.97,30.03
10,2023,13247,Ashland Ave & Chicago Ave,41.896052,-87.6678555,260,254,296,321,556,575,31,8.39,8.19,9.55,10.35,17.94,18.55
10,2023,TA1307000038,Sedgwick St & North Ave,41.911386,-87.638677,485,474,906,845,1391,1319,31,15.65,15.29,29.23,27.26,44.87,42.55
10,2023,TA1306000015,Sangamon St & Lake St,41.88577925240433,-87.65102460980414,493,519,570,753,1063,1272,31,15.9,16.74,18.39,24.29,34.29,41.03
10,2023,13277,Broadway & Belmont Ave,41.940107107,-87.64555645,578,580,926,953,1504,1533,31,18.65,18.71,29.87,30.74,48.52,49.45
10,2023,TA1305000035,State St & Van Buren St,41.877011299,-87.628168821,336,335,634,685,970,1020,31,10.84,10.81,20.45,22.1,31.29,32.9
10,2023,SL-005,Indiana Ave & Roosevelt Rd,41.867933666666666,-87.62304616666667,633,597,1592,1514,2225,2111,31,20.42,19.26,51.35,48.84,71.77,68.1
10,2023,387,St Louis Ave & 59th St,41.78589883333333,-87.7105575,38,42,0,0,38,42,27,1.41,1.56,0.0,0.0,1.41,1.56
10,2023,969,Public Rack - Lamon Ave & Erie St,41.892190166666666,-87.74686416666667,1,1,0,0,1,1,1,1.0,1.0,0.0,0.0,1.0,1.0
10,2023,TA1307000066,Damen Ave & Coulter St,41.849191785,-87.675637841,16,16,5,7,21,23,11,1.45,1.45,0.45,0.64,1.91,2.09
10,2023,21361,Kenosha Ave & Wellington Ave,41.93448566666667,-87.73377733333334,41,38,12,13,53,51,26,1.58,1.46,0.46,0.5,2.04,1.96
10,2023,397,Narragansett Ave & School St,41.9401525,-87.78642983333333,18,18,0,0,18,18,21,0.86,0.86,0.0,0.0,0.86,0.86
10,2023,16912,Cicero Ave & Flournoy St,41.872131,-87.746619,14,9,5,2,19,11,18,0.78,0.5,0.28,0.11,1.06,0.61
10,2023,515,Paulina St & Howard St,42.019159,-87.673573,144,145,131,115,275,260,31,4.65,4.68,4.23,3.71,8.87,8.39
10,2023,13011,Canal St & Adams St,41.87949533333333,-87.64023666666667,1092,1093,1168,1246,2260,2339,31,35.23,35.26,37.68,40.19,72.9,75.45
10,2023,18058,Leavitt St & Chicago Ave,41.895501,-87.682017,290,249,292,275,582,524,31,9.35,8.03,9.42,8.87,18.77,16.9
10,2023,KA1503000028,Jeffery Blvd & 76th St,41.75712006802,-87.5758393587,2,2,6,5,8,7,9,0.22,0.22,0.67,0.56,0.89,0.78
10,2023,RP-001,Warren Park West,42.001785,-87.688829,40,38,39,62,79,100,30,1.33,1.27,1.3,2.07,2.63,3.33
10,2023,972,Public Rack - Normal Ave & 111th St,41.692345977,-87.635531664,6,6,0,0,6,6,4,1.5,1.5,0.0,0.0,1.5,1.5
10,2023,20234,Ashland Ave & 78th St,41.75220484941116,-87.66369938850403,1,0,7,8,8,8,9,0.11,0.0,0.78,0.89,0.89,0.89
10,2023,573,State St & 79th St,41.750794,-87.624424,8,8,26,31,34,39,27,0.3,0.3,0.96,1.15,1.26,1.44
10,2023,13042,Michigan Ave & Oak St,41.90118566666666,-87.62366466666667,784,774,1700,1735,2484,2509,31,25.29,24.97,54.84,55.97,80.13,80.94
10,2023,13290,Noble St & Milwaukee Ave (Temp),41.89984,-87.661463,325,310,308,280,633,590,31,10.48,10.0,9.94,9.03,20.42,19.03
10,2023,KA1503000074,Museum of Science and Industry,41.79172820953,-87.583945009,135,118,399,399,534,517,31,4.35,3.81,12.87,12.87,17.23,16.68
10,2023,15651,Humboldt Blvd & Armitage Ave,41.91751339399,-87.7018089555,214,207,275,240,489,447,31,6.9,6.68,8.87,7.74,15.77,14.42
10,2023,KA1503000038,Shields Ave & 31st St,41.838496804,-87.635272026,245,240,271,272,516,512,31,7.9,7.74,8.74,8.77,16.65,16.52
10,2023,15650,Spaulding Ave & Armitage Ave,41.91710803478932,-87.71022096276283,288,288,264,279,552,567,31,9.29,9.29,8.52,9.0,17.81,18.29
10,2023,344,Springfield Ave & 47th St,41.808111333333336,-87.721192,11,6,0,0,11,6,12,0.92,0.5,0.0,0.0,0.92,0.5
10,2023,23140,California Ave & 71st St,41.76479333333333,-87.69313633333333,4,6,7,10,11,16,9,0.44,0.67,0.78,1.11,1.22,1.78
10,2023,23141,Artesian Ave & 71st St,41.764345,-87.684417,0,0,3,4,3,4,4,0.0,0.0,0.75,1.0,0.75,1.0
10,2023,20115,Martin Luther King Dr & 111th St,41.692626357,-87.613694191,6,3,0,0,6,3,6,1.0,0.5,0.0,0.0,1.0,0.5
10,2023,23104,California Ave & Granville Ave,41.994028,-87.699302,6,7,14,16,20,23,11,0.55,0.64,1.27,1.45,1.82,2.09
10,2023,527,Western Ave & Howard St,42.018928051,-87.690014839,45,37,78,70,123,107,31,1.45,1.19,2.52,2.26,3.97,3.45
10,2023,813,Public Rack - Calumet Ave & 51st St,41.802256166666666,-87.61809133333334,19,23,0,0,19,23,17,1.12,1.35,0.0,0.0,1.12,1.35
10,2023,202480.0,Hampden Ct & Diversey Ave,41.932371333333336,-87.642774,367,372,0,0,367,372,31,11.84,12.0,0.0,0.0,11.84,12.0
10,2023,PI00001,Damen Ave/Coulter St,41.8492,-87.67564,34,34,20,18,54,52,20,1.7,1.7,1.0,0.9,2.7,2.6
10,2023,598,Elmwood Ave & Austin St,42.025784,-87.684107,38,37,52,64,90,101,31,1.23,1.19,1.68,2.06,2.9,3.26
10,2023,1045,Public Rack - Hoyne Ave & 51st St,41.801149333333335,-87.67690633333333,1,1,0,0,1,1,2,0.5,0.5,0.0,0.0,0.5,0.5
10,2023,23142,Artesian Ave & Marquette Rd,41.77203,-87.684637,4,4,3,0,7,4,10,0.4,0.4,0.3,0.0,0.7,0.4
10,2023,662,Public Rack - Cottage Grove & 86th St,41.738139629,-87.604755998,21,21,27,30,48,51,30,0.7,0.7,0.9,1.0,1.6,1.7
10,2023,20213,Commercial Ave & 130th St,41.659118176,-87.550693631,13,13,2,2,15,15,11,1.18,1.18,0.18,0.18,1.36,1.36
10,2023,20225,Commercial Ave & 100th St,41.71331739547703,-87.55109757184982,1,2,3,5,4,7,6,0.17,0.33,0.5,0.83,0.67,1.17
10,2023,15686,Kedzie Ave & 21st St,41.853534,-87.7050915,24,19,3,7,27,26,22,1.09,0.86,0.14,0.32,1.23,1.18
10,2023,343,Pulaski Rd & 51st St,41.80041466666667,-87.72476166666667,40,30,0,0,40,30,25,1.6,1.2,0.0,0.0,1.6,1.2
10,2023,20126,S Aberdeen St & W 106th St,41.701273799,-87.649327636,9,12,0,0,9,12,14,0.64,0.86,0.0,0.0,0.64,0.86
10,2023,15615,Christiana Ave & Lawrence Ave,41.968394518,-87.711782694,105,94,78,81,183,175,31,3.39,3.03,2.52,2.61,5.9,5.65
10,2023,TA1309000058,Lincoln Ave & Fullerton Ave,41.924161029067626,-87.64638036489487,827,824,1153,1191,1980,2015,31,26.68,26.58,37.19,38.42,63.87,65.0
10,2023,20.0,Damen Ave & Wabansia Ave,41.912304,-87.67730633333333,318,319,0,0,318,319,31,10.26,10.29,0.0,0.0,10.26,10.29
10,2023,13192,Halsted St & Dickens Ave,41.91998933333333,-87.64893216666667,586,577,784,862,1370,1439,31,18.9,18.61,25.29,27.81,44.19,46.42
10,2023,KA1503000045,Stony Island Ave & 71st St,41.7664929373,-87.5864608775,8,9,45,41,53,50,31,0.26,0.29,1.45,1.32,1.71,1.61
10,2023,1184.0,Public Rack - Ozman & Talcott,41.993024111,-87.821662664,1,1,0,0,1,1,1,1.0,1.0,0.0,0.0,1.0,1.0
10,2023,TA1307000001,Greenview Ave & Fullerton Ave,41.925346613,-87.665786982,460,446,612,610,1072,1056,31,14.84,14.39,19.74,19.68,34.58,34.06
10,2023,KA1504000096,Sawyer Ave & Irving Park Rd,41.953624129,-87.70932889,76,77,70,72,146,149,31,2.45,2.48,2.26,2.32,4.71,4.81
10,2023,15692,California Ave & 26th St,41.8436799145765,-87.69496858119965,17,15,9,6,26,21,18,0.94,0.83,0.5,0.33,1.44,1.17
10,2023,21374,Kilpatrick Ave & Grand Ave,41.912608862,-87.743567705,11,8,3,9,14,17,17,0.65,0.47,0.18,0.53,0.82,1.0
10,2023,15666,California Ave & Lake St,41.884412885,-87.696316242,64,39,58,38,122,77,31,2.06,1.26,1.87,1.23,3.94,2.48
10,2023,E002,Chicago Ave & Washington St,42.03261633333333,-87.67918933333333,138,137,149,158,287,295,31,4.45,4.42,4.81,5.1,9.26,9.52
10,2023,999,Public Rack - Champlain Ave & 65th St,41.775744333333336,-87.6094115,17,24,0,0,17,24,20,0.85,1.2,0.0,0.0,0.85,1.2
10,2023,432,Sacramento Blvd & Addison St,41.946097,-87.70297116666667,70,62,0,0,70,62,29,2.41,2.14,0.0,0.0,2.41,2.14
10,2023,20257.0,N Southport Ave & W Newport Ave,41.944131374,-87.663975954,105,108,0,0,105,108,28,3.75,3.86,0.0,0.0,3.75,3.86
10,2023,15644,Central Park Ave & Elbridge Ave,41.93533728263,-87.7168892935,182,183,108,100,290,283,31,5.87,5.9,3.48,3.23,9.35,9.13
10,2023,631,Malcolm X College,41.87760316666667,-87.67389016666667,84,74,165,168,249,242,30,2.8,2.47,5.5,5.6,8.3,8.07
10,2023,TA1306000006,Orleans St & Elm St,41.902924,-87.637715,278,259,356,313,634,572,31,8.97,8.35,11.48,10.1,20.45,18.45
10,2023,13137,Broadway & Barry Ave,41.93758231600629,-87.6440978050232,976,993,1480,1599,2456,2592,31,31.48,32.03,47.74,51.58,79.23,83.61
10,2023,13063,Sheridan Rd & Irving Park Rd,41.954326868,-87.65441227,637,618,1137,1044,1774,1662,31,20.55,19.94,36.68,33.68,57.23,53.61
10,2023,KA1706005015,Kildare Ave & Montrose Ave,41.96108,-87.73569,17,14,74,67,91,81,30,0.57,0.47,2.47,2.23,3.03,2.7
10,2023,821,Public Rack - Western Blvd & 49th St,41.804929666666666,-87.6838835,10,8,0,0,10,8,9,1.11,0.89,0.0,0.0,1.11,0.89
10,2023,13325,Broadway & Waveland Ave,41.949074,-87.648636,744,744,1091,1158,1835,1902,31,24.0,24.0,35.19,37.35,59.19,61.35
10,2023,TA1309000027,Sheridan Rd & Buena Ave,41.958494,-87.654966,423,415,633,585,1056,1000,31,13.65,13.39,20.42,18.87,34.06,32.26
10,2023,520,Greenview Ave & Jarvis Ave,42.015962,-87.66857,132,133,169,158,301,291,31,4.26,4.29,5.45,5.1,9.71,9.39
10,2023,21462,Lincoln Ave & Peterson Ave,41.990267,-87.70857,23,16,23,23,46,39,19,1.21,0.84,1.21,1.21,2.42,2.05
10,2023,TA1305000005,Dearborn St & Adams St,41.8793563587,-87.6297910363,325,323,549,627,874,950,31,10.48,10.42,17.71,20.23,28.19,30.65
10,2023,KA1504000080,Washtenaw Ave & Lawrence Ave,41.968987,-87.696027,98,99,135,143,233,242,31,3.16,3.19,4.35,4.61,7.52,7.81
10,2023,1100.0,Public Rack - Melvina Ave & Montrose Ave,41.958795333333335,-87.78204466666666,4,5,0,0,4,5,6,0.67,0.83,0.0,0.0,0.67,0.83
10,2023,1126.0,Public Rack - Laramine Ave & Winnemac Ave,41.971817374,-87.757574439,10,9,0,0,10,9,8,1.25,1.12,0.0,0.0,1.25,1.12
10,2023,906,Public Rack - Prairie Ave & Garfield Blvd S,41.79441,-87.6189685,7,2,0,0,7,2,4,1.75,0.5,0.0,0.0,1.75,0.5
10,2023,553,Elizabeth St & 47th St,41.8084345,-87.656537,4,4,1,5,5,9,7,0.57,0.57,0.14,0.71,0.71,1.29
10,2023,599,Valli Produce - Evanston Plaza,42.039742,-87.699413,25,27,45,36,70,63,29,0.86,0.93,1.55,1.24,2.41,2.17
10,2023,1128.0,Public Rack - 4810 Keeler Ave,41.968321085,-87.733049393,7,8,0,0,7,8,8,0.88,1.0,0.0,0.0,0.88,1.0
10,2023,15442,Ashland Ave & Archer Ave,41.83920868403,-87.6656098589,94,89,73,64,167,153,31,3.03,2.87,2.35,2.06,5.39,4.94
10,2023,16932,Ashland Ave & Pershing Rd,41.8234795,-87.6656565,6,6,10,11,16,17,17,0.35,0.35,0.59,0.65,0.94,1.0
10,2023,13354,Ashland Ave & 13th St,41.865234,-87.666507,137,135,159,203,296,338,31,4.42,4.35,5.13,6.55,9.55,10.9
10,2023,16991,Milwaukee Ave & Cuyler Ave,41.954468,-87.749594,58,63,67,93,125,156,31,1.87,2.03,2.16,3.0,4.03,5.03
10,2023,582,Phillips Ave & 83rd St,41.744531,-87.56506,0,0,2,4,2,4,5,0.0,0.0,0.4,0.8,0.4,0.8
10,2023,1076.0,Public Rack - 82nd st & Kedzie Ave,41.743547678,-87.702354908,1,2,0,0,1,2,3,0.33,0.67,0.0,0.0,0.33,0.67
10,2023,322,Cicero Ave & Grace St,41.94973183333333,-87.746913,22,22,0,0,22,22,21,1.05,1.05,0.0,0.0,1.05,1.05
10,2023,KA1504000103,Western Ave & Walton St,41.89841768945,-87.6865960164,294,291,347,376,641,667,31,9.48,9.39,11.19,12.13,20.68,21.52
10,2023,SL-006,Wells St & 19th St,41.856802,-87.633879,39,38,124,134,163,172,31,1.26,1.23,4.0,4.32,5.26,5.55
10,2023,KA1503000010,Halsted St & 51st St,41.8017615,-87.6452225,5,7,8,7,13,14,14,0.36,0.5,0.57,0.5,0.93,1.0
10,2023,16933,Morgan St & Pershing Rd,41.823613,-87.650931,10,6,16,14,26,20,17,0.59,0.35,0.94,0.82,1.53,1.18
10,2023,TA1308000007,MLK Jr Dr & 47th St,41.809851,-87.616279,14,15,44,53,58,68,30,0.47,0.5,1.47,1.77,1.93,2.27
10,2023,RP-007,Clark St & Touhy Ave,42.01256011541,-87.6743671152,64,61,56,48,120,109,31,2.06,1.97,1.81,1.55,3.87,3.52
10,2023,20114,Doty Ave & 111th St,41.69501044938143,-87.59871482849121,8,6,2,0,10,6,6,1.33,1.0,0.33,0.0,1.67,1.0
10,2023,E007,Central St & Girard Ave,42.064313,-87.686152,35,33,63,51,98,84,31,1.13,1.06,2.03,1.65,3.16,2.71
10,2023,KA1503000069,Dorchester Ave & 49th St,41.805772,-87.592464,24,22,91,72,115,94,31,0.77,0.71,2.94,2.32,3.71,3.03
10,2023,866,Public Rack - Kostner Ave & Armitage Ave,41.917163253,-87.736251831,36,32,0,0,36,32,24,1.5,1.33,0.0,0.0,1.5,1.33
10,2023,15542,Clinton St & Polk St,41.87146651779,-87.6409491327,47,46,63,127,110,173,31,1.52,1.48,2.03,4.1,3.55,5.58
10,2023,20223,Ewing Ave & Burnham Greenway,41.71287783333333,-87.53476583333334,2,1,1,0,3,1,3,0.67,0.33,0.33,0.0,1.0,0.33
10,2023,KA1503000018,Jeffery Blvd & 71st St,41.76663823695,-87.5764501141,28,25,16,9,44,34,23,1.22,1.09,0.7,0.39,1.91,1.48
10,2023,TA1309000014,Clark St & Leland Ave,41.96708783918421,-87.66729086637497,400,400,544,543,944,943,31,12.9,12.9,17.55,17.52,30.45,30.42
10,2023,20253.0,N Paulina St & Lincoln Ave,41.943655849,-87.671431184,167,170,0,0,167,170,31,5.39,5.48,0.0,0.0,5.39,5.48
10,2023,13155,Racine Ave & Randolph St,41.884069,-87.656853,200,180,322,291,522,471,31,6.45,5.81,10.39,9.39,16.84,15.19
10,2023,16950,Ashland Ave & 66th St,41.774074,-87.663815,0,0,1,2,1,2,1,0.0,0.0,1.0,2.0,1.0,2.0
10,2023,KA1504000168,Western Ave & 28th St,41.84144533333333,-87.6851245,7,9,1,4,8,13,12,0.58,0.75,0.08,0.33,0.67,1.08
10,2023,844,Public Rack - Bishop St & 46th St,41.809713364,-87.661178231,7,9,0,0,7,9,9,0.78,1.0,0.0,0.0,0.78,1.0
10,2023,KA1503000049,Rainbow Beach,41.75787144829,-87.54938625,1,2,5,7,6,9,6,0.17,0.33,0.83,1.17,1.0,1.5
10,2023,584,Ellis Ave & 83rd St,41.744123,-87.599034,3,2,4,4,7,6,8,0.38,0.25,0.5,0.5,0.88,0.75
10,2023,16970,Bennett Ave & 79th St,41.75181216666667,-87.57851416666666,1,1,2,0,3,1,2,0.5,0.5,1.0,0.0,1.5,0.5
10,2023,KA1504000155,2112 W Peterson Ave,41.991195679,-87.683622003,48,46,19,29,67,75,29,1.66,1.59,0.66,1.0,2.31,2.59
10,2023,13083,Indiana Ave & 40th St,41.821641166666666,-87.62144583333334,22,17,22,16,44,33,23,0.96,0.74,0.96,0.7,1.91,1.43
10,2023,20247.0,W Washington Blvd & N Peoria St,41.883202,-87.64994966666667,115,48,0,0,115,48,29,3.97,1.66,0.0,0.0,3.97,1.66
10,2023,TA1308000026,Wentworth Ave & 24th St,41.85008369347577,-87.6321405172348,57,60,132,166,189,226,31,1.84,1.94,4.26,5.35,6.1,7.29
10,2023,KA17018054,Damen Ave & Walnut (Lake) St,41.885951,-87.677009,163,166,98,129,261,295,31,5.26,5.35,3.16,4.16,8.42,9.52
10,2023,KA1503000002,South Shore Dr & 71st St,41.766395926,-87.565793514,34,30,69,72,103,102,30,1.13,1.0,2.3,2.4,3.43,3.4
10,2023,679,Public Rack - Western Ave & 111th St - SW,41.691694736,-87.681742668,2,1,0,0,2,1,2,1.0,0.5,0.0,0.0,1.0,0.5
10,2023,KA1504000109,Washtenaw Ave & Ogden Ave,41.86193049278259,-87.69345045089722,16,14,30,23,46,37,25,0.64,0.56,1.2,0.92,1.84,1.48
10,2023,TA1309000051,Commercial Ave & 83rd St,41.744635701,-87.551156044,16,16,8,1,24,17,19,0.84,0.84,0.42,0.05,1.26,0.89
10,2023,317,Long Ave & Belmont Ave,41.938323,-87.76159116666666,15,14,0,0,15,14,17,0.88,0.82,0.0,0.0,0.88,0.82
10,2023,414,Sacramento Blvd & Fulton Ave,41.886541963,-87.701640725,13,13,0,0,13,13,14,0.93,0.93,0.0,0.0,0.93,0.93
10,2023,KA1504000141,Pulaski Rd & Eddy St,41.946264,-87.731023,40,29,40,35,80,64,30,1.33,0.97,1.33,1.17,2.67,2.13
10,2023,15685,Central Park Ave & Ogden Ave,41.854063503874464,-87.71511733531952,46,39,41,41,87,80,27,1.7,1.44,1.52,1.52,3.22,2.96
10,2023,590,Kilbourn Ave & Irving Park Rd,41.953733,-87.740569,31,33,23,21,54,54,27,1.15,1.22,0.85,0.78,2.0,2.0
10,2023,513,Public Rack - Spaulding Ave & Evergreen Ave,41.905485272,-87.709375381,23,23,0,0,23,23,20,1.15,1.15,0.0,0.0,1.15,1.15
10,2023,530,Laramie Ave & Kinzie St,41.887832,-87.755527,7,7,7,5,14,12,14,0.5,0.5,0.5,0.36,1.0,0.86
10,2023,586,MLK Jr Dr & 83rd St,41.743116,-87.6148,19,19,6,2,25,21,23,0.83,0.83,0.26,0.09,1.09,0.91
10,2023,572,State St & 76th St,41.756971,-87.624621,2,5,3,7,5,12,13,0.15,0.38,0.23,0.54,0.38,0.92
10,2023,KA1504000113,Sacramento Blvd & Franklin Blvd,41.89056316666667,-87.70255333333333,21,23,31,36,52,59,28,0.75,0.82,1.11,1.29,1.86,2.11
10,2023,439,Campbell Ave & Irving Park Rd,41.9536205,-87.69078533333334,44,42,0,0,44,42,29,1.52,1.45,0.0,0.0,1.52,1.45
10,2023,15632,Talman Ave & Addison St,41.9466358306,-87.694614758,202,206,139,196,341,402,31,6.52,6.65,4.48,6.32,11.0,12.97
10,2023,KA1503000051,Halsted St & 47th Pl,41.80813391481,-87.6456165545,11,12,10,16,21,28,20,0.55,0.6,0.5,0.8,1.05,1.4
10,2023,563,Public Rack - Central Ave & George St,41.93269527,-87.766220927,2,3,0,0,2,3,4,0.5,0.75,0.0,0.0,0.5,0.75
10,2023,20244,Halsted St & 73rd St,41.76160543804394,-87.64416097666071,0,0,7,3,7,3,8,0.0,0.0,0.88,0.38,0.88,0.38
10,2023,471,Damen Ave & 33rd St,41.83407166666667,-87.67553816666667,4,2,0,0,4,2,5,0.8,0.4,0.0,0.0,0.8,0.4
10,2023,422,Albany Ave & 16th St,41.85935216666667,-87.703078,2,1,0,0,2,1,1,2.0,1.0,0.0,0.0,2.0,1.0
10,2023,KA1504000097,Drake Ave & Montrose Ave,41.96115407569,-87.7165690733,53,41,52,66,105,107,31,1.71,1.32,1.68,2.13,3.39,3.45
10,2023,500,Public Rack - Monticello Ave & Belmont Ave,41.93936216666667,-87.71858,27,28,0,0,27,28,23,1.17,1.22,0.0,0.0,1.17,1.22
10,2023,KA1504000110,Millard Ave & 26th St,41.84453112462163,-87.71592199802399,7,10,3,7,10,17,12,0.58,0.83,0.25,0.58,0.83,1.42
10,2023,984,Public Rack - Ashland Ave & 91st St,41.7283988,-87.662707329,5,5,0,0,5,5,5,1.0,1.0,0.0,0.0,1.0,1.0
10,2023,20105,Halsted St & 96th St,41.71971218361882,-87.6430195569992,8,7,6,8,14,15,16,0.5,0.44,0.38,0.5,0.88,0.94
10,2023,20203,Lawndale Ave & 111th St,41.69131919221066,-87.71288573741913,0,0,8,9,8,9,7,0.0,0.0,1.14,1.29,1.14,1.29
10,2023,339,Sacramento Ave & Pershing Rd,41.822322488,-87.699693799,5,3,0,0,5,3,6,0.83,0.5,0.0,0.0,0.83,0.5
10,2023,991,Public Rack - Western Ave & 96th St,41.718697667,-87.68170774,3,3,0,0,3,3,3,1.0,1.0,0.0,0.0,1.0,1.0
10,2023,1229.0,Public Rack - Nordica & Archer,41.792261833333335,-87.79764633333333,8,4,0,0,8,4,8,1.0,0.5,0.0,0.0,1.0,0.5
10,2023,588,South Chicago Ave & 83rd St,41.743921,-87.575225,1,1,3,3,4,4,3,0.33,0.33,1.0,1.0,1.33,1.33
10,2023,1120.0,Public Rack - Milwaukee Ave & Catalpa Ave,41.977216482,-87.768962622,4,3,0,0,4,3,5,0.8,0.6,0.0,0.0,0.8,0.6
10,2023,855,Public Rack - Washtenaw Ave & Superior St,41.894902945,-87.695042968,53,55,0,0,53,55,30,1.77,1.83,0.0,0.0,1.77,1.83
10,2023,20245,Ashland Ave & 74th St,41.75923602425868,-87.66347408294678,3,2,1,3,4,5,8,0.38,0.25,0.12,0.38,0.5,0.62
10,2023,373,Augusta Blvd & Laramie Ave,41.898676872,-87.755496144,4,2,0,0,4,2,6,0.67,0.33,0.0,0.0,0.67,0.33
10,2023,KA1706005007,Delano Ct & Roosevelt Rd,41.867491,-87.63219,225,221,466,402,691,623,31,7.26,7.13,15.03,12.97,22.29,20.1
10,2023,13341,Canal St & Madison St,41.88168733333333,-87.63995833333334,874,889,997,1075,1871,1964,31,28.19,28.68,32.16,34.68,60.35,63.35
10,2023,400,Lawler Ave & 50th St,41.802186,-87.74897733333333,12,10,0,0,12,10,11,1.09,0.91,0.0,0.0,1.09,0.91
10,2023,359,Kilbourn & Belden,41.922273636,-87.739012361,20,26,0,0,20,26,22,0.91,1.18,0.0,0.0,0.91,1.18
10,2023,20231,East End Ave & 87th St,41.73674583333333,-87.582818,1,1,11,11,12,12,13,0.08,0.08,0.85,0.85,0.92,0.92
10,2023,15530,Rush St & Superior St,41.895572186,-87.626165152,586,577,813,803,1399,1380,31,18.9,18.61,26.23,25.9,45.13,44.52
10,2023,RP-006,Ridge Blvd & Touhy Ave,42.012106,-87.68290966666666,43,39,53,54,96,93,31,1.39,1.26,1.71,1.74,3.1,3.0
10,2023,chargingstx1,Bissell St & Armitage Ave*,41.9182955629354,-87.65218332409859,365,368,723,745,1088,1113,31,11.77,11.87,23.32,24.03,35.1,35.9
10,2023,TA1307000126,Sheffield Ave & Waveland Ave,41.949399,-87.654529,676,673,1010,1060,1686,1733,31,21.81,21.71,32.58,34.19,54.39,55.9
10,2023,13029,Field Museum,41.865312,-87.617867,390,304,748,654,1138,958,31,12.58,9.81,24.13,21.1,36.71,30.9
10,2023,021320,MTV Hubbard St,41.88975203,-87.680345058,127,103,0,0,127,103,31,4.1,3.32,0.0,0.0,4.1,3.32
10,2023,363.0,Tripp Ave & 15th St,41.860691,-87.73133516666667,1,2,0,0,1,2,2,0.5,1.0,0.0,0.0,0.5,1.0
10,2023,20241,Steelworkers Park,41.73823466666666,-87.53102366666667,8,5,0,0,8,5,7,1.14,0.71,0.0,0.0,1.14,0.71
10,2023,23136,Kedzie Ave & 73rd St,41.760703,-87.702292,1,2,1,4,2,6,6,0.17,0.33,0.17,0.67,0.33,1.0
10,2023,1020,Public Rack - Hamlin Ave & Madison St,41.880814791,-87.720947623,1,0,0,0,1,0,1,1.0,0.0,0.0,0.0,1.0,0.0
10,2023,857,Public Rack - Sawyer Ave & Bryn Mawr Ave - SE,41.98290658,-87.709611177,3,4,0,0,3,4,3,1.0,1.33,0.0,0.0,1.0,1.33
10,2023,465,Troy Ave & 27th St,41.842637833333335,-87.70412316666666,4,10,0,0,4,10,10,0.4,1.0,0.0,0.0,0.4,1.0
10,2023,20127,Halsted St & 111th St,41.692305833333336,-87.64274783333333,2,2,1,0,3,2,4,0.5,0.5,0.25,0.0,0.75,0.5
10,2023,331.0,Pulaski Rd & 21st St,41.853475809,-87.72449851,13,9,0,0,13,9,17,0.76,0.53,0.0,0.0,0.76,0.53
10,2023,562,Racine Ave & 61st St,41.783188343,-87.654299259,3,2,0,3,3,5,5,0.6,0.4,0.0,0.6,0.6,1.0
10,2023,812,Public Rack - Lake Park Ave & 47th St,41.809444904,-87.591891766,2,1,0,0,2,1,3,0.67,0.33,0.0,0.0,0.67,0.33
10,2023,1216.0,Public Rack - St Louis & Lincoln,41.99562216666666,-87.716415,3,0,0,0,3,0,3,1.0,0.0,0.0,0.0,1.0,0.0
10,2023,1259.0,Public Rack - Kostner & 83rd,41.742083311,-87.731520414,1,0,0,0,1,0,1,1.0,0.0,0.0,0.0,1.0,0.0
10,2023,518,Public Rack - Keystone Ave & North Ave,41.909943938,-87.727930784,21,23,21,26,42,49,29,0.72,0.79,0.72,0.9,1.45,1.69
10,2023,618,Public Rack - Vincennes Ave & 95th Pl,41.720561028,-87.651020288,1,0,0,0,1,0,1,1.0,0.0,0.0,0.0,1.0,0.0
10,2023,325,Harlem Ave & Grace St,41.94895792,-87.806895494,3,3,0,0,3,3,4,0.75,0.75,0.0,0.0,0.75,0.75
10,2023,1225.0,Public Rack - Kenneth & Carmen,41.972887,-87.739268,2,2,0,0,2,2,4,0.5,0.5,0.0,0.0,0.5,0.5
10,2023,1013,Public Rack - Pulaski Rd & Lake St,41.885615706,-87.72595191,1,1,0,0,1,1,1,1.0,1.0,0.0,0.0,1.0,1.0
10,2023,642,Latrobe Ave & Chicago Ave,41.89472933333333,-87.7568275,5,4,1,6,6,10,11,0.45,0.36,0.09,0.55,0.55,0.91
10,2023,951,Public Rack - Woodlawn Ave & 63rd St N,41.7806685,-87.596096,45,45,0,0,45,45,29,1.55,1.55,0.0,0.0,1.55,1.55
10,2023,441,Virginia Ave & Catalpa Ave,41.981224,-87.70500916666667,21,25,0,0,21,25,25,0.84,1.0,0.0,0.0,0.84,1.0
10,2023,1178.0,Public Rack - Harlem & Palatine,41.99533616666667,-87.807054,1,0,0,0,1,0,1,1.0,0.0,0.0,0.0,1.0,0.0
10,2023,20217,Torrence Ave & 126th Pl,41.666261315,-87.557140827,1,1,0,0,1,1,1,1.0,1.0,0.0,0.0,1.0,1.0
10,2023,474,Fullerton & Monitor,41.92363216666666,-87.77215683333333,7,10,0,0,7,10,12,0.58,0.83,0.0,0.0,0.58,0.83
10,2023,1269.0,Public Rack - Western & 79th,41.750892,-87.68259666666667,1,3,0,0,1,3,4,0.25,0.75,0.0,0.0,0.25,0.75
10,2023,770,Public Rack - Throop St & 58th St,41.788645267,-87.656360269,10,10,0,0,10,10,14,0.71,0.71,0.0,0.0,0.71,0.71
10,2023,947,Public Rack - Exchange Ave & 73rd Pl,41.762540666666666,-87.56365116666667,1,1,0,0,1,1,2,0.5,0.5,0.0,0.0,0.5,0.5
10,2023,909,Public Rack - Wolcott Ave & 61st St,41.782246,-87.67177133333334,1,2,0,0,1,2,3,0.33,0.67,0.0,0.0,0.33,0.67
10,2023,583,Stony Island Ave & 82nd St,41.746559,-87.586005,1,1,8,4,9,5,11,0.09,0.09,0.73,0.36,0.82,0.45
10,2023,472,Elston Ave & George St,41.93400233333333,-87.69082966666667,126,124,0,0,126,124,31,4.06,4.0,0.0,0.0,4.06,4.0
10,2023,381,Francisco Ave & 47th St,41.80852383333333,-87.696762,12,11,0,0,12,11,14,0.86,0.79,0.0,0.0,0.86,0.79
10,2023,497,Public Rack - Lowell Ave & Elston Ave,41.966066,-87.7370255,18,18,0,0,18,18,20,0.9,0.9,0.0,0.0,0.9,0.9
10,2023,13021,Clinton St & Lake St,41.885637,-87.641823,785,755,1081,939,1866,1694,31,25.32,24.35,34.87,30.29,60.19,54.65
10,2023,TA1305000014,Clark St & Wrightwood Ave,41.929546,-87.643118,798,802,1255,1283,2053,2085,31,25.74,25.87,40.48,41.39,66.23,67.26
10,2023,13135,Blue Island Ave & 18th St,41.857482553,-87.661569238,255,263,258,321,513,584,31,8.23,8.48,8.32,10.35,16.55,18.84
10,2023,13061,Ashland Ave & Division St,41.90327704,-87.668066144,867,859,1071,1075,1938,1934,31,27.97,27.71,34.55,34.68,62.52,62.39
10,2023,13160,May St & Taylor St,41.8694821,-87.6554864,506,495,814,820,1320,1315,31,16.32,15.97,26.26,26.45,42.58,42.42
10,2023,KA1504000101,Ogden Ave & Roosevelt Rd,41.86650148316,-87.68469707,112,100,98,103,210,203,31,3.61,3.23,3.16,3.32,6.77,6.55
10,2023,TA1309000035,Clark St & Winnemac Ave,41.973370075,-87.667776346,771,769,666,702,1437,1471,31,24.87,24.81,21.48,22.65,46.35,47.45
10,2023,13080,Hermitage Ave & Polk St,41.87152866666667,-87.6699875,263,252,299,304,562,556,31,8.48,8.13,9.65,9.81,18.13,17.94
10,2023,15546,Calumet Ave & 21st St,41.85418424947,-87.6191537415,244,245,248,317,492,562,31,7.87,7.9,8.0,10.23,15.87,18.13
10,2023,326,Harlem & Irving Park,41.95324166666666,-87.80712333333334,29,41,0,0,29,41,26,1.12,1.58,0.0,0.0,1.12,1.58
10,2023,TA1309000063,Lake Park Ave & 56th St,41.793242,-87.587782,258,250,911,908,1169,1158,31,8.32,8.06,29.39,29.29,37.71,37.35
10,2023,1127.0,Public Rack - Karlov Ave & Lawrence Ave,41.968306422,-87.730001092,6,6,0,0,6,6,7,0.86,0.86,0.0,0.0,0.86,0.86
10,2023,411,Francisco Ave & Chicago Ave,41.895716071,-87.69856894,90,91,0,0,90,91,31,2.9,2.94,0.0,0.0,2.9,2.94
10,2023,375,Long Ave & North Ave,41.909205317,-87.76101625,6,8,0,0,6,8,8,0.75,1.0,0.0,0.0,0.75,1.0
10,2023,1202.0,Public Rack - Mango & Higgins,41.971610166666665,-87.772406,7,7,0,0,7,7,11,0.64,0.64,0.0,0.0,0.64,0.64
10,2023,1110.0,Public Rack - Milwaukee Ave & Culyer Ave,41.954469562,-87.749596834,5,7,0,0,5,7,9,0.56,0.78,0.0,0.0,0.56,0.78
10,2023,514,Ridge Blvd & Howard St,42.019276,-87.68452,34,34,47,33,81,67,30,1.13,1.13,1.57,1.1,2.7,2.23
10,2023,559,Public Rack - Menard Ave & Dakin St - midblock,41.951945662,-87.771794796,10,10,3,4,13,14,15,0.67,0.67,0.2,0.27,0.87,0.93
10,2023,805,Public Rack - Neva Ave & Grand Ave,41.923850894,-87.804885983,4,6,0,0,4,6,5,0.8,1.2,0.0,0.0,0.8,1.2
10,2023,20120,Stewart Ave & 83rd St,41.743717,-87.634088,1,0,6,5,7,5,10,0.1,0.0,0.6,0.5,0.7,0.5
10,2023,398,Long & Irving Park,41.95307983333333,-87.76218433333334,67,71,0,0,67,71,31,2.16,2.29,0.0,0.0,2.16,2.29
10,2023,15597,Halsted St & 69th St,41.76906172032,-87.6446135779,3,3,8,8,11,11,13,0.23,0.23,0.62,0.62,0.85,0.85
10,2023,KA1503000030,Jeffery Blvd & 67th St,41.77351755125,-87.5771428255,35,33,13,16,48,49,30,1.17,1.1,0.43,0.53,1.6,1.63
10,2023,1112.0,Public Rack - Milwaukee Ave & Pensacola Ave,41.959501386,-87.753416538,6,7,0,0,6,7,7,0.86,1.0,0.0,0.0,0.86,1.0
10,2023,13016,St. Clair St & Erie St,41.894610643,-87.62325573,896,932,1123,1198,2019,2130,31,28.9,30.06,36.23,38.65,65.13,68.71
10,2023,13235,Southport Ave & Waveland Ave,41.94815,-87.66394,691,687,1075,1086,1766,1773,31,22.29,22.16,34.68,35.03,56.97,57.19
10,2023,15571,Broadway & Granville Ave,41.9947796884,-87.6602845349,261,258,336,338,597,596,31,8.42,8.32,10.84,10.9,19.26,19.23
10,2023,KA1504000162,Clark St & Lunt Ave,42.00905516666667,-87.674252,237,245,242,228,479,473,31,7.65,7.9,7.81,7.35,15.45,15.26
10,2023,KA1503000072,Wacker Dr & Washington St,41.88314336439022,-87.63724207878113,510,499,434,437,944,936,31,16.45,16.1,14.0,14.1,30.45,30.19
10,2023,13409,Sangamon St & Washington Blvd,41.883165,-87.6511,325,322,373,395,698,717,31,10.48,10.39,12.03,12.74,22.52,23.13
10,2023,KA1503000071,University Ave & 57th St,41.791478,-87.599861,794,788,3421,3388,4215,4176,31,25.61,25.42,110.35,109.29,135.97,134.71
10,2023,15449,State St & Pershing Rd,41.82301523798,-87.6265680185,5,5,9,8,14,13,17,0.29,0.29,0.53,0.47,0.82,0.76
10,2023,23122,Paulina Ave & 87th St,41.735629,-87.66552,0,0,2,2,2,2,1,0.0,0.0,2.0,2.0,2.0,2.0
10,2023,20111,Olive Harvey College,41.709593892,-87.590222597,5,6,0,0,5,6,2,2.5,3.0,0.0,0.0,2.5,3.0
10,2023,1102.0,Public Rack - Central Ave & Pensacola Ave,41.960022211,-87.767246485,5,6,0,0,5,6,9,0.56,0.67,0.0,0.0,0.56,0.67
10,2023,549,Public Rack - Laramie Ave & Fullerton Ave,41.92399566666667,-87.75674316666667,14,15,7,6,21,21,18,0.78,0.83,0.39,0.33,1.17,1.17
10,2023,15687,Central Park Ave & 24th St,41.8481,-87.715068,13,13,6,7,19,20,22,0.59,0.59,0.27,0.32,0.86,0.91
10,2023,20229,Baltimore Ave & 87th St,41.73733560041666,-87.54851460456847,26,23,2,5,28,28,21,1.24,1.1,0.1,0.24,1.33,1.33
10,2023,20255.0,N Damen Ave & W Chicago Ave,41.895915031,-87.679296851,67,72,0,0,67,72,28,2.39,2.57,0.0,0.0,2.39,2.57
10,2023,20119,Elizabeth St & 92nd St,41.72679896370119,-87.65429019927979,1,1,5,5,6,6,7,0.14,0.14,0.71,0.71,0.86,0.86
10,2023,13128,Clark St & North Ave,41.911974,-87.631942,359,361,650,687,1009,1048,32,11.22,11.28,20.31,21.47,31.53,32.75
10,2023,15640,Avers Ave & Belmont Ave,41.93942366666667,-87.72356883333333,119,119,100,117,219,236,31,3.84,3.84,3.23,3.77,7.06,7.61
10,2023,TA1307000156,Lincoln Ave & Sunnyside Ave,41.963078141,-87.684855103,264,267,298,327,562,594,31,8.52,8.61,9.61,10.55,18.13,19.16
10,2023,TA1305000001,Wabash Ave & Cermak Rd,41.852619,-87.626488,116,106,243,247,359,353,31,3.74,3.42,7.84,7.97,11.58,11.39
10,2023,TA1307000139,MLK Jr Dr & 29th St,41.842052,-87.617,678,667,1159,1038,1837,1705,31,21.87,21.52,37.39,33.48,59.26,55.0
10,2023,13191,Sedgwick St & Webster Ave,41.922167,-87.638888,597,580,862,828,1459,1408,31,19.26,18.71,27.81,26.71,47.06,45.42
10,2023,13326,Canal St & Harrison St,41.874255,-87.639573,94,79,191,172,285,251,31,3.03,2.55,6.16,5.55,9.19,8.1
10,2023,TA1307000127,Clark St & Grace St,41.95078,-87.659172,457,440,600,586,1057,1026,31,14.74,14.19,19.35,18.9,34.1,33.1
10,2023,TA1308000043,Halsted St & 35th St,41.830661,-87.647172,132,131,266,236,398,367,31,4.26,4.23,8.58,7.61,12.84,11.84
10,2023,943,Public Rack - Paxton Ave & 79th St,41.7517735,-87.57058283333333,2,3,0,0,2,3,4,0.5,0.75,0.0,0.0,0.5,0.75
10,2023,502,Public Rack - Milwaukee Ave & Addison St,41.946516991,-87.735911489,8,6,0,0,8,6,10,0.8,0.6,0.0,0.0,0.8,0.6
10,2023,1152.0,Public Rack - Pratt Ave & Odell Ave,42.004371643,-87.810989499,1,0,0,0,1,0,1,1.0,0.0,0.0,0.0,1.0,0.0
10,2023,1118.0,Public Rack - Mont Clare Ave & Higgins Ave,41.980824947,-87.805236936,1,1,0,0,1,1,2,0.5,0.5,0.0,0.0,0.5,0.5
10,2023,738,Public Rack - 63rd & Western Ave S,41.779061556,-87.683516383,1,2,0,0,1,2,2,0.5,1.0,0.0,0.0,0.5,1.0
10,2023,552,Public Rack - Cicero Ave & Cortland St - midblock,41.915623,-87.74596416666667,2,2,0,0,2,2,4,0.5,0.5,0.0,0.0,0.5,0.5
10,2023,1095.0,Public Rack - Mobile Ave & Archer Ave,41.792867184,-87.78021872,4,6,0,0,4,6,7,0.57,0.86,0.0,0.0,0.57,0.86
10,2023,1146.0,Public Rack - Bryn Mawr Ave & Milwaukee Ave,41.982732534,-87.774387956,1,1,0,0,1,1,1,1.0,1.0,0.0,0.0,1.0,1.0
10,2023,1136.0,Public Rack - William J Onahan Public School,41.99373783333333,-87.7929805,1,0,0,0,1,0,1,1.0,0.0,0.0,0.0,1.0,0.0
10,2023,370,Central Park & Augusta Blvd,41.89885483333333,-87.716389,6,15,0,0,6,15,16,0.38,0.94,0.0,0.0,0.38,0.94
10,2023,1227.0,Public Rack - Monticello & Lawrence,41.96821483333333,-87.71956583333333,2,2,0,0,2,2,3,0.67,0.67,0.0,0.0,0.67,0.67
10,2023,1275.0,Public Rack - Norwood Park Station ,41.991903901,-87.799159527,4,5,0,0,4,5,7,0.57,0.71,0.0,0.0,0.57,0.71
10,2023,1242.0,Public Rack - Cicero & 64th,41.77670766666667,-87.742433,1,1,0,0,1,1,2,0.5,0.5,0.0,0.0,0.5,0.5
10,2023,891,Public Rack - Marquette Ave & 83rd St,41.7446785,-87.55857566666667,2,3,0,0,2,3,3,0.67,1.0,0.0,0.0,0.67,1.0
10,2023,489,Public Rack - Spaulding Ave & Bryn Mawr Ave,41.982954502,-87.711325288,1,2,0,0,1,2,1,1.0,2.0,0.0,0.0,1.0,2.0
10,2023,832,Public Rack - Christiana Ave & Archer Ave,41.81157416666667,-87.70783033333333,1,5,0,0,1,5,6,0.17,0.83,0.0,0.0,0.17,0.83
10,2023,1142.0,Public Rack - Haft Ave & Milwaukee Ave,41.995584666666666,-87.78639883333334,1,3,0,0,1,3,4,0.25,0.75,0.0,0.0,0.25,0.75
10,2023,1200.0,Public Rack - Melvina & Foster,41.97555116666667,-87.78324283333333,7,9,0,0,7,9,13,0.54,0.69,0.0,0.0,0.54,0.69
10,2023,935,Public Rack - Lorel Ave & Grand Ave,41.9177825,-87.75970933333333,1,2,0,0,1,2,2,0.5,1.0,0.0,0.0,0.5,1.0
10,2023,TA1307000142,Clark St & Drummond Pl,41.931223273,-87.644109249,647,646,1207,1329,1854,1975,31,20.87,20.84,38.94,42.87,59.81,63.71
10,2023,TA1309000061,Halsted St & Wrightwood Ave,41.929143,-87.649077,703,681,996,961,1699,1642,31,22.68,21.97,32.13,31.0,54.81,52.97
10,2023,SL-010,Financial Pl & Ida B Wells Dr,41.87507866666667,-87.63311066666667,391,333,684,499,1075,832,31,12.61,10.74,22.06,16.1,34.68,26.84
10,2023,13332,Loomis St & Lexington St,41.87217166666667,-87.66143233333334,867,820,1503,1453,2370,2273,31,27.97,26.45,48.48,46.87,76.45,73.32
10,2023,1179.0,Public Rack - Oketo & Northwest Hwy,42.000347018,-87.812449098,1,1,0,0,1,1,1,1.0,1.0,0.0,0.0,1.0,1.0
10,2023,862,Public Rack - Milwaukee Ave & Waveland Ave,41.947760105,-87.73789525,2,1,0,0,2,1,2,1.0,0.5,0.0,0.0,1.0,0.5
10,2023,380,Fairfield Ave & 44th St,41.813590833333336,-87.693145,9,10,0,0,9,10,12,0.75,0.83,0.0,0.0,0.75,0.83
10,2023,957,Public Rack - Langley Ave & Oakwood Blvd,41.822854996,-87.609561563,1,1,0,0,1,1,2,0.5,0.5,0.0,0.0,0.5,0.5
10,2023,351,Mulligan Ave & Wellington Ave,41.9347565,-87.78437283333334,8,3,0,0,8,3,8,1.0,0.38,0.0,0.0,1.0,0.38
10,2023,23143,Kedzie Ave & 66th Pl,41.77258333333333,-87.7031645,4,5,6,3,10,8,14,0.29,0.36,0.43,0.21,0.71,0.57
10,2023,20205,Western Ave & 111th St,41.691148758,-87.68118155,2,2,13,24,15,26,20,0.1,0.1,0.65,1.2,0.75,1.3
10,2023,650,Eggleston Ave & 69th St,41.768916833333336,-87.63583116666666,12,12,9,15,21,27,21,0.57,0.57,0.43,0.71,1.0,1.29
10,2023,964,Public Rack - Lockwood Ave & Diversey Ave,41.931447387,-87.759140849,3,3,0,0,3,3,3,1.0,1.0,0.0,0.0,1.0,1.0
10,2023,1181.0,Public Rack - Delphina & Foster,41.973895907,-87.840858221,2,3,0,0,2,3,3,0.67,1.0,0.0,0.0,0.67,1.0
10,2023,575,Cottage Grove Ave & 78th St,41.753174,-87.605026,3,3,3,7,6,10,12,0.25,0.25,0.25,0.58,0.5,0.83
10,2023,20233,Halsted St & 78th St,41.75248701249013,-87.6439021574879,4,4,8,3,12,7,12,0.33,0.33,0.67,0.25,1.0,0.58
10,2023,571,Vernon Ave & 75th St,41.758361,-87.614138,4,5,23,13,27,18,23,0.17,0.22,1.0,0.57,1.17,0.78
10,2023,1212.0,Public Rack - Forest Glen & Peterson,41.989882112,-87.742917895,5,5,0,0,5,5,7,0.71,0.71,0.0,0.0,0.71,0.71
10,2023,TA1309000011,Ellis Ave & 58th St,41.788746,-87.601334,247,251,989,1180,1236,1431,31,7.97,8.1,31.9,38.06,39.87,46.16
10,2023,20256.0,N Sheffield Ave & W Wellington Ave,41.936269999,-87.653675199,157,149,0,0,157,149,31,5.06,4.81,0.0,0.0,5.06,4.81
10,2023,18016,Bernard St & Elston Ave,41.949923,-87.713949,98,93,46,47,144,140,31,3.16,3.0,1.48,1.52,4.65,4.52
10,2023,585,Cottage Grove Ave & 83rd St,41.743448377,-87.604815841,15,19,11,15,26,34,22,0.68,0.86,0.5,0.68,1.18,1.55
10,2023,15691,Albany Ave & 26th St,41.844507,-87.701655,6,4,5,5,11,9,13,0.46,0.31,0.38,0.38,0.85,0.69
10,2023,16915,Central Ave & Harrison St,41.872993,-87.764499,0,2,2,2,2,4,3,0.0,0.67,0.67,0.67,0.67,1.33
10,2023,560,Public Rack - Austin Ave & Roscoe St,41.942157388,-87.776580811,5,3,6,10,11,13,18,0.28,0.17,0.33,0.56,0.61,0.72
10,2023,TA1309000053,Cottage Grove Ave & 47th St,41.809855,-87.606755,48,43,77,75,125,118,31,1.55,1.39,2.48,2.42,4.03,3.81
10,2023,1067,Public Rack - Pulaski Rd & Grenshaw St,41.867038965,-87.725434542,1,2,0,0,1,2,1,1.0,2.0,0.0,0.0,1.0,2.0
10,2023,576,Greenwood Ave & 79th St,41.75132,-87.595982,0,1,11,4,11,5,14,0.0,0.07,0.79,0.29,0.79,0.36
10,2023,1122.0,Public Rack - Winona St & Elston Ave,41.974400163,-87.75041604,4,4,0,0,4,4,6,0.67,0.67,0.0,0.0,0.67,0.67
10,2023,318,Oak Park & Wellington,41.934527993,-87.795991898,9,6,0,0,9,6,9,1.0,0.67,0.0,0.0,1.0,0.67
10,2023,TA1309000007,Franklin St & Monroe St,41.880317,-87.635185,990,980,850,918,1840,1898,31,31.94,31.61,27.42,29.61,59.35,61.23
10,2023,TA1309000002,Michigan Ave & Jackson Blvd,41.878005,-87.624144,319,322,783,798,1102,1120,31,10.29,10.39,25.26,25.74,35.55,36.13
10,2023,TA1305000029,State St & Randolph St,41.88462107257936,-87.62783423066139,562,556,1048,1082,1610,1638,31,18.13,17.94,33.81,34.9,51.94,52.84
10,2023,13266,Stave St & Armitage Ave,41.917741,-87.691392,235,233,234,242,469,475,31,7.58,7.52,7.55,7.81,15.13,15.32
10,2023,547,Public Rack - Cicero Ave & Wrightwood Ave,41.927970052,-87.746713281,18,16,0,0,18,16,16,1.12,1.0,0.0,0.0,1.12,1.0
10,2023,499,Public Rack - Christiana Ave & Belmont Ave,41.93923333333333,-87.71206466666666,9,10,0,0,9,10,11,0.82,0.91,0.0,0.0,0.82,0.91
10,2023,13258,California Ave & North Ave,41.910459,-87.698045,179,171,215,199,394,370,31,5.77,5.52,6.94,6.42,12.71,11.94
10,2023,536,Kostner Ave & Lake St,41.885928,-87.73541,0,0,3,0,3,0,3,0.0,0.0,1.0,0.0,1.0,0.0
10,2023,13288,Damen Ave & Charleston St,41.920082,-87.677855,341,336,256,261,597,597,31,11.0,10.84,8.26,8.42,19.26,19.26
10,2023,KA1504000133,Rush St & Cedar St,41.90230870122,-87.627690528,610,600,831,810,1441,1410,31,19.68,19.35,26.81,26.13,46.48,45.48
10,2023,780,Public Rack - Lamon Ave & Archer Ave,41.798529625,-87.745171785,1,2,0,0,1,2,3,0.33,0.67,0.0,0.0,0.33,0.67
10,2023,557,Seeley Ave & Garfield Blvd,41.79409,-87.67548983333333,2,1,1,2,3,3,5,0.4,0.2,0.2,0.4,0.6,0.6
10,2023,13276,Stockton Dr & Wrightwood Ave,41.93132,-87.638742,458,474,912,909,1370,1383,31,14.77,15.29,29.42,29.32,44.19,44.61
10,2023,TA1306000011,Wells St & Walton St,41.89993001,-87.63443007,400,346,769,545,1169,891,31,12.9,11.16,24.81,17.58,37.71,28.74
10,2023,1150.0,Public Rack - Bryn Mawr Ave & Spaulding Ave,41.983050466,-87.711547017,2,6,0,0,2,6,7,0.29,0.86,0.0,0.0,0.29,0.86
10,2023,435,Rockwell St & Fletcher St,41.938811898,-87.692884445,141,142,0,0,141,142,30,4.7,4.73,0.0,0.0,4.7,4.73
10,2023,767,Public Rack - Hyde Park Blvd & 53rd St,41.799633145,-87.584269762,20,13,0,0,20,13,16,1.25,0.81,0.0,0.0,1.25,0.81
10,2023,1218.0,Public Rack - Central Park & Peterson,41.99024633333333,-87.71873133333334,2,2,0,0,2,2,2,1.0,1.0,0.0,0.0,1.0,1.0
10,2023,20228,Constance Ave & 95th St,41.722096443,-87.578995109,3,3,5,9,8,12,15,0.2,0.2,0.33,0.6,0.53,0.8
10,2023,347,Komensky Ave & 55th St,41.793414831,-87.724342585,20,17,0,0,20,17,20,1.0,0.85,0.0,0.0,1.0,0.85
10,2023,836,Public Rack - Kedzie Ave & Archer Ave,41.813797116,-87.705120087,7,9,0,0,7,9,11,0.64,0.82,0.0,0.0,0.64,0.82
10,2023,1256.0,Public Rack - Springfield & 79th,41.74971583333333,-87.721169,1,1,0,0,1,1,2,0.5,0.5,0.0,0.0,0.5,0.5
10,2023,831,Public Rack - Kolin Ave & Archer Ave,41.800524354,-87.732104182,1,1,0,0,1,1,2,0.5,0.5,0.0,0.0,0.5,0.5
10,2023,1205.0,Public Rack - Lynch & Elston,41.980996847,-87.761381626,3,2,0,0,3,2,3,1.0,0.67,0.0,0.0,1.0,0.67
10,2023,418,Mozart St & Jackson Blvd,41.8775025,-87.6973795,1,2,0,0,1,2,2,0.5,1.0,0.0,0.0,0.5,1.0
10,2023,1103.0,Public Rack - Irving Park Rd & Menard Ave,41.95324266666667,-87.77222916666666,3,3,0,0,3,3,6,0.5,0.5,0.0,0.0,0.5,0.5
10,2023,808,Public Rack - Rutherford Ave & Belmont Ave,41.938234448,-87.793979526,1,1,0,0,1,1,2,0.5,0.5,0.0,0.0,0.5,0.5
10,2023,814,Public Rack - Prairie Ave & 47th St ,41.809423333333335,-87.6193225,5,5,0,0,5,5,7,0.71,0.71,0.0,0.0,0.71,0.71
10,2023,21356,Lavergne Ave & Fullerton Ave,41.9239445,-87.75110816666667,12,4,4,5,16,9,15,0.8,0.27,0.27,0.33,1.07,0.6
10,2023,932,Public Rack - Jensen Park,41.964864,-87.720739,8,8,0,0,8,8,11,0.73,0.73,0.0,0.0,0.73,0.73
10,2023,319,Roscoe & Harlem,41.9416265,-87.80721466666667,4,4,0,0,4,4,7,0.57,0.57,0.0,0.0,0.57,0.57
10,2023,1243.0,Public Rack - Ford City Mall,41.757150888,-87.741421223,3,3,0,0,3,3,3,1.0,1.0,0.0,0.0,1.0,1.0
10,2023,682,Public Rack - 111th St - Morgan Park Metra,41.692993522,-87.67057395,9,9,0,0,9,9,8,1.12,1.12,0.0,0.0,1.12,1.12
10,2023,757,Public Rack - Kedzie Ave & 63rd St,41.779022932,-87.70298779,1,1,0,0,1,1,1,1.0,1.0,0.0,0.0,1.0,1.0
10,2023,810,Public Rack - Nagle Ave & Belmont Ave,41.938382,-87.78754066666667,8,10,0,0,8,10,14,0.57,0.71,0.0,0.0,0.57,0.71
10,2023,369,Central Park Ave & Ohio St,41.89187181,-87.716791153,7,3,0,0,7,3,7,1.0,0.43,0.0,0.0,1.0,0.43
10,2023,1104.0,Public Rack - Irving Park Rd & Austin Ave,41.953072309,-87.777104855,4,4,0,0,4,4,5,0.8,0.8,0.0,0.0,0.8,0.8
10,2023,1070,Public Rack - Lawndale Ave & 23rd St,41.849741101,-87.716600299,13,15,0,0,13,15,13,1.0,1.15,0.0,0.0,1.0,1.15
10,2023,20215,Hegewisch Metra Station,41.648598433,-87.546215653,4,2,0,0,4,2,3,1.33,0.67,0.0,0.0,1.33,0.67
10,2023,1011,Public Rack - Fullerton Ave & Narragansett Ave,41.923817666666665,-87.7857885,3,4,0,0,3,4,4,0.75,1.0,0.0,0.0,0.75,1.0
10,2023,310,North Ave & New England Ave,41.909282,-87.79719133333333,7,3,0,0,7,3,6,1.17,0.5,0.0,0.0,1.17,0.5
10,2023,1217.0,Public Rack - Christiana & Lincoln,41.99352283333333,-87.71272783333333,2,2,0,0,2,2,3,0.67,0.67,0.0,0.0,0.67,0.67
10,2023,554,Public Rack - Cicero Ave & Le Moyne St - midblock,41.90699716666666,-87.74622,4,2,0,4,4,6,7,0.57,0.29,0.0,0.57,0.57,0.86
10,2023,KA1504000086,Kedzie Ave & 24th St,41.848219,-87.70550916666667,6,7,3,8,9,15,14,0.43,0.5,0.21,0.57,0.64,1.07
10,2023,18022,Archer (Damen) Ave & 37th St,41.826712,-87.683144,15,16,28,33,43,49,26,0.58,0.62,1.08,1.27,1.65,1.88
10,2023,18067,Walsh Park,41.91461,-87.667968,283,275,371,333,654,608,31,9.13,8.87,11.97,10.74,21.1,19.61
10,2023,13157,Aberdeen St & Jackson Blvd,41.87772613,-87.65478743,649,573,861,731,1510,1304,31,20.94,18.48,27.77,23.58,48.71,42.06
10,2023,13146,Clark St & Armitage Ave,41.918306,-87.636282,807,790,1389,1398,2196,2188,31,26.03,25.48,44.81,45.1,70.84,70.58
10,2023,TA1307000107,Sheridan Rd & Montrose Ave,41.96167,-87.65464,606,608,815,840,1421,1448,31,19.55,19.61,26.29,27.1,45.84,46.71
10,2023,KA1504000139,Monticello Ave & Irving Park Rd,41.954058833333335,-87.7190195,115,108,55,62,170,170,31,3.71,3.48,1.77,2.0,5.48,5.48
10,2023,TA1309000025,Halsted St & Roscoe St,41.94362,-87.6489895,885,877,923,920,1808,1797,31,28.55,28.29,29.77,29.68,58.32,57.97
10,2023,chargingstx07,Wentworth Ave & Cermak Rd*,41.853136897,-87.631834745,151,162,284,379,435,541,31,4.87,5.23,9.16,12.23,14.03,17.45
10,2023,TA1307000070,Damen Ave & Thomas St (Augusta Blvd),41.901353,-87.67763283333333,340,324,462,444,802,768,31,10.97,10.45,14.9,14.32,25.87,24.77
10,2023,15529,Mies van der Rohe Way & Chestnut St,41.89880016666667,-87.6226645,459,455,722,786,1181,1241,31,14.81,14.68,23.29,25.35,38.1,40.03
10,2023,TA1305000034,Honore St & Division St,41.903112531,-87.673757076,576,578,533,629,1109,1207,31,18.58,18.65,17.19,20.29,35.77,38.94
10,2023,TA1306000016,Sheffield Ave & Fullerton Ave,41.9256018819,-87.6537080423,1105,1073,1611,1528,2716,2601,31,35.65,34.61,51.97,49.29,87.61,83.9
10,2023,TA1307000153,Emerald Ave & 28th St,41.84358,-87.645368,72,71,188,185,260,256,31,2.32,2.29,6.06,5.97,8.39,8.26
10,2023,TA1307000159,Paulina St & 18th St,41.857901,-87.668745,219,231,194,225,413,456,31,7.06,7.45,6.26,7.26,13.32,14.71
10,2023,KA1503000044,Rush St & Hubbard St,41.890173,-87.626185,471,453,467,505,938,958,31,15.19,14.61,15.06,16.29,30.26,30.9
10,2023,661,Public Rack - Langley Ave & 79th St,41.751207709,-87.607544184,80,84,105,97,185,181,31,2.58,2.71,3.39,3.13,5.97,5.84
10,2023,1203.0,Public Rack - Lavergne & Lawrence,41.967918277,-87.752501607,11,15,0,0,11,15,13,0.85,1.15,0.0,0.0,0.85,1.15
10,2023,1210.0,Public Rack - Cicero & Rosemont,41.995702386,-87.748561978,2,2,0,0,2,2,3,0.67,0.67,0.0,0.0,0.67,0.67
10,2023,462,Lincoln Ave & Peterson Ave,41.990236878,-87.708552837,6,10,0,0,6,10,8,0.75,1.25,0.0,0.0,0.75,1.25
10,2023,13319,Ashland Ave & Grace St,41.950687,-87.6687,352,355,413,401,765,756,31,11.35,11.45,13.32,12.94,24.68,24.39
10,2023,13296,Ashland Ave & Wrightwood Ave,41.92883,-87.668507,209,213,334,400,543,613,31,6.74,6.87,10.77,12.9,17.52,19.77
10,2023,15622,California Ave & Montrose Ave,41.961068,-87.695439,87,96,155,169,242,265,31,2.81,3.1,5.0,5.45,7.81,8.55
10,2023,KA1504000127,Manor Ave & Leland Ave,41.965834,-87.70078533333333,93,95,93,122,186,217,31,3.0,3.06,3.0,3.94,6.0,7.0
10,2023,TA1307000136,Clark St & Wellington Ave,41.9364968219,-87.6475386582,497,499,979,991,1476,1490,31,16.03,16.1,31.58,31.97,47.61,48.06
10,2023,600,Dodge Ave & Church St,42.048308,-87.698224,50,48,49,36,99,84,29,1.72,1.66,1.69,1.24,3.41,2.9
10,2023,937,Public Rack - King Dr & 115th St,41.685359,-87.6133775,1,2,0,0,1,2,2,0.5,1.0,0.0,0.0,0.5,1.0
10,2023,431,Western Ave & Grace St,41.950431585,-87.688098669,107,114,0,0,107,114,30,3.57,3.8,0.0,0.0,3.57,3.8
10,2023,1277.0,Public Rack - Peterson Park,41.978659749,-87.755562901,4,6,0,0,4,6,9,0.44,0.67,0.0,0.0,0.44,0.67
10,2023,1199.0,Public Rack - Nagel & Higgins,41.976342,-87.787564,5,5,0,0,5,5,8,0.62,0.62,0.0,0.0,0.62,0.62
10,2023,505,Public Rack - Milwaukee Ave & Haussen Ct,41.937717557,-87.72150147,39,38,0,0,39,38,23,1.7,1.65,0.0,0.0,1.7,1.65
10,2023,13271,Damen Ave & Clybourn Ave,41.931931,-87.677856,214,208,190,271,404,479,31,6.9,6.71,6.13,8.74,13.03,15.45
10,2023,15599,Calumet Ave & 71st St,41.76550800581,-87.616917925,13,13,22,20,35,33,27,0.48,0.48,0.81,0.74,1.3,1.22
10,2023,TA1307000117,Wabash Ave & Grand Ave,41.891466,-87.626761,867,817,1439,1404,2306,2221,31,27.97,26.35,46.42,45.29,74.39,71.65
10,2023,15535,Desplaines St & Randolph St,41.883703,-87.644238,336,311,488,418,824,729,31,10.84,10.03,15.74,13.48,26.58,23.52
10,2023,chargingstx5,Lincoln Ave & Roscoe St*,41.94329283333333,-87.6706985,350,350,539,553,889,903,31,11.29,11.29,17.39,17.84,28.68,29.13
10,2023,KA1503000053,MLK Jr Dr & 63rd St,41.78008063659,-87.6159428567,31,30,8,12,39,42,21,1.48,1.43,0.38,0.57,1.86,2.0
10,2023,15689,California Ave & 23rd Pl,41.84910969176,-87.6951398068,28,23,53,42,81,65,30,0.93,0.77,1.77,1.4,2.7,2.17
10,2023,KA1504000156,Clark St & Schreiber Ave,41.999928713,-87.669982314,140,139,213,227,353,366,31,4.52,4.48,6.87,7.32,11.39,11.81
10,2023,RP-002,Warren Park East,42.00454962194,-87.6806661451,28,28,35,42,63,70,28,1.0,1.0,1.25,1.5,2.25,2.5
10,2023,20238,Greenwood Ave & 97th St,41.71870315475741,-87.59703576564789,7,8,15,20,22,28,24,0.29,0.33,0.62,0.83,0.92,1.17
10,2023,486,Public Rack - California Ave & Devon Ave - NW,41.998253345,-87.699744582,6,4,0,0,6,4,7,0.86,0.57,0.0,0.0,0.86,0.57
10,2023,TA1308000035,Lake Park Ave & 47th St,41.809443,-87.591875,45,44,88,142,133,186,31,1.45,1.42,2.84,4.58,4.29,6.0
10,2023,1215.0,Public Rack - Avers & Granville,41.993807077,-87.724871993,3,4,0,0,3,4,5,0.6,0.8,0.0,0.0,0.6,0.8
10,2023,340,Pulaski & Ann Lurie Pl,41.816408038,-87.724775791,8,11,0,0,8,11,9,0.89,1.22,0.0,0.0,0.89,1.22
10,2023,404,Pulaski Rd & 60th St,41.784168363,-87.72254467,7,5,0,0,7,5,10,0.7,0.5,0.0,0.0,0.7,0.5
10,2023,1182.0,Public Rack - Cumberland & Catherine,41.97717464,-87.836522222,20,22,0,0,20,22,22,0.91,1.0,0.0,0.0,0.91,1.0
10,2023,341,Archer Ave & 43rd St,41.815487862,-87.702330232,6,4,0,0,6,4,7,0.86,0.57,0.0,0.0,0.86,0.57
10,2023,23139,Kedzie Ave & Redfield Dr,41.765239,-87.70342466666666,3,4,8,5,11,9,10,0.3,0.4,0.8,0.5,1.1,0.9
10,2023,KA1503000013,Princeton Ave & Garfield Blvd,41.795004845,-87.633143663,29,28,26,17,55,45,29,1.0,0.97,0.9,0.59,1.9,1.55
10,2023,TA1307000151,Wells St & Hubbard St,41.889899666666665,-87.63500816666667,999,968,1208,1272,2207,2240,31,32.23,31.23,38.97,41.03,71.19,72.26
10,2023,13265,Kingsbury St & Erie St,41.893876314,-87.641678572,851,812,1179,1111,2030,1923,31,27.45,26.19,38.03,35.84,65.48,62.03
10,2023,658,Leavitt St & Division St,41.90300716666667,-87.68373533333333,193,177,318,255,511,432,31,6.23,5.71,10.26,8.23,16.48,13.94
10,2023,424,Sacramento Ave & 25th St,41.84660133333333,-87.7001195,16,18,0,0,16,18,18,0.89,1.0,0.0,0.0,0.89,1.0
10,2023,KA1503000027,Prairie Ave & 43rd St,41.816705166666665,-87.619399,30,31,43,34,73,65,30,1.0,1.03,1.43,1.13,2.43,2.17
10,2023,15578,Broadway & Ridge Ave,41.983981,-87.66018316666667,251,244,297,313,548,557,31,8.1,7.87,9.58,10.1,17.68,17.97
10,2023,WL-011,Jefferson St & Monroe St,41.880456924,-87.642829418,316,299,517,424,833,723,31,10.19,9.65,16.68,13.68,26.87,23.32
10,2023,TA1308000013,Halsted St & Archer Ave,41.847203,-87.646795,132,124,189,149,321,273,31,4.26,4.0,6.1,4.81,10.35,8.81
10,2023,15668,Western Ave & Congress Pkwy,41.87474885079,-87.6864452757,253,249,235,228,488,477,32,7.91,7.78,7.34,7.12,15.25,14.91
10,2023,16940,Ashland Ave & 50th St,41.80300883333334,-87.664726,15,12,10,8,25,20,18,0.83,0.67,0.56,0.44,1.39,1.11
10,2023,KA1504000078,Lincoln Ave & Winona St,41.974915504,-87.692682981,143,134,111,114,254,248,31,4.61,4.32,3.58,3.68,8.19,8.0
10,2023,742,Public Rack - Ashland Ave & 71st St,41.76587522,-87.66454792,1,0,0,0,1,0,1,1.0,0.0,0.0,0.0,1.0,0.0
10,2023,368.0,Tripp Ave & 31st St,41.837007403,-87.730504274,1,3,0,0,1,3,2,0.5,1.5,0.0,0.0,0.5,1.5
10,2023,869,Public Rack - Homan Ave & 26th St,41.844793677,-87.709961057,5,2,0,0,5,2,6,0.83,0.33,0.0,0.0,0.83,0.33
10,2023,722,Public Rack - Racine Ave & 74th St,41.7593745,-87.6539265,1,2,0,0,1,2,3,0.33,0.67,0.0,0.0,0.33,0.67
10,2023,16953,Vincennes Ave & 75th St,41.758000135,-87.631228566,1,2,7,2,8,4,9,0.11,0.22,0.78,0.22,0.89,0.44
10,2023,15667,Western Ave & Monroe St,41.8797877089,-87.686112808,142,124,125,130,267,254,31,4.58,4.0,4.03,4.19,8.61,8.19
10,2023,KA1504000117,Halsted St & North Branch St,41.899272333333336,-87.6485475,83,69,146,89,229,158,31,2.68,2.23,4.71,2.87,7.39,5.1
10,2023,436,Kedzie Ave & George St,41.933882236,-87.707167387,71,70,0,0,71,70,28,2.54,2.5,0.0,0.0,2.54,2.5
10,2023,365.0,Kildare Ave & 26th St,41.844217666666665,-87.732181,10,6,0,0,10,6,11,0.91,0.55,0.0,0.0,0.91,0.55
10,2023,565,Public Rack - Austin Ave & Wrightwood Ave,41.92755425,-87.775601864,5,7,0,0,5,7,7,0.71,1.0,0.0,0.0,0.71,1.0
10,2023,23138,St. Louis & 71st St,41.764339666666665,-87.71012583333334,1,1,2,3,3,4,4,0.25,0.25,0.5,0.75,0.75,1.0
10,2023,309,Narragansett & McLean,41.915911317,-87.785116196,6,7,0,0,6,7,9,0.67,0.78,0.0,0.0,0.67,0.78
10,2023,20239,Marquette Ave & 89th St,41.7336635,-87.5585205,1,0,0,0,1,0,1,1.0,0.0,0.0,0.0,1.0,0.0
10,2023,786,Public Rack - Emerald Ave & 45th St,41.812637333333335,-87.64489866666666,1,1,0,0,1,1,2,0.5,0.5,0.0,0.0,0.5,0.5
10,2023,864,Public Rack - Kedvale Ave & Addison St,41.9468395,-87.73073033333333,1,0,0,0,1,0,1,1.0,0.0,0.0,0.0,1.0,0.0
10,2023,794,Public Rack - Austin Branch Chicago Public Library,41.889138818,-87.765296459,1,2,0,0,1,2,2,0.5,1.0,0.0,0.0,0.5,1.0
10,2023,793,Public Rack - Central Ave & Corcoran Pl,41.88726066666667,-87.7652925,5,6,0,0,5,6,9,0.56,0.67,0.0,0.0,0.56,0.67
10,2023,390,California Ave & Marquette Rd,41.7716265,-87.69332266666666,1,1,0,0,1,1,1,1.0,1.0,0.0,0.0,1.0,1.0
10,2023,1236.0,Public Rack - Parkside & Archer,41.795706511,-87.763478875,1,2,0,0,1,2,2,0.5,1.0,0.0,0.0,0.5,1.0
10,2023,20206,Homewood Ave & 115th St,41.684593166666666,-87.67083483333333,1,0,0,0,1,0,1,1.0,0.0,0.0,0.0,1.0,0.0
10,2023,20108,Hale Ave & 107th St,41.699209833333335,-87.668911,8,8,6,10,14,18,13,0.62,0.62,0.46,0.77,1.08,1.38
10,2023,950,Public Rack - Woodlawn Ave & 63rd St S,41.77978933333333,-87.5960805,1,1,0,0,1,1,1,1.0,1.0,0.0,0.0,1.0,1.0
10,2023,840,Public Rack - Marshfield Ave & 45th St,41.8124045,-87.66635333333333,1,1,0,0,1,1,2,0.5,0.5,0.0,0.0,0.5,0.5
10,2023,20201,Kedzie Ave & 104th St,41.70386716666667,-87.70135416666666,9,1,0,0,9,1,8,1.12,0.12,0.0,0.0,1.12,0.12
10,2023,334.0,Lawndale Ave & 30th St,41.838925123,-87.716819525,5,8,0,0,5,8,10,0.5,0.8,0.0,0.0,0.5,0.8
10,2023,561,Damen Ave & 59th St,41.78599716666667,-87.67412766666666,2,2,1,6,3,8,8,0.25,0.25,0.12,0.75,0.38,1.0
10,2023,758,Public Rack - Washtenaw Ave & 63rd St,41.7790815,-87.69103083333333,1,1,0,0,1,1,2,0.5,0.5,0.0,0.0,0.5,0.5
10,2023,804,Public Rack - Newcastle Ave & Wellington Ave,41.935208321,-87.795710444,1,1,0,0,1,1,2,0.5,0.5,0.0,0.0,0.5,0.5
10,2023,619,Public Rack - Vincennes Ave & 95th St,41.721147,-87.65044166666667,1,2,0,0,1,2,3,0.33,0.67,0.0,0.0,0.33,0.67
10,2023,20118,Eggleston Ave & 92nd St,41.72758916666667,-87.63484716666666,2,0,0,0,2,0,2,1.0,0.0,0.0,0.0,1.0,0.0
10,2023,490,Public Rack - Kimball Ave & Carmen Ave,41.97384383333333,-87.713288,1,0,0,0,1,0,1,1.0,0.0,0.0,0.0,1.0,0.0
10,2023,702,Public Rack - Western Ave & 92nd Pl,41.72535883333333,-87.6818345,2,1,0,0,2,1,3,0.67,0.33,0.0,0.0,0.67,0.33
10,2023,1019,Public Rack - Kostner Ave & Diversey Ave,41.931582689,-87.736979008,18,19,0,0,18,19,20,0.9,0.95,0.0,0.0,0.9,0.95
10,2023,1111.0,Public Rack - Lavergne Ave & Belle Plaine Ave,41.9552905,-87.75177033333334,1,1,0,0,1,1,2,0.5,0.5,0.0,0.0,0.5,0.5
10,2023,540,Laramie Ave & Madison St,41.880231,-87.75534033333334,8,9,0,1,8,10,12,0.67,0.75,0.0,0.08,0.67,0.83
10,2023,20133,Woodlawn & 103rd,41.707379333333336,-87.59404166666667,2,0,0,0,2,0,2,1.0,0.0,0.0,0.0,1.0,0.0
10,2023,593,Halsted St & 59th St,41.787539,-87.644874,0,0,3,2,3,2,5,0.0,0.0,0.6,0.4,0.6,0.4
10,2023,1043,Public Rack - Loomis Blvd & 47th St,41.80877216666666,-87.6603475,1,0,0,0,1,0,1,1.0,0.0,0.0,0.0,1.0,0.0
10,2023,20209,S Michigan Ave & E 118th St,41.679804921,-87.62074852,1,0,0,0,1,0,1,1.0,0.0,0.0,0.0,1.0,0.0
10,2023,407,Tripp Ave & 65th St,41.774905324,-87.728763342,3,9,0,0,3,9,8,0.38,1.12,0.0,0.0,0.38,1.12
10,2023,362.0,Lawndale Ave & 16th St,41.85913633333333,-87.71769083333334,4,5,0,0,4,5,6,0.67,0.83,0.0,0.0,0.67,0.83
10,2023,958,Public Rack - State ST & 42nd St,41.819282666666666,-87.62663216666667,1,0,0,0,1,0,1,1.0,0.0,0.0,0.0,1.0,0.0
10,2023,898,Public Rack - Western Ave & 111th St - SE,41.691408396,-87.681028724,1,1,0,0,1,1,1,1.0,1.0,0.0,0.0,1.0,1.0
10,2023,335.0,Komensky Ave & 31st St,41.836688161,-87.725659728,25,21,0,0,25,21,18,1.39,1.17,0.0,0.0,1.39,1.17
10,2023,647,Elizabeth St & 59th St,41.78989466666667,-87.65472716666666,14,14,0,1,14,15,17,0.82,0.82,0.0,0.06,0.82,0.88
10,2023,1165.0,Public Rack - Devon Ave & Central Ave,41.99738121,-87.764172077,1,0,0,0,1,0,1,1.0,0.0,0.0,0.0,1.0,0.0
10,2023,425,Rockwell St & Cermak Rd,41.851751,-87.6906435,48,43,0,0,48,43,30,1.6,1.43,0.0,0.0,1.6,1.43
10,2023,710,Public Rack - Lafayette Ave & 87th St - NW,41.736382723,-87.626694798,5,5,0,0,5,5,4,1.25,1.25,0.0,0.0,1.25,1.25
10,2023,949,Public Rack - Kingston Ave & 75th St,41.758934617,-87.562296629,1,2,0,0,1,2,3,0.33,0.67,0.0,0.0,0.33,0.67
10,2023,1048,Public Rack - Western Ave & 47th Pl,41.808073044,-87.684738517,2,2,0,0,2,2,2,1.0,1.0,0.0,0.0,1.0,1.0
10,2023,KA1503000052,Ellis Ave & 53rd St,41.79933626261,-87.6009581145,145,134,717,610,862,744,31,4.68,4.32,23.13,19.68,27.81,24.0
10,2023,20104,State St & 95th St,41.7218499,-87.6228544,19,18,32,16,51,34,25,0.76,0.72,1.28,0.64,2.04,1.36
10,2023,475,Whipple/Irving Park,41.95416216666667,-87.70435566666667,38,33,0,0,38,33,22,1.73,1.5,0.0,0.0,1.73,1.5
10,2023,580,Exchange Ave & 79th St,41.75175383333333,-87.55273266666667,7,8,4,4,11,12,11,0.64,0.73,0.36,0.36,1.0,1.09
10,2023,419,Sacramento Blvd & Polk St,41.87100516666667,-87.70028033333334,3,2,0,0,3,2,3,1.0,0.67,0.0,0.0,1.0,0.67
10,2023,858,Public Rack - Christiana Ave & Bryn Mawr Ave,41.982854009,-87.712486029,1,1,0,0,1,1,2,0.5,0.5,0.0,0.0,0.5,0.5
10,2023,485,Public Rack - Sacramento Ave & Devon Ave,41.99757783333333,-87.70443266666666,3,4,0,0,3,4,4,0.75,1.0,0.0,0.0,0.75,1.0
10,2023,350,Hamlin Ave & 62nd Pl,41.77986116666667,-87.71782416666667,3,3,0,0,3,3,5,0.6,0.6,0.0,0.0,0.6,0.6
10,2023,503,Public Rack - Jonathan Y Scammon Public School,41.94167459,-87.73251152,6,6,0,0,6,6,8,0.75,0.75,0.0,0.0,0.75,0.75
10,2023,420,Washtenaw Ave & Polk St,41.8711875,-87.69382466666667,63,67,0,0,63,67,29,2.17,2.31,0.0,0.0,2.17,2.31
10,2023,KA1503000003,Cottage Grove Ave & 71st St,41.765756369,-87.605120659,1,1,1,0,2,1,3,0.33,0.33,0.33,0.0,0.67,0.33
10,2023,833,Public Rack - Pulaski Rd & 44th St,41.812719226,-87.722585797,7,6,0,0,7,6,8,0.88,0.75,0.0,0.0,0.88,0.75
10,2023,327,Plainfield & Irving Park,41.95206511,-87.833296418,1,1,0,0,1,1,2,0.5,0.5,0.0,0.0,0.5,0.5
10,2023,388,Richmond St & 59th St,41.786675,-87.697321,13,11,0,0,13,11,14,0.93,0.79,0.0,0.0,0.93,0.79
10,2023,568,Public Rack - Central Ave & North Ave,41.90961583333333,-87.76584916666667,7,11,0,0,7,11,13,0.54,0.85,0.0,0.0,0.54,0.85
10,2023,20134,Maryland Ave & 104th St,41.705614833333335,-87.60293933333334,3,1,0,0,3,1,2,1.5,0.5,0.0,0.0,1.5,0.5
10,2023,20236,Stony Island Ave & 90th St,41.73139494330236,-87.58574366569519,2,2,5,1,7,3,6,0.33,0.33,0.83,0.17,1.17,0.5
10,2023,18025,Carpenter St & 63rd St,41.77987,-87.650919,0,0,1,0,1,0,1,0.0,0.0,1.0,0.0,1.0,0.0
10,2023,21360,Kilbourn Ave & Roscoe St,41.942694068,-87.739537597,4,5,4,5,8,10,8,0.5,0.62,0.5,0.62,1.0,1.25
10,2023,23107,Karlov Ave & Lawrence Ave,41.967947,-87.730409,1,2,1,3,2,5,5,0.2,0.4,0.2,0.6,0.4,1.0
10,2023,384,Kedzie Ave & 52nd St,41.79903566666667,-87.7034965,14,5,0,0,14,5,15,0.93,0.33,0.0,0.0,0.93,0.33
10,2023,1191.0,Public Rack - Central & Berteau,41.95684123,-87.767355204,3,1,0,0,3,1,3,1.0,0.33,0.0,0.0,1.0,0.33
10,2023,1155.0,Public Rack - Olmstead Ave & Oliphant Ave,42.002333164,-87.817155242,8,6,0,0,8,6,7,1.14,0.86,0.0,0.0,1.14,0.86
10,2023,510,Public Rack - Spaulding Ave & North Ave,41.90989433333333,-87.70948566666667,17,17,0,0,17,17,14,1.21,1.21,0.0,0.0,1.21,1.21
10,2023,21357,Lamon Ave & Armitage Ave,41.91676,-87.749458,6,7,1,2,7,9,7,0.86,1.0,0.14,0.29,1.0,1.29
10,2023,358,Kilpatrick Ave & Parker Ave,41.9307905,-87.7440855,17,19,0,0,17,19,18,0.94,1.06,0.0,0.0,0.94,1.06
10,2023,1148.0,Public Rack - Pulaski Rd & Stevens Ave,41.991052333333336,-87.7289435,2,2,0,0,2,2,3,0.67,0.67,0.0,0.0,0.67,0.67
10,2023,427,Whipple St & Roosevelt Rd,41.866479,-87.7018045,3,2,0,0,3,2,4,0.75,0.5,0.0,0.0,0.75,0.5
10,2023,1279.0,Public Rack - Richard Daley College,41.7548265,-87.72365866666667,3,2,0,0,3,2,4,0.75,0.5,0.0,0.0,0.75,0.5
10,2023,980,Public Rack - Ewing Ave & 106th St,41.70273459,-87.535431266,2,1,0,0,2,1,2,1.0,0.5,0.0,0.0,1.0,0.5
10,2023,20202,W 103rd St & S Avers Ave,41.705899,-87.71712833333333,5,4,0,0,5,4,6,0.83,0.67,0.0,0.0,0.83,0.67
10,2023,801,Public Rack - N Narragansett Ave & Grand Ave,41.922507,-87.78496266666667,2,2,0,0,2,2,3,0.67,0.67,0.0,0.0,0.67,0.67
10,2023,349,Spaulding Ave & 63rd St,41.77925233333333,-87.70561783333333,1,2,0,0,1,2,3,0.33,0.67,0.0,0.0,0.33,0.67
10,2023,1257.0,Public Rack - S. Kilpatrick and W. 79th,41.749320865,-87.739552021,2,4,0,0,2,4,5,0.4,0.8,0.0,0.0,0.4,0.8
10,2023,1262.0,Public Rack - St Louis & Columbus,41.745280666666666,-87.709138,3,2,0,0,3,2,4,0.75,0.5,0.0,0.0,0.75,0.5
10,2023,1109.0,Public Rack - Milwaukee Ave & Sunnyside Ave,41.96254616666667,-87.756069,3,1,0,0,3,1,4,0.75,0.25,0.0,0.0,0.75,0.25
10,2023,314,Narragansett & Wrightwood,41.927299833333336,-87.78525366666666,29,28,0,0,29,28,22,1.32,1.27,0.0,0.0,1.32,1.27
10,2023,954,Public Rack - Prairie Ave & Garfield Blvd N,41.79483783333333,-87.61885866666667,5,5,0,0,5,5,8,0.62,0.62,0.0,0.0,0.62,0.62
10,2023,1056,Public Rack - Sawyer Ave & Chicago Ave,41.89551127,-87.708087683,2,4,0,0,2,4,1,2.0,4.0,0.0,0.0,2.0,4.0
10,2023,1031,Public Rack - Komensky Ave & 63rd St,41.778555751,-87.723881125,2,3,0,0,2,3,2,1.0,1.5,0.0,0.0,1.0,1.5
10,2023,367,Mayfield & Roosevelt Rd,41.8657161,-87.771677494,6,4,0,0,6,4,6,1.0,0.67,0.0,0.0,1.0,0.67
10,2023,353,Meade Ave & Diversey Ave,41.93082916666667,-87.778467,16,18,0,0,16,18,23,0.7,0.78,0.0,0.0,0.7,0.78
10,2023,551,Public Rack - Cicero Ave & North Ave,41.909598,-87.74578633333333,18,18,0,0,18,18,21,0.86,0.86,0.0,0.0,0.86,0.86
10,2023,762,Public Rack - Kenneth Ave & 63rd St W,41.778624,-87.73388766666666,2,1,0,0,2,1,2,1.0,0.5,0.0,0.0,1.0,0.5
10,2023,476,Public Rack - Francisco Ave & Touhy Ave,42.01202833333333,-87.701172,1,1,0,0,1,1,2,0.5,0.5,0.0,0.0,0.5,0.5
10,2023,KA1503000033,Eberhart Ave & 61st St,41.7841115,-87.6145445,15,15,10,20,25,35,26,0.58,0.58,0.38,0.77,0.96,1.35
10,2023,16937,Ashland Ave & McDowell Ave,41.808885333333336,-87.664517,9,9,8,12,17,21,20,0.45,0.45,0.4,0.6,0.85,1.05
10,2023,1132.0,Public Rack - Lawrence Ave & Kimball Ave,41.968331933,-87.712454319,2,4,0,0,2,4,3,0.67,1.33,0.0,0.0,0.67,1.33
10,2023,615,Public Rack - Avenue J & 106th St,41.702664375,-87.53350389,1,0,0,0,1,0,1,1.0,0.0,0.0,0.0,1.0,0.0
10,2023,323,Narragansett & Irving Park,41.95259766666667,-87.7853315,29,32,0,0,29,32,28,1.04,1.14,0.0,0.0,1.04,1.14
10,2023,1037,Public Rack - Homan Ave & 62nd Pl,41.779536366,-87.707953572,1,4,0,0,1,4,4,0.25,1.0,0.0,0.0,0.25,1.0
10,2023,863,Public Rack - Karlov Ave & Milwaukee Ave,41.94256383333333,-87.7297975,2,5,0,0,2,5,6,0.33,0.83,0.0,0.0,0.33,0.83
10,2023,1055,Public Rack - Kedzie Ave & Chicago Ave,41.89546583333333,-87.70679066666666,2,4,0,0,2,4,5,0.4,0.8,0.0,0.0,0.4,0.8
10,2023,775,Public Rack - Kedzie Ave & 58th St,41.788401842,-87.703501582,4,5,0,0,4,5,6,0.67,0.83,0.0,0.0,0.67,0.83
10,2023,23108,Monticello Ave & Lawrence Ave,41.9681395,-87.71959083333333,40,40,31,30,71,70,30,1.33,1.33,1.03,1.0,2.37,2.33
10,2023,1134.0,Public Rack - Kimball Ave & Lawrence Ave,41.967904091,-87.713258505,2,3,0,0,2,3,3,0.67,1.0,0.0,0.0,0.67,1.0
10,2023,20219,Burnham Greenway & 112th St,41.69177385116831,-87.53043115139008,12,6,12,11,24,17,18,0.67,0.33,0.67,0.61,1.33,0.94
10,2023,20227,Bradley Park,41.717878301935,-87.56459176540375,0,1,1,0,1,1,2,0.0,0.5,0.5,0.0,0.5,0.5
10,2023,1123.0,Public Rack - Milwaukee Ave & Lawrence Ave,41.967445493,-87.760283232,3,2,0,0,3,2,3,1.0,0.67,0.0,0.0,1.0,0.67
10,2023,396,Central Ave & Roscoe St,41.94222933333333,-87.76690116666667,4,5,0,0,4,5,8,0.5,0.62,0.0,0.0,0.5,0.62
10,2023,1074.0,Public Rack - Pulaski Rd & 83rd St,41.74146616666667,-87.721762,1,1,0,0,1,1,2,0.5,0.5,0.0,0.0,0.5,0.5
10,2023,301,Monticello Ave & Chicago Ave,41.895261,-87.717479,1,2,0,0,1,2,2,0.5,1.0,0.0,0.0,0.5,1.0
10,2023,613,Public Rack - Ewing Ave & 105th St,41.704452,-87.53539933333333,2,2,0,0,2,2,3,0.67,0.67,0.0,0.0,0.67,0.67
10,2023,1180.0,Public Rack - N. Oakview and W. Gregory St,41.980107069,-87.844034672,1,0,0,0,1,0,1,1.0,0.0,0.0,0.0,1.0,0.0
10,2023,929,Public Rack - Campbell Ave & Pratt Blvd,42.005074666666665,-87.692546,5,7,0,0,5,7,8,0.62,0.88,0.0,0.0,0.62,0.88
10,2023,1040,Public Rack - Talman Ave & Pershing Rd,41.822558045,-87.690538764,5,6,0,0,5,6,9,0.56,0.67,0.0,0.0,0.56,0.67
10,2023,988,Public Rack - Western Ave & 110th St,41.69449532,-87.68136394,2,1,0,0,2,1,3,0.67,0.33,0.0,0.0,0.67,0.33
10,2023,20125,Halsted St & 104th St,41.705186833333336,-87.64245466666667,2,0,1,1,3,1,4,0.5,0.0,0.25,0.25,0.75,0.25
10,2023,1015,Public Rack - Peterson Ave & Drake Ave,41.99018616666667,-87.71721166666667,1,1,0,0,1,1,2,0.5,0.5,0.0,0.0,0.5,0.5
10,2023,20230,Clyde Ave & 87th St,41.73715146431056,-87.57274031639099,2,3,2,3,4,6,8,0.25,0.38,0.25,0.38,0.5,0.75
10,2023,13300,DuSable Lake Shore Dr & Monroe St,41.880958,-87.616743,753,680,2348,2167,3101,2847,31,24.29,21.94,75.74,69.9,100.03,91.84
10,2023,TA1305000032,Clinton St & Madison St,41.882751965685614,-87.64119029045105,1324,1330,1530,1715,2854,3045,31,42.71,42.9,49.35,55.32,92.06,98.23
10,2023,1059,Public Rack - Garfield Park Conservatory,41.88658762,-87.716734171,1,1,0,0,1,1,1,1.0,1.0,0.0,0.0,1.0,1.0
10,2023,TA1308000009,Shore Dr & 55th St,41.795212,-87.580715,282,270,794,771,1076,1041,31,9.1,8.71,25.61,24.87,34.71,33.58
10,2023,13196,Carpenter St & Huron St,41.894601,-87.653493,457,449,530,521,987,970,31,14.74,14.48,17.1,16.81,31.84,31.29
10,2023,13224,Ashland Ave & Blackhawk St,41.907066,-87.667252,351,356,389,415,740,771,31,11.32,11.48,12.55,13.39,23.87,24.87
10,2023,15445,Wentworth Ave & 33rd St,41.834540486,-87.63179481,156,166,191,254,347,420,31,5.03,5.35,6.16,8.19,11.19,13.55
10,2023,1209.0,Public Rack - Leader & Caldwell,41.99146916666667,-87.7543685,2,2,0,0,2,2,1,2.0,2.0,0.0,0.0,2.0,2.0
10,2023,579,Public Rack - Oketo Ave & Belmont Ave,41.938084602,-87.811916828,6,7,4,3,10,10,13,0.46,0.54,0.31,0.23,0.77,0.77
10,2023,313,Long Ave & Belden Ave,41.922811333333335,-87.76098616666667,17,14,0,0,17,14,19,0.89,0.74,0.0,0.0,0.89,0.74
10,2023,493,Public Rack - St Louis Ave & Berteau Ave,41.958354592,-87.715370893,2,1,0,0,2,1,3,0.67,0.33,0.0,0.0,0.67,0.33
10,2023,371,Kildare Ave & Chicago Ave,41.89542216666667,-87.73356616666666,7,2,0,0,7,2,5,1.4,0.4,0.0,0.0,1.4,0.4
10,2023,791,Public Rack - Mason Ave & Roosevelt Rd,41.865618833333336,-87.7723825,1,2,0,0,1,2,3,0.33,0.67,0.0,0.0,0.33,0.67
10,2023,1149.0,Public Rack - Lemont Ave & Keating Ave,41.99119833333334,-87.74690316666667,5,5,0,0,5,5,5,1.0,1.0,0.0,0.0,1.0,1.0
10,2023,1063,Public Rack - Independence Blvd & Roosevelt,41.866158128,-87.718516707,1,2,0,0,1,2,3,0.33,0.67,0.0,0.0,0.33,0.67
10,2023,829,Public Rack - Pulaski Rd & 51st Rd,41.800349,-87.72358966666667,2,2,0,0,2,2,3,0.67,0.67,0.0,0.0,0.67,0.67
10,2023,816,Public Rack - State St & 47th st,41.80915766666666,-87.62701916666667,1,1,0,0,1,1,2,0.5,0.5,0.0,0.0,0.5,0.5
10,2023,20112,Indiana Ave & 103rd St,41.70717027117756,-87.6184719800949,3,2,1,3,4,5,8,0.38,0.25,0.12,0.38,0.5,0.62
10,2023,1058,Public Rack - Kildare Ave & North Ave,41.9099385,-87.7341255,1,1,0,0,1,1,1,1.0,1.0,0.0,0.0,1.0,1.0
10,2023,KA1503000007,Cornell Ave & Hyde Park Blvd,41.802406,-87.586924,160,145,674,553,834,698,31,5.16,4.68,21.74,17.84,26.9,22.52
10,2023,KA1503000031,Cottage Grove Ave & 67th St,41.77372095205,-87.60563486,16,16,17,27,33,43,24,0.67,0.67,0.71,1.12,1.38,1.79
10,2023,KA1503000040,Loomis St & Archer Ave,41.841648936,-87.657428265,44,45,69,61,113,106,30,1.47,1.5,2.3,2.03,3.77,3.53
10,2023,TA1308000047,Southport Ave & Clark St,41.957087,-87.66420233333334,133,136,226,219,359,355,31,4.29,4.39,7.29,7.06,11.58,11.45
