month,year,station_id,station_name,lat,lng,ebike_start,ebike_end,cbike_start,cbike_end,total_start,total_end,active_days,daily_ebike_start,daily_ebike_end,daily_cbike_start,daily_cbike_end,daily_start,daily_end
5,2023,13229,Southport Ave & Belmont Ave,41.9394075,-87.6638305,604,601,684,653,1288,1254,31,19.48,19.39,22.06,21.06,41.55,40.45
5,2023,13162,Halsted St & 21st St,41.853793144,-87.646719337,123,121,158,186,281,307,31,3.97,3.9,5.1,6.0,9.06,9.9
5,2023,13196,Carpenter St & Huron St,41.894556,-87.653449,603,556,691,558,1294,1114,31,19.45,17.94,22.29,18.0,41.74,35.94
5,2023,TA1308000047,Southport Ave & Clark St,41.957081,-87.664199,152,142,249,182,401,324,31,4.9,4.58,8.03,5.87,12.94,10.45
5,2023,TA1305000032,Clinton St & Madison St,41.882751965685614,-87.64119029045105,1290,1267,1325,1392,2615,2659,31,41.61,40.87,42.74,44.9,84.35,85.77
5,2023,13300,DuSable Lake Shore Dr & Monroe St,41.880958,-87.616743,1466,1405,3234,3116,4700,4521,31,47.29,45.32,104.32,100.52,151.61,145.84
5,2023,TA1308000009,Shore Dr & 55th St,41.795212,-87.580715,343,321,1000,1059,1343,1380,31,11.06,10.35,32.26,34.16,43.32,44.52
5,2023,TA1309000024,Clark St & Schiller St,41.907993,-87.631501,785,779,1152,1130,1937,1909,31,25.32,25.13,37.16,36.45,62.48,61.58
5,2023,13224,Ashland Ave & Blackhawk St,41.907066,-87.667252,414,430,476,530,890,960,31,13.35,13.87,15.35,17.1,28.71,30.97
5,2023,596,Benson Ave & Church St,42.048226357,-87.683485627,357,350,272,289,629,639,31,11.52,11.29,8.77,9.32,20.29,20.61
5,2023,TA1307000163,Clifton Ave & Armitage Ave,41.918216,-87.656936,453,455,768,881,1221,1336,32,14.16,14.22,24.0,27.53,38.16,41.75
5,2023,TA1307000038,Sedgwick St & North Ave,41.91132183333333,-87.638724,573,555,955,901,1528,1456,31,18.48,17.9,30.81,29.06,49.29,46.97
5,2023,13277,Broadway & Belmont Ave,41.940106,-87.645451,758,747,965,1032,1723,1779,32,23.69,23.34,30.16,32.25,53.84,55.59
5,2023,15650,Spaulding Ave & Armitage Ave,41.91710803478932,-87.71022096276283,332,344,263,283,595,627,31,10.71,11.1,8.48,9.13,19.19,20.23
5,2023,13430,LaSalle St & Illinois St,41.890762,-87.631697,948,920,1193,1205,2141,2125,31,30.58,29.68,38.48,38.87,69.06,68.55
5,2023,15653,Troy St & North Ave,41.90978866666666,-87.70530033333333,169,163,206,194,375,357,31,5.45,5.26,6.65,6.26,12.1,11.52
5,2023,13247,Ashland Ave & Chicago Ave,41.89595435734305,-87.6677280664444,290,286,400,406,690,692,31,9.35,9.23,12.9,13.1,22.26,22.32
5,2023,TA1307000113,Southport Ave & Wrightwood Ave,41.928773,-87.663913,649,652,578,617,1227,1269,31,20.94,21.03,18.65,19.9,39.58,40.94
5,2023,13085,Kedzie Ave & Milwaukee Ave,41.929554224,-87.707861543,831,836,645,714,1476,1550,31,26.81,26.97,20.81,23.03,47.61,50.0
5,2023,TA1309000041,Sheridan Rd & Lawrence Ave,41.969564319,-87.654717088,255,248,318,307,573,555,32,7.97,7.75,9.94,9.59,17.91,17.34
5,2023,TA1307000144,Wolcott (Ravenswood) Ave & Montrose Ave,41.961406,-87.676169,469,467,223,225,692,692,31,15.13,15.06,7.19,7.26,22.32,22.32
5,2023,15534,Field Blvd & South Water St,41.886299849,-87.617548466,737,724,596,610,1333,1334,31,23.77,23.35,19.23,19.68,43.0,43.03
5,2023,13242,Milwaukee Ave & Rockwell St,41.92019556200566,-87.69265919923781,251,243,258,260,509,503,31,8.1,7.84,8.32,8.39,16.42,16.23
5,2023,TA1309000018,Ravenswood Ave & Berteau Ave,41.957921,-87.673567,251,244,274,242,525,486,31,8.1,7.87,8.84,7.81,16.94,15.68
5,2023,KA1504000149,Damen Ave & Foster Ave,41.975591666666666,-87.67943383333333,306,293,212,214,518,507,31,9.87,9.45,6.84,6.9,16.71,16.35
5,2023,KA1504000129,Western Ave & Granville Ave,41.99416136902,-87.689438282,58,63,82,98,140,161,31,1.87,2.03,2.65,3.16,4.52,5.19
5,2023,620,Orleans St & Chestnut St (NEXT Apts),41.89804083333333,-87.63747416666666,440,422,441,383,881,805,31,14.19,13.61,14.23,12.35,28.42,25.97
5,2023,655,Hoyne Ave & Balmoral Ave,41.979889274,-87.681890726,209,201,66,71,275,272,31,6.74,6.48,2.13,2.29,8.87,8.77
5,2023,13194,Ogden Ave & Race Ave,41.891775608,-87.658856392,503,499,479,522,982,1021,32,15.72,15.59,14.97,16.31,30.69,31.91
5,2023,TA1305000010,Michigan Ave & Ida B Wells Dr,41.876243,-87.624426,289,272,474,440,763,712,31,9.32,8.77,15.29,14.19,24.61,22.97
5,2023,23003,Halsted St & Fulton St,41.89,-87.65,717,719,729,801,1446,1520,31,23.13,23.19,23.52,25.84,46.65,49.03
5,2023,E007,Central St & Girard Ave,42.064313,-87.686152,27,27,52,66,79,93,29,0.93,0.93,1.79,2.28,2.72,3.21
5,2023,TA1306000003,Desplaines St & Kinzie St,41.888716036,-87.6444478533,1005,949,1200,1041,2205,1990,31,32.42,30.61,38.71,33.58,71.13,64.19
5,2023,TA1308000014,Normal Ave & Archer Ave,41.849527,-87.640591,45,45,59,70,104,115,30,1.5,1.5,1.97,2.33,3.47,3.83
5,2023,TA1305000025,Franklin St & Jackson Blvd,41.87876416666667,-87.635302,728,726,830,861,1558,1587,31,23.48,23.42,26.77,27.77,50.26,51.19
5,2023,TA1307000121,Halsted St & Polk St,41.87184,-87.64664,759,749,768,783,1527,1532,31,24.48,24.16,24.77,25.26,49.26,49.42
5,2023,331,Halsted St & Clybourn Ave,41.909668,-87.648128,1116,1098,1234,1214,2350,2312,31,36.0,35.42,39.81,39.16,75.81,74.58
5,2023,KA1504000079,Larrabee St & Division St,41.90348607004,-87.6433534936,570,545,741,645,1311,1190,31,18.39,17.58,23.9,20.81,42.29,38.39
5,2023,13022,Streeter Dr & Grand Ave,41.892278,-87.612043,2438,2415,4901,5065,7339,7480,32,76.19,75.47,153.16,158.28,229.34,233.75
5,2023,TA1306000015,Sangamon St & Lake St,41.885767579,-87.65106988,679,679,753,847,1432,1526,31,21.9,21.9,24.29,27.32,46.19,49.23
5,2023,631,Malcolm X College,41.877605557,-87.673933864,100,90,81,97,181,187,31,3.23,2.9,2.61,3.13,5.84,6.03
5,2023,15542,Clinton St & Polk St,41.871454477,-87.640952349,50,45,73,77,123,122,28,1.79,1.61,2.61,2.75,4.39,4.36
5,2023,13146,Clark St & Armitage Ave,41.918306,-87.636282,1317,1327,1835,1915,3152,3242,31,42.48,42.81,59.19,61.77,101.68,104.58
5,2023,TA1307000107,Sheridan Rd & Montrose Ave,41.961552024,-87.654627681,792,807,752,755,1544,1562,31,25.55,26.03,24.26,24.35,49.81,50.39
5,2023,18067,Walsh Park,41.91461,-87.667968,398,352,554,475,952,827,31,12.84,11.35,17.87,15.32,30.71,26.68
5,2023,KA1503000044,Rush St & Hubbard St,41.890271187,-87.626273155,442,417,647,538,1089,955,31,14.26,13.45,20.87,17.35,35.13,30.81
5,2023,KA1504000139,Monticello Ave & Irving Park Rd,41.954073429,-87.719080567,125,123,71,61,196,184,31,4.03,3.97,2.29,1.97,6.32,5.94
5,2023,13193,Larrabee St & Webster Ave,41.921822,-87.64414,999,994,1298,1369,2297,2363,31,32.23,32.06,41.87,44.16,74.1,76.23
5,2023,13036,Michigan Ave & Madison St,41.882134,-87.625125,473,466,618,583,1091,1049,31,15.26,15.03,19.94,18.81,35.19,33.84
5,2023,KA1503000015,Wabash Ave & Adams St,41.87947235235,-87.6256886059,454,437,583,595,1037,1032,31,14.65,14.1,18.81,19.19,33.45,33.29
5,2023,KA1503000065,Woodlawn Ave & Lake Park Ave,41.81409271048,-87.5970051479,70,43,78,77,148,120,31,2.26,1.39,2.52,2.48,4.77,3.87
5,2023,KA1503000012,Clark St & Lake St,41.885590666666666,-87.63104966666667,654,638,867,877,1521,1515,31,21.1,20.58,27.97,28.29,49.06,48.87
5,2023,20246.0,N Green St & W Lake St,41.89,-87.65,743,687,0,0,743,687,31,23.97,22.16,0.0,0.0,23.97,22.16
5,2023,TA1306000010,Daley Center Plaza,41.884241,-87.629634,808,761,1218,1176,2026,1937,31,26.06,24.55,39.29,37.94,65.35,62.48
5,2023,13034,Michigan Ave & Pearson St,41.89766,-87.62351,354,319,769,668,1123,987,31,11.42,10.29,24.81,21.55,36.23,31.84
5,2023,13071,Southport Ave & Roscoe St,41.943739,-87.66402,1000,1010,1124,1227,2124,2237,32,31.25,31.56,35.12,38.34,66.38,69.91
5,2023,TA1306000016,Sheffield Ave & Fullerton Ave,41.9257295,-87.65372733333334,1294,1239,1366,1309,2660,2548,31,41.74,39.97,44.06,42.23,85.81,82.19
5,2023,13221,Wood St & Milwaukee Ave,41.90759933,-87.672507763,814,812,668,809,1482,1621,32,25.44,25.38,20.88,25.28,46.31,50.66
5,2023,15642,California Ave & Fletcher St,41.9383495,-87.6981155,180,192,172,265,352,457,31,5.81,6.19,5.55,8.55,11.35,14.74
5,2023,TA1309000029,Leavitt St & Armitage Ave,41.917805,-87.682437,282,285,334,342,616,627,31,9.1,9.19,10.77,11.03,19.87,20.23
5,2023,13245,Claremont Ave & Hirsch St,41.907781,-87.685854,148,137,211,148,359,285,31,4.77,4.42,6.81,4.77,11.58,9.19
5,2023,13001,Michigan Ave & Washington St,41.883995166666665,-87.62439633333334,890,888,1411,1388,2301,2276,31,28.71,28.65,45.52,44.77,74.23,73.42
5,2023,TA1305000006,Dearborn St & Monroe St,41.880552053,-87.629791498,815,819,1064,1165,1879,1984,31,26.29,26.42,34.32,37.58,60.61,64.0
5,2023,TA1309000061,Halsted St & Wrightwood Ave,41.929143,-87.649077,943,920,1137,1157,2080,2077,31,30.42,29.68,36.68,37.32,67.1,67.0
5,2023,TA1307000142,Clark St & Drummond Pl,41.93129366666667,-87.64420683333333,929,933,1220,1308,2149,2241,31,29.97,30.1,39.35,42.19,69.32,72.29
5,2023,SL-010,Financial Pl & Ida B Wells Dr,41.8750236280333,-87.6330940425396,421,366,588,397,1009,763,32,13.16,11.44,18.38,12.41,31.53,23.84
5,2023,13248,Ashland Ave & Augusta Blvd,41.89964233333333,-87.66847033333333,305,304,440,401,745,705,31,9.84,9.81,14.19,12.94,24.03,22.74
5,2023,TA1305000039,Elston Ave & Cortland St,41.91643342912655,-87.66674637794495,533,522,452,461,985,983,31,17.19,16.84,14.58,14.87,31.77,31.71
5,2023,KA1504000116,Larrabee St & Oak St,41.900232,-87.6430265,347,348,512,530,859,878,31,11.19,11.23,16.52,17.1,27.71,28.32
5,2023,638,Clinton St & Jackson Blvd,41.87831661183069,-87.64098107814789,916,896,1184,1135,2100,2031,31,29.55,28.9,38.19,36.61,67.74,65.52
5,2023,KA1503000064,Dusable Harbor,41.886976,-87.612813,778,748,1550,1611,2328,2359,31,25.1,24.13,50.0,51.97,75.1,76.1
5,2023,TA1306000032,Sheffield Ave & Willow St,41.91384283333333,-87.65281916666666,440,435,652,661,1092,1096,31,14.19,14.03,21.03,21.32,35.23,35.35
5,2023,15545,Burnham Harbor,41.85741178707404,-87.61379152536392,361,357,874,947,1235,1304,31,11.65,11.52,28.19,30.55,39.84,42.06
5,2023,13259,California Ave & Francis Pl,41.91858333333333,-87.697554,342,329,266,262,608,591,31,11.03,10.61,8.58,8.45,19.61,19.06
5,2023,TA1308000021,Winthrop Ave & Lawrence Ave,41.968875527,-87.657617211,358,355,273,296,631,651,31,11.55,11.45,8.81,9.55,20.35,21.0
5,2023,TA1308000005,Leavitt St & North Ave,41.91019083333333,-87.68239516666667,422,393,446,350,868,743,31,13.61,12.68,14.39,11.29,28.0,23.97
5,2023,TA1307000126,Sheffield Ave & Waveland Ave,41.949219704,-87.654311538,1379,1516,1102,1365,2481,2881,31,44.48,48.9,35.55,44.03,80.03,92.94
5,2023,13029,Field Museum,41.865312,-87.617867,321,287,713,504,1034,791,31,10.35,9.26,23.0,16.26,33.35,25.52
5,2023,KA1706005007,Delano Ct & Roosevelt Rd,41.867491,-87.63219,314,297,418,354,732,651,31,10.13,9.58,13.48,11.42,23.61,21.0
5,2023,TA1308000050,Wells St & Concord Ln,41.91202116666667,-87.63469916666666,1652,1656,1847,1931,3499,3587,31,53.29,53.42,59.58,62.29,112.87,115.71
5,2023,TA1307000151,Wells St & Hubbard St,41.88944447,-87.634473562,1168,1164,1201,1268,2369,2432,31,37.68,37.55,38.74,40.9,76.42,78.45
5,2023,13016,St. Clair St & Erie St,41.89436216666667,-87.62345816666667,1040,993,1188,1211,2228,2204,31,33.55,32.03,38.32,39.06,71.87,71.1
5,2023,13235,Southport Ave & Waveland Ave,41.94815,-87.66394,1038,1036,982,1055,2020,2091,31,33.48,33.42,31.68,34.03,65.16,67.45
5,2023,SL-008,Federal St & Polk St,41.87207763285,-87.6295437729,586,583,1110,1097,1696,1680,31,18.9,18.81,35.81,35.39,54.71,54.19
5,2023,KA1503000059,Lake Park Ave & 53rd St,41.79949429373,-87.5864498959,220,217,457,540,677,757,31,7.1,7.0,14.74,17.42,21.84,24.42
5,2023,KA1504000104,Paulina St & Flournoy St,41.87306108789792,-87.66913488507271,469,472,460,463,929,935,31,15.13,15.23,14.84,14.94,29.97,30.16
5,2023,643,Smith Park,41.892015219,-87.689383268,121,113,88,113,209,226,31,3.9,3.65,2.84,3.65,6.74,7.29
5,2023,TA1307000062,Sedgwick St & Huron St,41.89473566666667,-87.63804116666667,570,510,910,666,1480,1176,31,18.39,16.45,29.35,21.48,47.74,37.94
5,2023,TA1305000020,Ogden Ave & Chicago Ave,41.896362458,-87.6540612729,726,714,672,649,1398,1363,31,23.42,23.03,21.68,20.94,45.1,43.97
5,2023,23002,Lincoln Ave & Byron St,41.952372,-87.677296,175,173,202,186,377,359,31,5.65,5.58,6.52,6.0,12.16,11.58
5,2023,TA1309000036,Burling St & Diversey Pkwy,41.93314,-87.64776,613,613,864,936,1477,1549,31,19.77,19.77,27.87,30.19,47.65,49.97
5,2023,344,Springfield Ave & 47th St,41.81,-87.72,14,8,0,0,14,8,13,1.08,0.62,0.0,0.0,1.08,0.62
5,2023,999,Public Rack - Champlain Ave & 65th St,41.78,-87.61,26,30,0,0,26,30,26,1.0,1.15,0.0,0.0,1.0,1.15
5,2023,20239,Marquette Ave & 89th St,41.73359716666667,-87.558401,4,0,6,6,10,6,5,0.8,0.0,1.2,1.2,2.0,1.2
5,2023,TA1309000025,Halsted St & Roscoe St,41.94372416666667,-87.64886533333333,1201,1203,1073,1120,2274,2323,31,38.74,38.81,34.61,36.13,73.35,74.94
5,2023,TA1307000136,Clark St & Wellington Ave,41.93653833333333,-87.647609,793,790,988,974,1781,1764,31,25.58,25.48,31.87,31.42,57.45,56.9
5,2023,13157,Aberdeen St & Jackson Blvd,41.877713166666666,-87.6547965,600,586,851,747,1451,1333,31,19.35,18.9,27.45,24.1,46.81,43.0
5,2023,13074,Broadway & Wilson Ave,41.965206146,-87.65836978,570,571,545,539,1115,1110,31,18.39,18.42,17.58,17.39,35.97,35.81
5,2023,18069,Cherry Ave & Blackhawk St,41.907242656,-87.655632973,161,160,100,107,261,267,30,5.37,5.33,3.33,3.57,8.7,8.9
5,2023,KA1503000072,Wacker Dr & Washington St,41.883397,-87.637202,579,564,457,445,1036,1009,31,18.68,18.19,14.74,14.35,33.42,32.55
5,2023,KA1504000162,Clark St & Lunt Ave,42.009047151,-87.674286485,272,259,152,144,424,403,31,8.77,8.35,4.9,4.65,13.68,13.0
5,2023,KA1503000071,University Ave & 57th St,41.791461706,-87.600091577,952,954,2235,2243,3187,3197,31,30.71,30.77,72.1,72.35,102.81,103.13
5,2023,13258,California Ave & North Ave,41.9104754,-87.6968944,303,302,214,201,517,503,31,9.77,9.74,6.9,6.48,16.68,16.23
5,2023,18016,Bernard St & Elston Ave,41.9499285,-87.7139525,155,159,51,44,206,203,31,5.0,5.13,1.65,1.42,6.65,6.55
5,2023,TA1308000043,Halsted St & 35th St,41.830669045,-87.647138715,138,140,141,156,279,296,31,4.45,4.52,4.55,5.03,9.0,9.55
5,2023,15571,Broadway & Granville Ave,41.994864166666666,-87.66019083333333,372,370,378,408,750,778,31,12.0,11.94,12.19,13.16,24.19,25.1
5,2023,13156,Aberdeen St & Monroe St,41.880389,-87.65560083333334,431,426,566,526,997,952,31,13.9,13.74,18.26,16.97,32.16,30.71
5,2023,15585,Budlong Woods Library,41.98366487,-87.696432352,36,33,56,66,92,99,31,1.16,1.06,1.81,2.13,2.97,3.19
5,2023,TA1305000017,Halsted St & Roosevelt Rd,41.86743066666666,-87.64866216666667,313,301,424,372,737,673,31,10.1,9.71,13.68,12.0,23.77,21.71
5,2023,13268,Damen Ave & Wellington Ave,41.935877204,-87.678432107,344,322,317,305,661,627,31,11.1,10.39,10.23,9.84,21.32,20.23
5,2023,TA1309000008,Franklin St & Adams St (Temp),41.879134297,-87.635394931,459,449,574,505,1033,954,31,14.81,14.48,18.52,16.29,33.32,30.77
5,2023,KA1503000043,Kingsbury St & Kinzie St,41.889166832,-87.638677001,1578,1554,1730,1765,3308,3319,31,50.9,50.13,55.81,56.94,106.71,107.06
5,2023,523,Eastlake Ter & Howard St,42.019160748,-87.66430223,112,117,75,60,187,177,31,3.61,3.77,2.42,1.94,6.03,5.71
5,2023,15666,California Ave & Lake St,41.884515047,-87.696323752,69,49,55,32,124,81,31,2.23,1.58,1.77,1.03,4.0,2.61
5,2023,TA1307000134,Wilton Ave & Belmont Ave,41.940222383,-87.652975321,1285,1262,1673,1677,2958,2939,31,41.45,40.71,53.97,54.1,95.42,94.81
5,2023,18062,Aberdeen St & Randolph St,41.884160161,-87.654327989,626,631,596,642,1222,1273,31,20.19,20.35,19.23,20.71,39.42,41.06
5,2023,13332,Loomis St & Lexington St,41.8721535,-87.66134466666666,936,918,1048,1058,1984,1976,31,30.19,29.61,33.81,34.13,64.0,63.74
5,2023,20252.0,W Oakdale Ave & N Broadway,41.94,-87.64,398,344,0,0,398,344,31,12.84,11.1,0.0,0.0,12.84,11.1
5,2023,13150,Michigan Ave & 18th St,41.857813,-87.62455,427,412,601,566,1028,978,31,13.77,13.29,19.39,18.26,33.16,31.55
5,2023,TA1305000030,Clark St & Randolph St,41.884467363,-87.631775856,585,556,1032,956,1617,1512,31,18.87,17.94,33.29,30.84,52.16,48.77
5,2023,766,Public Rack - Harold Washington Park,41.8,-87.58,32,23,0,0,32,23,22,1.45,1.05,0.0,0.0,1.45,1.05
5,2023,KA1504000135,Wells St & Elm St,41.903008,-87.6346015,1333,1325,1653,1626,2986,2951,31,43.0,42.74,53.32,52.45,96.32,95.19
5,2023,13389,Clarendon Ave & Junior Ter,41.9610285,-87.64956966666666,620,612,534,508,1154,1120,31,20.0,19.74,17.23,16.39,37.23,36.13
5,2023,13253,Lincoln Ave & Waveland Ave,41.948779345,-87.675240993,265,257,247,267,512,524,31,8.55,8.29,7.97,8.61,16.52,16.9
5,2023,16913,Cicero Ave & Quincy St,41.877607226,-87.745395541,14,19,5,0,19,19,16,0.88,1.19,0.31,0.0,1.19,1.19
5,2023,428,Milwaukee Ave & Fullerton Ave,41.924704166666665,-87.70061316666667,429,375,0,0,429,375,31,13.84,12.1,0.0,0.0,13.84,12.1
5,2023,TA1305000022,Orleans St & Merchandise Mart Plaza,41.888051987,-87.636539578,996,955,968,922,1964,1877,31,32.13,30.81,31.23,29.74,63.35,60.55
5,2023,13099,Halsted St & 18th St,41.857509971,-87.646043897,199,191,205,187,404,378,31,6.42,6.16,6.61,6.03,13.03,12.19
5,2023,1226.0,Public Rack - Avers & Lawrence,41.97,-87.72,18,17,0,0,18,17,15,1.2,1.13,0.0,0.0,1.2,1.13
5,2023,851,Public Rack - Kostner Ave & Lake St,41.89,-87.74,6,0,0,0,6,0,5,1.2,0.0,0.0,0.0,1.2,0.0
5,2023,15645,Richmond St & Diversey Ave,41.93189916666667,-87.70124466666667,231,227,153,169,384,396,31,7.45,7.32,4.94,5.45,12.39,12.77
5,2023,TA1307000039,Clark St & Elm St,41.902910233,-87.631389856,1374,1346,2034,2015,3408,3361,31,44.32,43.42,65.61,65.0,109.94,108.42
5,2023,13133,Damen Ave & Cortland St,41.91596766666667,-87.677249,743,744,626,687,1369,1431,31,23.97,24.0,20.19,22.16,44.16,46.16
5,2023,RP-009,Sheridan Rd & Loyola Ave,42.001158714,-87.661206245,271,268,202,230,473,498,32,8.47,8.38,6.31,7.19,14.78,15.56
5,2023,WL-008,Clinton St & Roosevelt Rd,41.867150903,-87.641017795,365,360,382,448,747,808,31,11.77,11.61,12.32,14.45,24.1,26.06
5,2023,TA1307000140,Western Ave & Leland Ave,41.966468334,-87.688733578,484,487,357,423,841,910,31,15.61,15.71,11.52,13.65,27.13,29.35
5,2023,604,Sheridan Rd & Noyes St (NU),42.0582155,-87.67747883333334,452,452,349,352,801,804,31,14.58,14.58,11.26,11.35,25.84,25.94
5,2023,TA1307000052,Sheffield Ave & Wellington Ave,41.93637366666667,-87.652575,840,810,993,1008,1833,1818,32,26.25,25.31,31.03,31.5,57.28,56.81
5,2023,20229,Baltimore Ave & 87th St,41.737354333333336,-87.54841283333333,10,10,11,14,21,24,17,0.59,0.59,0.65,0.82,1.24,1.41
5,2023,13042,Michigan Ave & Oak St,41.9014985,-87.62361866666667,1677,1650,2730,2767,4407,4417,31,54.1,53.23,88.06,89.26,142.16,142.48
5,2023,13137,Broadway & Barry Ave,41.937702775,-87.644125342,1304,1291,1562,1667,2866,2958,32,40.75,40.34,48.81,52.09,89.56,92.44
5,2023,KA1503000074,Museum of Science and Industry,41.79168916666666,-87.5839655,150,150,488,444,638,594,31,4.84,4.84,15.74,14.32,20.58,19.16
5,2023,13006,LaSalle St & Washington St,41.882676601,-87.632046342,383,382,379,375,762,757,31,12.35,12.32,12.23,12.1,24.58,24.42
5,2023,13243,Milwaukee Ave & Wabansia Ave,41.912589833333335,-87.68147283333333,757,746,702,763,1459,1509,31,24.42,24.06,22.65,24.61,47.06,48.68
5,2023,TA1306000025,Racine Ave & Congress Pkwy,41.87467266666667,-87.65696533333333,365,334,559,434,924,768,31,11.77,10.77,18.03,14.0,29.81,24.77
5,2023,chargingstx4,Morgan St & Lake St*,41.885549833333336,-87.65230666666666,328,401,366,420,694,821,31,10.58,12.94,11.81,13.55,22.39,26.48
5,2023,13163,Morgan St & 18th St,41.858103275,-87.651152968,287,282,290,279,577,561,31,9.26,9.1,9.35,9.0,18.61,18.1
5,2023,13108,Broadway & Argyle St,41.973711133,-87.659655929,411,405,431,415,842,820,31,13.26,13.06,13.9,13.39,27.16,26.45
5,2023,15576,Lakefront Trail & Bryn Mawr Ave,41.984035134,-87.652337909,514,525,839,897,1353,1422,32,16.06,16.41,26.22,28.03,42.28,44.44
5,2023,TA1309000006,Larrabee St & Armitage Ave,41.918117046,-87.643713236,435,440,556,543,991,983,31,14.03,14.19,17.94,17.52,31.97,31.71
5,2023,644,Western Ave & Fillmore St,41.868647695,-87.686232686,433,423,215,217,648,640,31,13.97,13.65,6.94,7.0,20.9,20.65
5,2023,RP-008,Clark St & Columbia Ave,42.00449616666667,-87.67239433333333,191,187,75,70,266,257,31,6.16,6.03,2.42,2.26,8.58,8.29
5,2023,TA1309000019,Lakeview Ave & Fullerton Pkwy,41.925896049,-87.638994813,941,941,1282,1277,2223,2218,32,29.41,29.41,40.06,39.91,69.47,69.31
5,2023,443,California Ave & Winona St,41.97,-87.7,64,62,0,0,64,62,28,2.29,2.21,0.0,0.0,2.29,2.21
5,2023,13017,Franklin St & Chicago Ave,41.89693616666667,-87.6357225,625,569,972,708,1597,1277,31,20.16,18.35,31.35,22.84,51.52,41.19
5,2023,13091,Western Ave & 21st St,41.854138613,-87.685882449,112,111,103,102,215,213,31,3.61,3.58,3.32,3.29,6.94,6.87
5,2023,13139,Throop St & Taylor St,41.868803,-87.65909216666667,300,299,397,413,697,712,31,9.68,9.65,12.81,13.32,22.48,22.97
5,2023,15550,Canal St & Taylor St,41.870173666666666,-87.6394605,314,310,375,399,689,709,31,10.13,10.0,12.1,12.87,22.23,22.87
5,2023,TA1307000070,Damen Ave & Thomas St (Augusta Blvd),41.901420593,-87.677484274,427,405,509,452,936,857,31,13.77,13.06,16.42,14.58,30.19,27.65
5,2023,TA1305000034,Honore St & Division St,41.903101325,-87.673923612,826,816,633,722,1459,1538,31,26.65,26.32,20.42,23.29,47.06,49.61
5,2023,13138,Canal St & Jackson Blvd,41.877366543,-87.639740944,807,777,777,701,1584,1478,31,26.03,25.06,25.06,22.61,51.1,47.68
5,2023,15655,Albany Ave & Bloomingdale Ave,41.91402671273,-87.705126462,292,283,250,232,542,515,31,9.42,9.13,8.06,7.48,17.48,16.61
5,2023,KA1504000090,St. Louis Ave & Fullerton Ave,41.924816666666665,-87.7145305,175,174,160,196,335,370,31,5.65,5.61,5.16,6.32,10.81,11.94
5,2023,TA1307000128,Dearborn Pkwy & Delaware Pl,41.89879716666667,-87.62986383333333,917,917,1233,1246,2150,2163,31,29.58,29.58,39.77,40.19,69.35,69.77
5,2023,13257,Campbell Ave & North Ave,41.910535,-87.689556,328,305,315,295,643,600,31,10.58,9.84,10.16,9.52,20.74,19.35
5,2023,TA1305000037,Paulina Ave & North Ave,41.91032833333333,-87.67009,446,439,406,430,852,869,31,14.39,14.16,13.1,13.87,27.48,28.03
5,2023,410,Campbell Ave & Augusta Blvd,41.899508833333336,-87.68944716666667,176,116,0,0,176,116,30,5.87,3.87,0.0,0.0,5.87,3.87
5,2023,LF-005,DuSable Lake Shore Dr & North Blvd,41.911732197,-87.626783371,1460,1401,2731,3149,4191,4550,31,47.1,45.19,88.1,101.58,135.19,146.77
5,2023,TA1309000055,Emerald Ave & 31st St,41.8382195,-87.645123,420,412,316,349,736,761,31,13.55,13.29,10.19,11.26,23.74,24.55
5,2023,SL-011,Wells St & Polk St,41.872675896,-87.633766174,441,446,490,480,931,926,32,13.78,13.94,15.31,15.0,29.09,28.94
5,2023,13192,Halsted St & Dickens Ave,41.919936,-87.64883,868,868,1019,1073,1887,1941,31,28.0,28.0,32.87,34.61,60.87,62.61
5,2023,KA1504000080,Washtenaw Ave & Lawrence Ave,41.968755245,-87.696231723,139,134,132,148,271,282,31,4.48,4.32,4.26,4.77,8.74,9.1
5,2023,TA1307000158,Damen Ave & Leland Ave,41.967133403,-87.679253936,389,362,306,265,695,627,32,12.16,11.31,9.56,8.28,21.72,19.59
5,2023,TA1309000039,DuSable Lake Shore Dr & Diversey Pkwy,41.932543755,-87.636451602,1039,1060,1633,1723,2672,2783,32,32.47,33.12,51.03,53.84,83.5,86.97
5,2023,16010,Keystone Ave & Fullerton Ave,41.92459,-87.72785,75,71,51,55,126,126,30,2.5,2.37,1.7,1.83,4.2,4.2
5,2023,KA1504000171,Marine Dr & Ainslie St,41.9716015,-87.6502775,392,394,359,400,751,794,31,12.65,12.71,11.58,12.9,24.23,25.61
5,2023,TA1307000119,Clarendon Ave & Leland Ave,41.967959,-87.65003833333333,370,365,302,286,672,651,31,11.94,11.77,9.74,9.23,21.68,21.0
5,2023,15648,Campbell Ave & Fullerton Ave,41.924643755,-87.689332366,160,160,184,205,344,365,31,5.16,5.16,5.94,6.61,11.1,11.77
5,2023,TA1309000026,Lincoln Ave & Belle Plaine Ave,41.955893755,-87.680173039,297,305,269,306,566,611,31,9.58,9.84,8.68,9.87,18.26,19.71
5,2023,13179,Clark St & Lincoln Ave,41.915703177,-87.634582043,1223,1192,1664,1683,2887,2875,31,39.45,38.45,53.68,54.29,93.13,92.74
5,2023,WL-012,Clinton St & Washington Blvd,41.883573055,-87.641245723,1559,1528,1545,1515,3104,3043,31,50.29,49.29,49.84,48.87,100.13,98.16
5,2023,360,Kilbourn & Roscoe,41.942665833333336,-87.73955216666667,60,37,0,0,60,37,26,2.31,1.42,0.0,0.0,2.31,1.42
5,2023,17660,California Ave & Cortez St,41.900374651,-87.696782351,418,426,277,336,695,762,31,13.48,13.74,8.94,10.84,22.42,24.58
5,2023,TA1305000003,Fairbanks Ct & Grand Ave,41.89201498,-87.62073791,735,733,1006,968,1741,1701,31,23.71,23.65,32.45,31.23,56.16,54.87
5,2023,TA1307000124,Michigan Ave & 14th St,41.864075541,-87.623690367,517,506,789,738,1306,1244,31,16.68,16.32,25.45,23.81,42.13,40.13
5,2023,13269,Ashland Ave & Wellington Ave,41.9361095,-87.66993183333334,402,396,308,334,710,730,31,12.97,12.77,9.94,10.77,22.9,23.55
5,2023,TA1309000021,Paulina St & Montrose Ave,41.96148616666667,-87.67144166666667,189,189,248,246,437,435,31,6.1,6.1,8.0,7.94,14.1,14.03
5,2023,TA1309000001,Halsted St & Maxwell St,41.864823341,-87.6470474,485,479,399,412,884,891,31,15.65,15.45,12.87,13.29,28.52,28.74
5,2023,636,Orleans St & Hubbard St,41.88978133333333,-87.6366865,398,380,574,460,972,840,31,12.84,12.26,18.52,14.84,31.35,27.1
5,2023,13409,Sangamon St & Washington Blvd,41.883084333333336,-87.65108983333333,468,463,505,522,973,985,31,15.1,14.94,16.29,16.84,31.39,31.77
5,2023,13217,Calumet Ave & 33rd St,41.8348095,-87.61785783333333,424,416,486,481,910,897,31,13.68,13.42,15.68,15.52,29.35,28.94
5,2023,TA1306000029,McClurg Ct & Ohio St,41.892592119709725,-87.61728912591934,764,746,1392,1385,2156,2131,31,24.65,24.06,44.9,44.68,69.55,68.74
5,2023,13431,Adler Planetarium,41.86614866666667,-87.6073265,575,551,1082,1051,1657,1602,30,19.17,18.37,36.07,35.03,55.23,53.4
5,2023,TA1308000029,Stetson Ave & South Water St,41.88677833333333,-87.62142783333333,580,572,516,478,1096,1050,31,18.71,18.45,16.65,15.42,35.35,33.87
5,2023,13285,Wood St & Taylor St (Temp),41.869265218438194,-87.67373085021973,298,280,450,369,748,649,31,9.61,9.03,14.52,11.9,24.13,20.94
5,2023,KA1503000070,Harper Ave & 59th St,41.78794281287,-87.5883151702,202,204,552,520,754,724,31,6.52,6.58,17.81,16.77,24.32,23.35
5,2023,13081,Ogden Ave & Congress Pkwy,41.87501,-87.67328,171,143,245,186,416,329,31,5.52,4.61,7.9,6.0,13.42,10.61
5,2023,KA1503000004,Lake Park Ave & 35th St,41.831254005,-87.608771682,103,99,237,253,340,352,31,3.32,3.19,7.65,8.16,10.97,11.35
5,2023,TA1307000066,Damen Ave & Coulter St,41.8492,-87.67564,46,47,35,37,81,84,31,1.48,1.52,1.13,1.19,2.61,2.71
5,2023,576,Greenwood Ave & 79th St,41.751351,-87.59750216666667,9,8,5,6,14,14,18,0.5,0.44,0.28,0.33,0.78,0.78
5,2023,TA1309000007,Franklin St & Monroe St,41.88016383333333,-87.63538366666667,1004,1002,802,806,1806,1808,31,32.39,32.32,25.87,26.0,58.26,58.32
5,2023,13158,Peoria St & Jackson Blvd,41.87785387,-87.649453282,617,600,987,910,1604,1510,31,19.9,19.35,31.84,29.35,51.74,48.71
5,2023,TA1305000005,Dearborn St & Adams St,41.8793563587,-87.6297910363,370,358,657,587,1027,945,31,11.94,11.55,21.19,18.94,33.13,30.48
5,2023,518,Conservatory Dr & Lake St,41.885499954,-87.716904998,52,48,31,31,83,79,30,1.73,1.6,1.03,1.03,2.77,2.63
5,2023,KA1504000159,Sheridan Rd & Greenleaf Ave,42.010619164,-87.662425041,114,107,114,111,228,218,31,3.68,3.45,3.68,3.58,7.35,7.03
5,2023,TA1308000012,Montrose Harbor,41.963982,-87.638181,886,874,1267,1318,2153,2192,31,28.58,28.19,40.87,42.52,69.45,70.71
5,2023,13345,Calumet Ave & 35th St,41.83132866666666,-87.61804183333334,154,154,212,241,366,395,31,4.97,4.97,6.84,7.77,11.81,12.74
5,2023,TA1309000010,Wabash Ave & 9th St,41.870769,-87.625734,432,424,864,832,1296,1256,31,13.94,13.68,27.87,26.84,41.81,40.52
5,2023,13089,Damen Ave & Cullerton St,41.854966518753926,-87.67569959163664,161,160,145,187,306,347,31,5.19,5.16,4.68,6.03,9.87,11.19
5,2023,13307,Laflin St & Cullerton St,41.85491457576575,-87.66355991363525,172,164,138,164,310,328,31,5.55,5.29,4.45,5.29,10.0,10.58
5,2023,TA1305000009,Clark St & Ida B Wells Dr,41.8759326655,-87.6305845355,218,190,529,378,747,568,31,7.03,6.13,17.06,12.19,24.1,18.32
5,2023,TA1309000002,Michigan Ave & Jackson Blvd,41.87785,-87.62408,434,445,951,969,1385,1414,32,13.56,13.91,29.72,30.28,43.28,44.19
5,2023,13266,Stave St & Armitage Ave,41.917673111,-87.691659212,323,323,260,274,583,597,31,10.42,10.42,8.39,8.84,18.81,19.26
5,2023,15530,Rush St & Superior St,41.895898333333335,-87.6257365,649,634,874,873,1523,1507,31,20.94,20.45,28.19,28.16,49.13,48.61
5,2023,411,Francisco Ave & Chicago Ave,41.895716548,-87.698560357,87,44,0,0,87,44,27,3.22,1.63,0.0,0.0,3.22,1.63
5,2023,13427,Cityfront Plaza Dr & Pioneer Ct,41.890573,-87.622072,569,543,671,642,1240,1185,31,18.35,17.52,21.65,20.71,40.0,38.23
5,2023,605,University Library (NU),42.052939,-87.673447,173,178,170,178,343,356,31,5.58,5.74,5.48,5.74,11.06,11.48
5,2023,13045,Dearborn St & Erie St,41.89429483333333,-87.62937916666667,1005,1002,1394,1381,2399,2383,31,32.42,32.32,44.97,44.55,77.39,76.87
5,2023,KA1503000038,Shields Ave & 31st St,41.838526011,-87.635333896,358,341,306,259,664,600,31,11.55,11.0,9.87,8.35,21.42,19.35
5,2023,KA1504000109,Washtenaw Ave & Ogden Ave,41.86193049278259,-87.69345045089722,23,19,25,28,48,47,26,0.88,0.73,0.96,1.08,1.85,1.81
5,2023,23001,Elizabeth St & Randolph St,41.88,-87.66,313,300,355,358,668,658,31,10.1,9.68,11.45,11.55,21.55,21.23
5,2023,KA1503000005,Wentworth Ave & 35th St,41.830801129,-87.632486701,103,91,174,138,277,229,31,3.32,2.94,5.61,4.45,8.94,7.39
5,2023,KA1504000110,Millard Ave & 26th St,41.84453112462163,-87.71592199802399,24,18,17,22,41,40,30,0.8,0.6,0.57,0.73,1.37,1.33
5,2023,KA1503000068,Leavitt St & Archer Ave,41.82879201994,-87.6806044594,96,89,33,38,129,127,31,3.1,2.87,1.06,1.23,4.16,4.1
5,2023,15541,Buckingham Fountain,41.868288,-87.623982,304,275,801,675,1105,950,31,9.81,8.87,25.84,21.77,35.65,30.65
5,2023,TA1306000006,Orleans St & Elm St,41.902924,-87.637715,358,354,329,305,687,659,31,11.55,11.42,10.61,9.84,22.16,21.26
5,2023,13037,Clinton St & Tilden St,41.875885,-87.640795,207,203,271,216,478,419,32,6.47,6.34,8.47,6.75,14.94,13.09
5,2023,TA1307000120,Green St & Madison St,41.88185932803823,-87.64926373958588,1051,1031,1140,1121,2191,2152,31,33.9,33.26,36.77,36.16,70.68,69.42
5,2023,RP-002,Warren Park East,42.00454962194,-87.6806661451,65,64,40,42,105,106,30,2.17,2.13,1.33,1.4,3.5,3.53
5,2023,TA1309000058,Lincoln Ave & Fullerton Ave,41.924161029067626,-87.64638036489487,1146,1139,1340,1376,2486,2515,31,36.97,36.74,43.23,44.39,80.19,81.13
5,2023,TA1305000029,State St & Randolph St,41.88440333333333,-87.627826,646,639,970,949,1616,1588,31,20.84,20.61,31.29,30.61,52.13,51.23
5,2023,KA1503000007,Cornell Ave & Hyde Park Blvd,41.802406,-87.586924,179,163,592,540,771,703,31,5.77,5.26,19.1,17.42,24.87,22.68
5,2023,13290,Noble St & Milwaukee Ave,41.900729179,-87.662663341,373,356,426,417,799,773,31,12.03,11.48,13.74,13.45,25.77,24.94
5,2023,TA1307000159,Paulina St & 18th St,41.858001232,-87.668749809,225,241,247,283,472,524,31,7.26,7.77,7.97,9.13,15.23,16.9
5,2023,13353,Ada St & Washington Blvd,41.88283,-87.661206,313,290,409,365,722,655,31,10.1,9.35,13.19,11.77,23.29,21.13
5,2023,TA1309000014,Clark St & Leland Ave,41.96706866666667,-87.66742183333334,528,515,563,536,1091,1051,31,17.03,16.61,18.16,17.29,35.19,33.9
5,2023,KA1503000046,Dorchester Ave & 63rd St,41.7804056457,-87.5914159893,25,29,65,96,90,125,30,0.83,0.97,2.17,3.2,3.0,4.17
5,2023,TA1307000115,Clybourn Ave & Division St,41.904613,-87.640552,258,257,431,390,689,647,31,8.32,8.29,13.9,12.58,22.23,20.87
5,2023,13289,Eckhart Park,41.89646783333333,-87.66104766666666,448,437,465,460,913,897,31,14.45,14.1,15.0,14.84,29.45,28.94
5,2023,TA1308000026,Wentworth Ave & 24th St,41.850071907,-87.632326007,93,91,111,131,204,222,31,3.0,2.94,3.58,4.23,6.58,7.16
5,2023,TA1307000044,Clinton St & 18th St,41.85778716666667,-87.64094966666667,151,154,173,188,324,342,31,4.87,4.97,5.58,6.06,10.45,11.03
5,2023,TA1309000066,Ravenswood Ave & Lawrence Ave,41.96917833333333,-87.67418083333334,1068,1069,718,717,1786,1786,31,34.45,34.48,23.16,23.13,57.61,57.61
5,2023,TA1309000032,Elston Ave & Wabansia Ave,41.912919,-87.664169,156,152,191,219,347,371,31,5.03,4.9,6.16,7.06,11.19,11.97
5,2023,13155,Racine Ave & Randolph St,41.884069,-87.656853,168,156,266,242,434,398,31,5.42,5.03,8.58,7.81,14.0,12.84
5,2023,13341,Canal St & Madison St,41.88197,-87.64001516666667,987,982,1045,1123,2032,2105,31,31.84,31.68,33.71,36.23,65.55,67.9
5,2023,472,Elston Ave & George St,41.93,-87.69,170,142,0,0,170,142,31,5.48,4.58,0.0,0.0,5.48,4.58
5,2023,RN-,Franklin St & Illinois St,41.89102331025185,-87.63547986745834,639,622,783,777,1422,1399,31,20.61,20.06,25.26,25.06,45.87,45.13
5,2023,13058,Dayton St & North Ave,41.9105780349,-87.6494219288,590,588,719,674,1309,1262,31,19.03,18.97,23.19,21.74,42.23,40.71
5,2023,TA1308000022,Pine Grove Ave & Irving Park Rd,41.954383,-87.648043,770,736,951,893,1721,1629,31,24.84,23.74,30.68,28.81,55.52,52.55
5,2023,16994,Kilbourn Ave & Milwaukee Ave,41.94707089418471,-87.74000823497772,30,22,17,31,47,53,25,1.2,0.88,0.68,1.24,1.88,2.12
5,2023,13059,Sheridan Rd & Argyle St,41.97333616666667,-87.6547355,369,371,384,387,753,758,31,11.9,11.97,12.39,12.48,24.29,24.45
5,2023,432,Sacramento Blvd & Addison St,41.946069717,-87.702950597,110,92,0,0,110,92,29,3.79,3.17,0.0,0.0,3.79,3.17
5,2023,20251.0,N Carpenter St & W Lake St,41.885681629,-87.65301311,296,223,0,0,296,223,31,9.55,7.19,0.0,0.0,9.55,7.19
5,2023,600,Dodge Ave & Church St,42.048351526,-87.698520184,48,43,49,53,97,96,31,1.55,1.39,1.58,1.71,3.13,3.1
5,2023,15442,Ashland Ave & Archer Ave,41.839122415,-87.665653467,117,102,109,98,226,200,32,3.66,3.19,3.41,3.06,7.06,6.25
5,2023,15622,California Ave & Montrose Ave,41.96098876,-87.695407987,228,232,201,210,429,442,31,7.35,7.48,6.48,6.77,13.84,14.26
5,2023,WL-011,Jefferson St & Monroe St,41.880329633634624,-87.64274597167967,428,409,548,463,976,872,31,13.81,13.19,17.68,14.94,31.48,28.13
5,2023,KA1503000040,Loomis St & Archer Ave,41.84163253965,-87.6574349533,65,67,91,97,156,164,31,2.1,2.16,2.94,3.13,5.03,5.29
5,2023,KA1504000167,Kedzie Ave & Bryn Mawr Ave,41.98222975911517,-87.70888656377792,71,68,48,58,119,126,29,2.45,2.34,1.66,2.0,4.1,4.34
5,2023,433,Elston Ave & Henderson St,41.94,-87.7,146,130,0,0,146,130,31,4.71,4.19,0.0,0.0,4.71,4.19
5,2023,16916,Central Ave & Madison St,41.880115333333336,-87.76327416666666,16,18,5,3,21,21,18,0.89,1.0,0.28,0.17,1.17,1.17
5,2023,16906,Austin Blvd & Lake St,41.887947321,-87.774462104,36,36,12,14,48,50,26,1.38,1.38,0.46,0.54,1.85,1.92
5,2023,KA17018068,Leavitt St & Belmont Ave,41.939354,-87.683282,309,301,201,203,510,504,31,9.97,9.71,6.48,6.55,16.45,16.26
5,2023,13294,Greenview Ave & Diversey Pkwy,41.93258963429789,-87.66593635082245,354,337,457,411,811,748,31,11.42,10.87,14.74,13.26,26.16,24.13
5,2023,15529,Mies van der Rohe Way & Chestnut St,41.8985866514,-87.6219152258,637,625,819,820,1456,1445,31,20.55,20.16,26.42,26.45,46.97,46.61
5,2023,22001,Wells St & Institute Pl,41.89737986072316,-87.63442039489746,256,239,442,364,698,603,31,8.26,7.71,14.26,11.74,22.52,19.45
5,2023,KA1503000041,McClurg Ct & Erie St,41.894503,-87.617854,658,645,891,920,1549,1565,31,21.23,20.81,28.74,29.68,49.97,50.48
5,2023,540,Laramie Ave & Madison St,41.880194068,-87.755334616,14,13,4,5,18,18,20,0.7,0.65,0.2,0.25,0.9,0.9
5,2023,13319,Ashland Ave & Grace St,41.950648666666666,-87.66874916666667,405,390,343,315,748,705,31,13.06,12.58,11.06,10.16,24.13,22.74
5,2023,KA1504000175,Glenwood Ave & Morse Ave,42.00797192287,-87.6655023944,276,284,216,227,492,511,31,8.9,9.16,6.97,7.32,15.87,16.48
5,2023,TA1307000153,Emerald Ave & 28th St,41.84358,-87.645368,125,123,177,182,302,305,32,3.91,3.84,5.53,5.69,9.44,9.53
5,2023,515,Paulina St & Howard St,42.01916583333333,-87.67355416666666,129,125,144,127,273,252,31,4.16,4.03,4.65,4.1,8.81,8.13
5,2023,SL-012,Wabash Ave & 16th St,41.860384,-87.625813,355,335,593,535,948,870,31,11.45,10.81,19.13,17.26,30.58,28.06
5,2023,15632,Talman Ave & Addison St,41.94666,-87.69465866666667,275,253,174,184,449,437,31,8.87,8.16,5.61,5.94,14.48,14.1
5,2023,13154,Sheffield Ave & Kingsbury St,41.910522,-87.653106,748,747,820,845,1568,1592,31,24.13,24.1,26.45,27.26,50.58,51.35
5,2023,chargingstx0,Wilton Ave & Diversey Pkwy*,41.932418,-87.652705,123,114,165,156,288,270,31,3.97,3.68,5.32,5.03,9.29,8.71
5,2023,13265,Kingsbury St & Erie St,41.89380805624359,-87.64169722795485,805,762,1032,919,1837,1681,31,25.97,24.58,33.29,29.65,59.26,54.23
5,2023,KA1504000103,Western Ave & Walton St,41.89841768945,-87.6865960164,378,382,311,312,689,694,31,12.19,12.32,10.03,10.06,22.23,22.39
5,2023,TA1307000139,MLK Jr Dr & 29th St,41.842052,-87.617,677,678,757,693,1434,1371,32,21.16,21.19,23.66,21.66,44.81,42.84
5,2023,337,Hoyne Ave & 34th St,41.83,-87.68,20,13,0,0,20,13,15,1.33,0.87,0.0,0.0,1.33,0.87
5,2023,TA1307000048,Fort Dearborn Dr & 31st St,41.83849583333333,-87.60829466666667,319,308,721,705,1040,1013,30,10.63,10.27,24.03,23.5,34.67,33.77
5,2023,20241,Steelworkers Park,41.737948298,-87.530975699,19,19,0,0,19,19,13,1.46,1.46,0.0,0.0,1.46,1.46
5,2023,13068,Western Ave & Winnebago Ave,41.91553583333334,-87.68710533333334,558,539,632,585,1190,1124,31,18.0,17.39,20.39,18.87,38.39,36.26
5,2023,TA1305000004,McCormick Place,41.8513751729,-87.6188346489,269,255,398,374,667,629,31,8.68,8.23,12.84,12.06,21.52,20.29
5,2023,KA1503000066,Wood St & 35th St,41.830209732,-87.670151353,91,85,44,32,135,117,31,2.94,2.74,1.42,1.03,4.35,3.77
5,2023,517,Public Rack - Pulaski Rd & Armitage Ave,41.917115569,-87.727072358,77,75,55,45,132,120,31,2.48,2.42,1.77,1.45,4.26,3.87
5,2023,TA1308000006,Damen Ave & Grand Ave,41.916831017,-87.667806387,336,343,258,256,594,599,32,10.5,10.72,8.06,8.0,18.56,18.72
5,2023,16933,Morgan St & Pershing Rd,41.823613,-87.650931,8,7,10,6,18,13,16,0.5,0.44,0.62,0.38,1.12,0.81
5,2023,414,Sacramento Blvd & Fulton Ave,41.89,-87.7,42,30,0,0,42,30,24,1.75,1.25,0.0,0.0,1.75,1.25
5,2023,13213,State St & 29th St,41.841717,-87.62696883333334,47,43,86,90,133,133,31,1.52,1.39,2.77,2.9,4.29,4.29
5,2023,TA1306000026,Racine Ave & Fullerton Ave,41.92557466,-87.658494949,905,905,1041,1009,1946,1914,31,29.19,29.19,33.58,32.55,62.77,61.74
5,2023,623,Michigan Ave & 8th St,41.872773,-87.623981,569,510,1252,1089,1821,1599,31,18.35,16.45,40.39,35.13,58.74,51.58
5,2023,TA1306000009,Larrabee St & Kingsbury St,41.897679806,-87.642850637,1077,1077,823,915,1900,1992,31,34.74,34.74,26.55,29.52,61.29,64.26
5,2023,TA1308000019,Racine Ave & Belmont Ave,41.939743,-87.658865,705,685,705,734,1410,1419,32,22.03,21.41,22.03,22.94,44.06,44.34
5,2023,KA1504000142,Drake Ave & Addison St,41.947405333333336,-87.717608,126,126,100,99,226,225,31,4.06,4.06,3.23,3.19,7.29,7.26
5,2023,13033,Milwaukee Ave & Grand Ave,41.891578,-87.648384,790,763,845,695,1635,1458,32,24.69,23.84,26.41,21.72,51.09,45.56
5,2023,TA1305000041,Damen Ave & Pierce Ave,41.9093960065,-87.6776919292,1202,1214,1025,1181,2227,2395,31,38.77,39.16,33.06,38.1,71.84,77.26
5,2023,TA1307000164,Woodlawn Ave & 55th St,41.795264,-87.596471,300,280,899,725,1199,1005,32,9.38,8.75,28.09,22.66,37.47,31.41
5,2023,312,Lockwood Ave & Wrightwood Ave,41.93,-87.76,53,31,0,0,53,31,28,1.89,1.11,0.0,0.0,1.89,1.11
5,2023,13304,Racine Ave & 15th St,41.861252666,-87.656428695,162,149,168,143,330,292,31,5.23,4.81,5.42,4.61,10.65,9.42
5,2023,13056,Canal St & Monroe St,41.881623149,-87.639210224,835,832,717,706,1552,1538,31,26.94,26.84,23.13,22.77,50.06,49.61
5,2023,TA1309000011,Ellis Ave & 58th St,41.788746,-87.601334,222,216,828,911,1050,1127,31,7.16,6.97,26.71,29.39,33.87,36.35
5,2023,13128,Clark St & North Ave,41.911974,-87.631942,498,483,838,851,1336,1334,31,16.06,15.58,27.03,27.45,43.1,43.03
5,2023,13191,Sedgwick St & Webster Ave,41.922167,-87.638888,711,688,945,957,1656,1645,31,22.94,22.19,30.48,30.87,53.42,53.06
5,2023,13326,Canal St & Harrison St,41.87431933333333,-87.6396125,111,93,217,174,328,267,31,3.58,3.0,7.0,5.61,10.58,8.61
5,2023,TA1307000127,Clark St & Grace St,41.95078,-87.659172,799,775,693,711,1492,1486,32,24.97,24.22,21.66,22.22,46.62,46.44
5,2023,13050,State St & Kinzie St,41.88937546663168,-87.62707650661469,747,752,862,971,1609,1723,31,24.1,24.26,27.81,31.32,51.9,55.58
5,2023,13132,Damen Ave & Chicago Ave,41.895769,-87.67722,660,672,417,515,1077,1187,32,20.62,21.0,13.03,16.09,33.66,37.09
5,2023,TA1306000013,New St & Illinois St,41.89084704062381,-87.61861681938171,781,751,1271,1215,2052,1966,31,25.19,24.23,41.0,39.19,66.19,63.42
5,2023,TA1307000041,DuSable Lake Shore Dr & Wellington Ave,41.936690092,-87.636796474,802,813,1282,1419,2084,2232,31,25.87,26.23,41.35,45.77,67.23,72.0
5,2023,TA1306000012,Wells St & Huron St,41.894722,-87.634362,1072,1055,1196,1150,2268,2205,31,34.58,34.03,38.58,37.1,73.16,71.13
5,2023,15539,Desplaines St & Jackson Blvd,41.87811890091227,-87.64394760131836,643,619,761,707,1404,1326,31,20.74,19.97,24.55,22.81,45.29,42.77
5,2023,13011,Canal St & Adams St,41.879277229,-87.640260339,1176,1160,1164,1198,2340,2358,31,37.94,37.42,37.55,38.65,75.48,76.06
5,2023,SL-005,Indiana Ave & Roosevelt Rd,41.867946148,-87.623072743,977,955,1912,1807,2889,2762,31,31.52,30.81,61.68,58.29,93.19,89.1
5,2023,TA1307000138,Wood St & Webster Ave,41.92105672992757,-87.67279744148254,188,180,220,168,408,348,31,6.06,5.81,7.1,5.42,13.16,11.23
5,2023,446,Francisco Ave & Montrose Ave,41.96,-87.7,148,132,0,0,148,132,31,4.77,4.26,0.0,0.0,4.77,4.26
5,2023,TA1309000059,Racine Ave & Wrightwood Ave,41.928887,-87.658971,342,334,529,501,871,835,31,11.03,10.77,17.06,16.16,28.1,26.94
5,2023,SL-006,Wells St & 19th St,41.856802,-87.633879,115,112,114,134,229,246,30,3.83,3.73,3.8,4.47,7.63,8.2
5,2023,15615,Christiana Ave & Lawrence Ave,41.96835449363,-87.7118306675,109,116,73,78,182,194,30,3.63,3.87,2.43,2.6,6.07,6.47
5,2023,KA1504000093,Rockwell St & Eastwood Ave,41.96590013976,-87.6936384935,201,187,186,162,387,349,31,6.48,6.03,6.0,5.23,12.48,11.26
5,2023,KA17018054,Damen Ave & Walnut (Lake) St,41.885951,-87.677009,157,143,127,150,284,293,31,5.06,4.61,4.1,4.84,9.16,9.45
5,2023,15624,Avondale Ave & Irving Park Rd,41.953435421,-87.732049465,174,161,82,60,256,221,31,5.61,5.19,2.65,1.94,8.26,7.13
5,2023,TA1309000030,Southport Ave & Clybourn Ave,41.9207285,-87.6637375,458,469,480,587,938,1056,31,14.77,15.13,15.48,18.94,30.26,34.06
5,2023,525,Glenwood Ave & Touhy Ave,42.012701,-87.666058,76,75,129,118,205,193,31,2.45,2.42,4.16,3.81,6.61,6.23
5,2023,15631,Troy St & Elston Ave,41.945244333333335,-87.7066915,150,156,129,163,279,319,31,4.84,5.03,4.16,5.26,9.0,10.29
5,2023,13134,Damen Ave & Madison St,41.8814015,-87.674916,158,144,100,107,258,251,31,5.1,4.65,3.23,3.45,8.32,8.1
5,2023,13338,Mies van der Rohe Way & Chicago Ave,41.8973745,-87.62172766666667,709,708,780,817,1489,1525,31,22.87,22.84,25.16,26.35,48.03,49.19
5,2023,537,Kenton Ave & Madison St,41.880751252,-87.740999818,33,29,11,0,44,29,25,1.32,1.16,0.44,0.0,1.76,1.16
5,2023,660,Sheridan Rd & Columbia Ave,42.004574537,-87.661538839,183,184,233,240,416,424,31,5.9,5.94,7.52,7.74,13.42,13.68
5,2023,639,Lakefront Trail & Wilson Ave,41.965845,-87.645361,392,385,583,635,975,1020,31,12.65,12.42,18.81,20.48,31.45,32.9
5,2023,430,Troy St & Grace St,41.95,-87.71,135,109,0,0,135,109,31,4.35,3.52,0.0,0.0,4.35,3.52
5,2023,13331,May St & Cullerton St,41.855175018,-87.6541574,101,103,102,121,203,224,31,3.26,3.32,3.29,3.9,6.55,7.23
5,2023,KA1503000031,Cottage Grove Ave & 67th St,41.77372095205,-87.60563486,21,19,25,29,46,48,28,0.75,0.68,0.89,1.04,1.64,1.71
5,2023,426,California & 16th St,41.85926083333333,-87.6954885,24,19,0,0,24,19,18,1.33,1.06,0.0,0.0,1.33,1.06
5,2023,TA1307000143,Sedgwick St & Schiller St,41.907676339,-87.638478279,209,191,286,220,495,411,30,6.97,6.37,9.53,7.33,16.5,13.7
5,2023,KA1504000102,Fairfield Ave & Roosevelt Rd,41.866605043,-87.694515824,32,32,4,14,36,46,24,1.33,1.33,0.17,0.58,1.5,1.92
5,2023,13063,Sheridan Rd & Irving Park Rd,41.954276204,-87.654448867,819,805,1034,1007,1853,1812,32,25.59,25.16,32.31,31.47,57.91,56.62
5,2023,15621,Albany Ave & Montrose Ave,41.961041,-87.705866,130,125,90,82,220,207,31,4.19,4.03,2.9,2.65,7.1,6.68
5,2023,13102,Calumet Ave & 18th St,41.857710838,-87.619448543,319,321,584,632,903,953,31,10.29,10.35,18.84,20.39,29.13,30.74
5,2023,KA1503000069,Dorchester Ave & 49th St,41.805772,-87.592464,37,36,46,45,83,81,31,1.19,1.16,1.48,1.45,2.68,2.61
5,2023,20224,Calumet Park,41.71371,-87.530844,0,0,9,10,9,10,9,0.0,0.0,1.0,1.11,1.0,1.11
5,2023,658,Leavitt St & Division St,41.902988911,-87.68369233600001,296,275,287,280,583,555,31,9.55,8.87,9.26,9.03,18.81,17.9
5,2023,KA1504000097,Drake Ave & Montrose Ave,41.96115407569,-87.7165690733,49,50,71,67,120,117,31,1.58,1.61,2.29,2.16,3.87,3.77
5,2023,520,Greenview Ave & Jarvis Ave,42.015946627,-87.668729782,190,193,189,180,379,373,31,6.13,6.23,6.1,5.81,12.23,12.03
5,2023,KA1503000052,Ellis Ave & 53rd St,41.79933626261,-87.6009581145,148,147,451,383,599,530,31,4.77,4.74,14.55,12.35,19.32,17.1
5,2023,TA1309000063,Lake Park Ave & 56th St,41.793242,-87.587782,194,188,762,749,956,937,31,6.26,6.06,24.58,24.16,30.84,30.23
5,2023,TA1307000156,Lincoln Ave & Sunnyside Ave,41.963060498,-87.684789062,333,339,277,337,610,676,31,10.74,10.94,8.94,10.87,19.68,21.81
5,2023,624,Dearborn St & Van Buren St,41.87625885,-87.629421711,208,207,338,294,546,501,31,6.71,6.68,10.9,9.48,17.61,16.16
5,2023,632,Clark St & Newport St,41.9443955,-87.65455083333333,1218,1189,1131,1158,2349,2347,31,39.29,38.35,36.48,37.35,75.77,75.71
5,2023,TA1308000013,Halsted St & Archer Ave,41.847203,-87.646795,132,123,155,149,287,272,31,4.26,3.97,5.0,4.81,9.26,8.77
5,2023,436,Kedzie Ave & George St,41.93,-87.71,154,109,0,0,154,109,31,4.97,3.52,0.0,0.0,4.97,3.52
5,2023,KA1503000033,Eberhart Ave & 61st St,41.784071072761,-87.61448353528975,26,18,21,31,47,49,24,1.08,0.75,0.88,1.29,1.96,2.04
5,2023,15443,Shields Ave & 28th Pl,41.842818141,-87.635530472,173,178,176,194,349,372,31,5.58,5.74,5.68,6.26,11.26,12.0
5,2023,434,Albany Ave & Belmont Ave,41.94,-87.71,70,59,0,0,70,59,30,2.33,1.97,0.0,0.0,2.33,1.97
5,2023,SL-013,State St & 19th St,41.856570482,-87.627577186,144,135,186,171,330,306,31,4.65,4.35,6.0,5.52,10.65,9.87
5,2023,TA1308000036,Indiana Ave & 31st St,41.838842,-87.621857,237,234,294,308,531,542,31,7.65,7.55,9.48,9.94,17.13,17.48
5,2023,15664,Artesian Ave & Hubbard St,41.8895,-87.688257,282,252,227,163,509,415,31,9.1,8.13,7.32,5.26,16.42,13.39
5,2023,445,Western Ave & Gunnison St,41.97,-87.69,97,86,0,0,97,86,31,3.13,2.77,0.0,0.0,3.13,2.77
5,2023,TA1307000006,Southport Ave & Wellington Ave,41.93577461766458,-87.66360014677048,711,704,765,728,1476,1432,31,22.94,22.71,24.68,23.48,47.61,46.19
5,2023,15575,Broadway & Thorndale Ave,41.98974251144,-87.6601406209,436,436,336,364,772,800,31,14.06,14.06,10.84,11.74,24.9,25.81
5,2023,13144,Seeley Ave & Roscoe St,41.943403,-87.679618,390,387,305,339,695,726,31,12.58,12.48,9.84,10.94,22.42,23.42
5,2023,13075,Wentworth Ave & Cermak Rd,41.85308455741279,-87.63193130493164,194,191,329,369,523,560,31,6.26,6.16,10.61,11.9,16.87,18.06
5,2023,13096,California Ave & 21st St,41.853786707,-87.695886493,28,28,27,20,55,48,29,0.97,0.97,0.93,0.69,1.9,1.66
5,2023,661,Evanston Civic Center,42.057036333333336,-87.68657783333333,65,58,45,44,110,102,31,2.1,1.87,1.45,1.42,3.55,3.29
5,2023,13084,California Ave & Milwaukee Ave,41.922695,-87.697153,723,707,560,572,1283,1279,31,23.32,22.81,18.06,18.45,41.39,41.26
5,2023,13256,California Ave & Division St,41.903029,-87.697474,265,259,192,205,457,464,31,8.55,8.35,6.19,6.61,14.74,14.97
5,2023,15634,Western Ave & Roscoe St,41.942965269,-87.687346816,163,166,187,185,350,351,31,5.26,5.35,6.03,5.97,11.29,11.32
5,2023,TA1306000002,Morgan Ave & 14th Pl,41.862437367,-87.651157022,196,189,255,279,451,468,31,6.32,6.1,8.23,9.0,14.55,15.1
5,2023,677,Public Rack - Rockwell & 111th St,41.691488028,-87.68546474,6,5,0,0,6,5,7,0.86,0.71,0.0,0.0,0.86,0.71
5,2023,13165,Racine Ave & 13th St,41.865040421,-87.6569947,51,52,66,49,117,101,30,1.7,1.73,2.2,1.63,3.9,3.37
5,2023,20253.0,N Paulina St & Lincoln Ave,41.94,-87.67,154,138,0,0,154,138,30,5.13,4.6,0.0,0.0,5.13,4.6
5,2023,KA1503000051,Halsted St & 47th Pl,41.80813391481,-87.6456165545,14,13,12,15,26,28,18,0.78,0.72,0.67,0.83,1.44,1.56
5,2023,15578,Broadway & Ridge Ave,41.984123349,-87.660279036,363,361,314,325,677,686,31,11.71,11.65,10.13,10.48,21.84,22.13
5,2023,KA1504000078,Lincoln Ave & Winona St,41.974908471,-87.692680478,184,184,89,100,273,284,31,5.94,5.94,2.87,3.23,8.81,9.16
5,2023,422,Albany Ave & 16th St,41.85929816666667,-87.70293016666666,10,6,0,0,10,6,9,1.11,0.67,0.0,0.0,1.11,0.67
5,2023,20231,East End Ave & 87th St,41.736738333333335,-87.58278216666666,5,6,12,8,17,14,15,0.33,0.4,0.8,0.53,1.13,0.93
5,2023,309,Narragansett & McLean,41.92,-87.79,11,8,0,0,11,8,12,0.92,0.67,0.0,0.0,0.92,0.67
5,2023,390,California Ave & Marquette Rd,41.77,-87.69,15,12,0,0,15,12,13,1.15,0.92,0.0,0.0,1.15,0.92
5,2023,13249,Ashland Ave & Belle Plaine Ave,41.956086397,-87.66891253,208,213,161,166,369,379,31,6.71,6.87,5.19,5.35,11.9,12.23
5,2023,KA150400009X,Kimball Ave & Belmont Ave,41.939410806,-87.712130547,187,166,132,117,319,283,31,6.03,5.35,4.26,3.77,10.29,9.13
5,2023,15643,Kosciuszko Park,41.930524468,-87.723844171,205,211,118,130,323,341,31,6.61,6.81,3.81,4.19,10.42,11.0
5,2023,1187.0,Public Rack - Odell & Talcott,41.987285733,-87.810118794,6,2,0,0,6,2,4,1.5,0.5,0.0,0.0,1.5,0.5
5,2023,15640,Avers Ave & Belmont Ave,41.9394075,-87.72359966666667,132,137,125,132,257,269,32,4.12,4.28,3.91,4.12,8.03,8.41
5,2023,1182.0,Public Rack - Cumberland & Catherine,41.98,-87.84,23,22,0,0,23,22,18,1.28,1.22,0.0,0.0,1.28,1.22
5,2023,435,Rockwell St & Fletcher St,41.93886633333334,-87.693059,291,280,0,0,291,280,30,9.7,9.33,0.0,0.0,9.7,9.33
5,2023,TA1308000049,Wells St & Evergreen Ave,41.906675577,-87.635073185,876,874,1074,1038,1950,1912,31,28.26,28.19,34.65,33.48,62.9,61.68
5,2023,401,Kildare Ave & 47th St,41.80762291,-87.730842233,30,28,0,0,30,28,25,1.2,1.12,0.0,0.0,1.2,1.12
5,2023,431,Western Ave & Grace St,41.950344682,-87.687981248,154,120,0,0,154,120,31,4.97,3.87,0.0,0.0,4.97,3.87
5,2023,chargingstx07,Wentworth Ave & Cermak Rd*,41.853146315,-87.631835341,129,174,250,307,379,481,31,4.16,5.61,8.06,9.9,12.23,15.52
5,2023,15446,Racine Ave & 35th St,41.830381751,-87.656083107,95,88,58,75,153,163,31,3.06,2.84,1.87,2.42,4.94,5.26
5,2023,15646,California Ave & Altgeld St,41.926641941,-87.69775784,218,225,250,271,468,496,32,6.81,7.03,7.81,8.47,14.62,15.5
5,2023,KA1504000161,St. Louis Ave & Balmoral Ave,41.980298758,-87.716146708,78,81,43,59,121,140,31,2.52,2.61,1.39,1.9,3.9,4.52
5,2023,1074.0,Public Rack - Pulaski Rd & 83rd St,41.74145966666666,-87.72176866666666,6,3,0,0,6,3,3,2.0,1.0,0.0,0.0,2.0,1.0
5,2023,20256.0,N Sheffield Ave & W Wellington Ave,41.93630983333333,-87.65367483333333,237,190,0,0,237,190,31,7.65,6.13,0.0,0.0,7.65,6.13
5,2023,KA1504000127,Manor Ave & Leland Ave,41.9658645,-87.700829,142,141,104,103,246,244,31,4.58,4.55,3.35,3.32,7.94,7.87
5,2023,13354,Ashland Ave & 13th St,41.865234,-87.666507,159,147,223,270,382,417,31,5.13,4.74,7.19,8.71,12.32,13.45
5,2023,TA1307000129,State St & 35th St,41.8310363140161,-87.62679755687714,334,335,319,353,653,688,31,10.77,10.81,10.29,11.39,21.06,22.19
5,2023,TA1306000008,Larrabee St & North Ave,41.910313725,-87.64352107,387,377,479,401,866,778,31,12.48,12.16,15.45,12.94,27.94,25.1
5,2023,13379,Clarendon Ave & Gordon Ter,41.95786652415174,-87.64950513839722,774,774,767,738,1541,1512,31,24.97,24.97,24.74,23.81,49.71,48.77
5,2023,KA1504000126,Kedzie Ave & Leland Ave,41.96668636205,-87.7080519806,152,150,91,82,243,232,31,4.9,4.84,2.94,2.65,7.84,7.48
5,2023,RP-004,Oakley Ave & Touhy Ave,42.012342,-87.688243,32,29,25,25,57,54,25,1.28,1.16,1.0,1.0,2.28,2.16
5,2023,E008,Chicago Ave & Sheridan Rd,42.050451994,-87.677838564,268,261,267,248,535,509,31,8.65,8.42,8.61,8.0,17.26,16.42
5,2023,15685,Central Park Ave & Ogden Ave,41.853904724,-87.71518445,58,51,22,22,80,73,31,1.87,1.65,0.71,0.71,2.58,2.35
5,2023,KA1504000133,Rush St & Cedar St,41.90230583333334,-87.62779433333333,781,778,886,892,1667,1670,31,25.19,25.1,28.58,28.77,53.77,53.87
5,2023,654,Racine Ave & Washington Blvd,41.883073,-87.656952,277,271,282,261,559,532,31,8.94,8.74,9.1,8.42,18.03,17.16
5,2023,15445,Wentworth Ave & 33rd St,41.83452988563,-87.6318229814,198,193,219,192,417,385,31,6.39,6.23,7.06,6.19,13.45,12.42
5,2023,657,Wood St & Augusta Blvd,41.899136066,-87.67220962,369,370,335,310,704,680,31,11.9,11.94,10.81,10.0,22.71,21.94
5,2023,TA1305000035,State St & Van Buren St,41.877152205,-87.62796247,445,404,589,566,1034,970,31,14.35,13.03,19.0,18.26,33.35,31.29
5,2023,13276,Stockton Dr & Wrightwood Ave,41.93132,-87.638742,773,784,963,1016,1736,1800,31,24.94,25.29,31.06,32.77,56.0,58.06
5,2023,TA1305000001,Wabash Ave & Cermak Rd,41.852619,-87.626488,188,190,180,208,368,398,31,6.06,6.13,5.81,6.71,11.87,12.84
5,2023,KA1504000147,Winchester (Ravenswood) Ave & Balmoral Ave,41.979762,-87.67753,166,160,81,131,247,291,31,5.35,5.16,2.61,4.23,7.97,9.39
5,2023,20.0,Damen Ave & Wabansia Ave,41.9123475,-87.67727066666667,104,66,0,0,104,66,7,14.86,9.43,0.0,0.0,14.86,9.43
5,2023,20254.0,W Armitage Ave & N Sheffield Ave,41.92,-87.65,482,443,0,0,482,443,31,15.55,14.29,0.0,0.0,15.55,14.29
5,2023,20232,Big Marsh Park,41.68587705562333,-87.57382392883301,0,1,20,20,20,21,16,0.0,0.06,1.25,1.25,1.25,1.31
5,2023,KA1503000045,Stony Island Ave & 71st St,41.7664929373,-87.5864608775,9,11,18,12,27,23,21,0.43,0.52,0.86,0.57,1.29,1.1
5,2023,1274.0,Public Rack - Damen & 87th,41.74,-87.67,3,1,0,0,3,1,1,3.0,1.0,0.0,0.0,3.0,1.0
5,2023,TA1308000023,Cottage Grove Ave & 43rd St,41.816499,-87.606582,44,42,78,84,122,126,31,1.42,1.35,2.52,2.71,3.94,4.06
5,2023,TA1309000042,Lincoln Ave & Belmont Ave (Temp),41.93944866666666,-87.67106116666666,470,466,462,519,932,985,31,15.16,15.03,14.9,16.74,30.06,31.77
5,2023,TA1306000011,Wells St & Walton St,41.89993001,-87.63443007,424,417,749,588,1173,1005,31,13.68,13.45,24.16,18.97,37.84,32.42
5,2023,15544,Shedd Aquarium,41.867362142,-87.615584612,703,672,1441,1386,2144,2058,31,22.68,21.68,46.48,44.71,69.16,66.39
5,2023,KA1503000014,Ellis Ave & 60th St,41.78509714636,-87.6010727606,776,768,2122,2045,2898,2813,31,25.03,24.77,68.45,65.97,93.48,90.74
5,2023,15491,63rd St Beach,41.78091096424803,-87.57632374763489,9,10,44,47,53,57,22,0.41,0.45,2.0,2.14,2.41,2.59
5,2023,TA1309000050,Lincoln Ave & Addison St,41.946134,-87.67327683333333,219,218,255,347,474,565,31,7.06,7.03,8.23,11.19,15.29,18.23
5,2023,KA1504000151,Clark St & Bryn Mawr Ave,41.983549833,-87.669279933,606,607,393,464,999,1071,31,19.55,19.58,12.68,14.97,32.23,34.55
5,2023,RP-006,Ridge Blvd & Touhy Ave,42.01213227742,-87.6829126443,55,53,37,33,92,86,28,1.96,1.89,1.32,1.18,3.29,3.07
5,2023,314,Narragansett & Wrightwood,41.93,-87.79,82,66,0,0,82,66,30,2.73,2.2,0.0,0.0,2.73,2.2
5,2023,TA1307000001,Greenview Ave & Fullerton Ave,41.92533,-87.6658,761,747,542,653,1303,1400,32,23.78,23.34,16.94,20.41,40.72,43.75
5,2023,13325,Broadway & Waveland Ave,41.9490495,-87.64864483333334,1035,1035,1201,1252,2236,2287,31,33.39,33.39,38.74,40.39,72.13,73.77
5,2023,TA1307000005,Indiana Ave & 26th St,41.845687,-87.622481,158,157,199,169,357,326,31,5.1,5.06,6.42,5.45,11.52,10.52
5,2023,395,Shabbona Park,41.94,-87.8,20,29,0,0,20,29,15,1.33,1.93,0.0,0.0,1.33,1.93
5,2023,13296,Ashland Ave & Wrightwood Ave,41.92883,-87.668507,308,309,277,327,585,636,31,9.94,9.97,8.94,10.55,18.87,20.52
5,2023,TA1309000023,Sheffield Ave & Wrightwood Ave,41.928712,-87.653833,884,835,995,954,1879,1789,31,28.52,26.94,32.1,30.77,60.61,57.71
5,2023,527,Western Ave & Howard St,42.018924,-87.690004,44,38,67,50,111,88,31,1.42,1.23,2.16,1.61,3.58,2.84
5,2023,13073,Ashland Ave & Lake St,41.88592,-87.66717,287,225,319,300,606,525,31,9.26,7.26,10.29,9.68,19.55,16.94
5,2023,TA1309000064,Wolcott Ave & Polk St,41.871262,-87.673688,436,422,539,535,975,957,31,14.06,13.61,17.39,17.26,31.45,30.87
5,2023,13288,Damen Ave & Charleston St,41.920082,-87.677855,347,346,268,273,615,619,31,11.19,11.16,8.65,8.81,19.84,19.97
5,2023,KA1503000025,Wentworth Ave & 63rd St,41.7800405,-87.6297625,21,23,9,6,30,29,25,0.84,0.92,0.36,0.24,1.2,1.16
5,2023,TA1309000053,Cottage Grove Ave & 47th St,41.809855,-87.606755,36,38,62,63,98,101,30,1.2,1.27,2.07,2.1,3.27,3.37
5,2023,13143,Damen Ave & Melrose Ave,41.9406,-87.6785,220,206,230,214,450,420,31,7.1,6.65,7.42,6.9,14.52,13.55
5,2023,SL-007,State St & Harrison St,41.874053,-87.627716,279,261,536,424,815,685,31,9.0,8.42,17.29,13.68,26.29,22.1
5,2023,KA1504000143,Leavitt St & Addison St,41.9466225,-87.68343566666667,185,175,180,171,365,346,31,5.97,5.65,5.81,5.52,11.77,11.16
5,2023,590,Kilbourn Ave & Irving Park Rd,41.953733,-87.740569,38,27,33,42,71,69,31,1.23,0.87,1.06,1.35,2.29,2.23
5,2023,15668,Western Ave & Congress Pkwy,41.874749,-87.686445,148,150,143,159,291,309,32,4.62,4.69,4.47,4.97,9.09,9.66
5,2023,810,Public Rack - Nagle Ave & Belmont Ave,41.938419342,-87.787525892,10,14,0,0,10,14,17,0.59,0.82,0.0,0.0,0.59,0.82
5,2023,13206,Loomis St & Jackson Blvd,41.877945,-87.662007,256,246,491,452,747,698,31,8.26,7.94,15.84,14.58,24.1,22.52
5,2023,TA1308000007,MLK Jr Dr & 47th St,41.809851,-87.616279,22,17,53,42,75,59,31,0.71,0.55,1.71,1.35,2.42,1.9
5,2023,KA1503000018,Jeffery Blvd & 71st St,41.76663823695,-87.5764501141,26,25,22,15,48,40,29,0.9,0.86,0.76,0.52,1.66,1.38
5,2023,KA1504000141,Pulaski Rd & Eddy St,41.946264,-87.731023,36,31,37,40,73,71,30,1.2,1.03,1.23,1.33,2.43,2.37
5,2023,653B,Stony Island Ave & 63rd St,41.78,-87.59,4,4,27,29,31,33,20,0.2,0.2,1.35,1.45,1.55,1.65
5,2023,13398,Blackstone Ave & Hyde Park Blvd,41.802562,-87.590368,127,109,371,344,498,453,31,4.1,3.52,11.97,11.1,16.06,14.61
5,2023,369,Central Park Ave & Ohio St,41.891880666666665,-87.71649083333334,18,15,0,0,18,15,21,0.86,0.71,0.0,0.0,0.86,0.71
5,2023,13164,Racine Ave & 18th St,41.858166,-87.656495,413,405,324,359,737,764,31,13.32,13.06,10.45,11.58,23.77,24.65
5,2023,507,Public Rack - Hamlin Ave & Fullerton Ave,41.92,-87.72,54,58,0,0,54,58,29,1.86,2.0,0.0,0.0,1.86,2.0
5,2023,500,Public Rack - Monticello Ave & Belmont Ave,41.94,-87.72,24,23,0,0,24,23,23,1.04,1.0,0.0,0.0,1.04,1.0
5,2023,KA1504000140,Winchester Ave & Elston Ave,41.92409085038,-87.6764600747,217,225,163,194,380,419,31,7.0,7.26,5.26,6.26,12.26,13.52
5,2023,398,Long & Irving Park,41.95,-87.76,79,68,0,0,79,68,31,2.55,2.19,0.0,0.0,2.55,2.19
5,2023,KA1503000009,Princeton Ave & 47th St,41.80931770924,-87.633449288,27,25,26,23,53,48,28,0.96,0.89,0.93,0.82,1.89,1.71
5,2023,TA1309000027,Sheridan Rd & Buena Ave,41.958456635,-87.654991031,495,486,580,542,1075,1028,31,15.97,15.68,18.71,17.48,34.68,33.16
5,2023,519,Wolcott Ave & Fargo Ave,42.016922,-87.67776166666667,35,36,7,9,42,45,29,1.21,1.24,0.24,0.31,1.45,1.55
5,2023,16806,Bosworth Ave & Howard St,42.019537,-87.669563,60,62,39,42,99,104,30,2.0,2.07,1.3,1.4,3.3,3.47
5,2023,KA1706005015,Kildare Ave & Montrose Ave,41.961158156,-87.735774994,53,44,76,79,129,123,31,1.71,1.42,2.45,2.55,4.16,3.97
5,2023,15654,Spaulding Ave & Division St,41.90274333333333,-87.709223,148,148,77,72,225,220,31,4.77,4.77,2.48,2.32,7.26,7.1
5,2023,TA1306000007,Larrabee St & Menomonee St,41.91468,-87.64332,211,190,397,367,608,557,31,6.81,6.13,12.81,11.84,19.61,17.97
5,2023,15686,Kedzie Ave & 21st St,41.853532672,-87.705020308,35,34,8,7,43,41,26,1.35,1.31,0.31,0.27,1.65,1.58
5,2023,18003,Fairbanks St & Superior St,41.895748,-87.620104,357,361,428,442,785,803,31,11.52,11.65,13.81,14.26,25.32,25.9
5,2023,15628,California Ave & Byron St,41.95216219326,-87.698051113,166,174,106,142,272,316,31,5.35,5.61,3.42,4.58,8.77,10.19
5,2023,KA1503000002,South Shore Dr & 71st St,41.7664094567,-87.5656875719,42,41,96,91,138,132,31,1.35,1.32,3.1,2.94,4.45,4.26
5,2023,13028,900 W Harrison St,41.874727488,-87.649868727,372,354,600,475,972,829,31,12.0,11.42,19.35,15.32,31.35,26.74
5,2023,331.0,Pulaski Rd & 21st St,41.85,-87.72,17,11,0,0,17,11,15,1.13,0.73,0.0,0.0,1.13,0.73
5,2023,20207,Major Taylor Trail & 115th St,41.68493159519296,-87.6452887058258,16,13,5,2,21,15,19,0.84,0.68,0.26,0.11,1.11,0.79
5,2023,13215,Rhodes Ave & 32nd St,41.836663842,-87.613414884,431,432,369,360,800,792,32,13.47,13.5,11.53,11.25,25.0,24.75
5,2023,15667,Western Ave & Monroe St,41.879788,-87.686113,152,153,109,113,261,266,31,4.9,4.94,3.52,3.65,8.42,8.58
5,2023,KA1504000117,Halsted St & North Branch St,41.89939028549696,-87.64854490756989,119,107,179,104,298,211,31,3.84,3.45,5.77,3.35,9.61,6.81
5,2023,20110,Eberhart Ave & 91st St,41.729285157254864,-87.6110315322876,2,3,8,4,10,7,5,0.4,0.6,1.6,0.8,2.0,1.4
5,2023,20209,S Michigan Ave & E 118th St,41.679861426,-87.620767236,7,2,0,0,7,2,6,1.17,0.33,0.0,0.0,1.17,0.33
5,2023,16918,Austin Blvd & Madison St,41.880281,-87.774453,39,37,17,19,56,56,26,1.5,1.42,0.65,0.73,2.15,2.15
5,2023,514,Ridge Blvd & Howard St,42.019234833333336,-87.684446,52,56,36,32,88,88,29,1.79,1.93,1.24,1.1,3.03,3.03
5,2023,462,Lincoln Ave & Peterson Ave,41.99,-87.71,45,47,0,0,45,47,25,1.8,1.88,0.0,0.0,1.8,1.88
5,2023,313,Long Ave & Belden Ave,41.92,-87.76,24,10,0,0,24,10,20,1.2,0.5,0.0,0.0,1.2,0.5
5,2023,316,Lamon Ave & Belmont Ave,41.94,-87.75,35,32,0,0,35,32,22,1.59,1.45,0.0,0.0,1.59,1.45
5,2023,KA1503000027,Prairie Ave & 43rd St,41.81665889302,-87.6194124619,52,45,41,42,93,87,30,1.73,1.5,1.37,1.4,3.1,2.9
5,2023,475,Whipple/Irving Park,41.9541845,-87.70429666666666,65,48,0,0,65,48,30,2.17,1.6,0.0,0.0,2.17,1.6
5,2023,358,Kilpatrick Ave & Parker Ave,41.93,-87.74,65,57,0,0,65,57,31,2.1,1.84,0.0,0.0,2.1,1.84
5,2023,495,Public Rack - Keystone Ave & Irving Park Rd,41.95,-87.73,15,17,0,0,15,17,10,1.5,1.7,0.0,0.0,1.5,1.7
5,2023,20113,Dauphin Ave & 103rd St,41.707313776,-87.607713103,7,6,1,3,8,9,7,1.0,0.86,0.14,0.43,1.14,1.29
5,2023,384,Kedzie Ave & 52nd St,41.8,-87.7,17,13,0,0,17,13,15,1.13,0.87,0.0,0.0,1.13,0.87
5,2023,775,Public Rack - Kedzie Ave & 58th St,41.788355333333335,-87.70351416666666,14,13,0,0,14,13,14,1.0,0.93,0.0,0.0,1.0,0.93
5,2023,585,Cottage Grove Ave & 83rd St,41.743470073,-87.604864836,26,23,6,9,32,32,25,1.04,0.92,0.24,0.36,1.28,1.28
5,2023,829,Public Rack - Pulaski Rd & 51st Rd,41.8,-87.72,2,2,0,0,2,2,2,1.0,1.0,0.0,0.0,1.0,1.0
5,2023,381,Francisco Ave & 47th St,41.81,-87.7,18,15,0,0,18,15,15,1.2,1.0,0.0,0.0,1.2,1.0
5,2023,1236.0,Public Rack - Parkside & Archer,41.795707166666666,-87.7634365,8,10,0,0,8,10,11,0.73,0.91,0.0,0.0,0.73,0.91
5,2023,20205,Western Ave & 111th St,41.691228986,-87.681287646,20,10,20,19,40,29,24,0.83,0.42,0.83,0.79,1.67,1.21
5,2023,351,Mulligan Ave & Wellington Ave,41.93,-87.78,16,11,0,0,16,11,12,1.33,0.92,0.0,0.0,1.33,0.92
5,2023,954,Public Rack - Prairie Ave & Garfield Blvd N,41.7948525,-87.61865433333334,2,2,0,0,2,2,2,1.0,1.0,0.0,0.0,1.0,1.0
5,2023,561,Public Rack - Melvina Ave & Belmont Ave,41.93847433333333,-87.7812325,37,36,1,6,38,42,24,1.54,1.5,0.04,0.25,1.58,1.75
5,2023,310,North Ave & New England Ave,41.91,-87.8,14,10,0,0,14,10,13,1.08,0.77,0.0,0.0,1.08,0.77
5,2023,15651,Humboldt Blvd & Armitage Ave,41.917554259,-87.701758385,339,330,273,261,612,591,31,10.94,10.65,8.81,8.42,19.74,19.06
5,2023,1082.0,Public Rack - 63rd St and Natoma Ave,41.77764466666667,-87.7874625,1,1,0,0,1,1,2,0.5,0.5,0.0,0.0,0.5,0.5
5,2023,1090.0,Public Rack - Minuteman Park,41.78534416666667,-87.762614,6,5,0,0,6,5,4,1.5,1.25,0.0,0.0,1.5,1.25
5,2023,1185.0,Public Rack - W. Talcott & N. Oriole,41.99,-87.82,2,2,0,0,2,2,3,0.67,0.67,0.0,0.0,0.67,0.67
5,2023,KA1503000003,Cottage Grove Ave & 71st St,41.76571903697,-87.604959713,5,5,5,8,10,13,16,0.31,0.31,0.31,0.5,0.62,0.81
5,2023,340,Pulaski & Ann Lurie Pl,41.816435337,-87.724784732,19,14,0,0,19,14,14,1.36,1.0,0.0,0.0,1.36,1.0
5,2023,15689,California Ave & 23rd Pl,41.84910969176,-87.6951398068,13,10,35,32,48,42,25,0.52,0.4,1.4,1.28,1.92,1.68
5,2023,1038,Public Rack - Kedzie Ave & 62nd Pl,41.780080557,-87.703291416,9,10,0,0,9,10,9,1.0,1.11,0.0,0.0,1.0,1.11
5,2023,592,Knox Ave & Montrose Ave,41.960631,-87.745359,99,88,71,50,170,138,31,3.19,2.84,2.29,1.61,5.48,4.45
5,2023,KA1504000160,Francisco Ave & Foster Ave,41.97574842,-87.701417446,134,136,134,135,268,271,31,4.32,4.39,4.32,4.35,8.65,8.74
5,2023,18058,Leavitt St & Chicago Ave,41.895501,-87.682017,296,282,274,277,570,559,31,9.55,9.1,8.84,8.94,18.39,18.03
5,2023,516,Public Rack - Kenton Ave & Palmer St,41.92,-87.74,28,27,0,0,28,27,22,1.27,1.23,0.0,0.0,1.27,1.23
5,2023,KA1504000128,Kedzie Ave & Foster Ave,41.975672,-87.709261,67,64,65,73,132,137,31,2.16,2.06,2.1,2.35,4.26,4.42
5,2023,15692,California Ave & 26th St,41.8436799145765,-87.69496858119965,12,10,9,8,21,18,16,0.75,0.62,0.56,0.5,1.31,1.12
5,2023,KA1504000091,Hoyne Ave & 47th St,41.808227,-87.67718,12,18,8,10,20,28,23,0.52,0.78,0.35,0.43,0.87,1.22
5,2023,20131,Cottage Grove Ave & 111th Pl,41.69170975847015,-87.61000156402588,6,3,9,8,15,11,11,0.55,0.27,0.82,0.73,1.36,1.0
5,2023,637,Wood St & Chicago Ave,41.895634,-87.672069,437,436,424,428,861,864,31,14.1,14.06,13.68,13.81,27.77,27.87
5,2023,15623,Campbell Ave & Montrose Ave,41.961524,-87.691177,173,162,155,158,328,320,32,5.41,5.06,4.84,4.94,10.25,10.0
5,2023,E006,Central St Metra,42.063804746,-87.698704362,74,83,40,43,114,126,30,2.47,2.77,1.33,1.43,3.8,4.2
5,2023,20255.0,N Damen Ave & W Chicago Ave,41.9,-87.68,154,84,0,0,154,84,29,5.31,2.9,0.0,0.0,5.31,2.9
5,2023,20124,Vincennes Ave & 104th St,41.70492556499764,-87.65686810958869,9,2,1,1,10,3,9,1.0,0.22,0.11,0.11,1.11,0.33
5,2023,KA1503000024,Yates Blvd & 75th St,41.758736849,-87.566452861,17,14,12,9,29,23,21,0.81,0.67,0.57,0.43,1.38,1.1
5,2023,20134,Maryland Ave & 104th St,41.71,-87.6,26,19,0,0,26,19,17,1.53,1.12,0.0,0.0,1.53,1.12
5,2023,KA1503000032,Union Ave & Root St,41.81918323,-87.643296361,17,14,7,18,24,32,26,0.65,0.54,0.27,0.69,0.92,1.23
5,2023,E014,Lincolnwood Dr & Central St,42.064854,-87.715297,19,19,16,13,35,32,21,0.9,0.9,0.76,0.62,1.67,1.52
5,2023,629,Public Rack - Michigan Ave & 96th St,41.72,-87.62,2,3,0,0,2,3,4,0.5,0.75,0.0,0.0,0.5,0.75
5,2023,1217.0,Public Rack - Christiana & Lincoln,41.99,-87.71,4,2,0,0,4,2,3,1.33,0.67,0.0,0.0,1.33,0.67
5,2023,16937,Ashland Ave & McDowell Ave,41.80887,-87.66454,8,7,28,22,36,29,25,0.32,0.28,1.12,0.88,1.44,1.16
5,2023,20204,Kedzie Ave & 110th St,41.69239474587557,-87.70096063613892,3,3,18,16,21,19,21,0.14,0.14,0.86,0.76,1.0,0.9
5,2023,20238,Greenwood Ave & 97th St,41.718726516,-87.596947551,18,20,8,24,26,44,25,0.72,0.8,0.32,0.96,1.04,1.76
5,2023,662,Dodge Ave & Mulford St,42.023609996,-87.699627876,41,41,17,27,58,68,30,1.37,1.37,0.57,0.9,1.93,2.27
5,2023,16905,Central Ave & Lake St,41.887664,-87.765469,24,18,3,3,27,21,23,1.04,0.78,0.13,0.13,1.17,0.91
5,2023,1085.0,Public Rack - 63rd Pl & Narraganssett Ave,41.776567936,-87.782092452,10,14,0,0,10,14,10,1.0,1.4,0.0,0.0,1.0,1.4
5,2023,400,Lawler Ave & 50th St,41.8,-87.75,21,16,0,0,21,16,17,1.24,0.94,0.0,0.0,1.24,0.94
5,2023,KA1503000029,South Shore Dr & 67th St,41.773643,-87.567514,44,44,101,110,145,154,31,1.42,1.42,3.26,3.55,4.68,4.97
5,2023,SL-009,Clark St & 9th St (AMLI),41.870816,-87.631246,239,228,327,275,566,503,31,7.71,7.35,10.55,8.87,18.26,16.23
5,2023,425,Rockwell St & Cermak Rd,41.85,-87.69,112,92,0,0,112,92,31,3.61,2.97,0.0,0.0,3.61,2.97
5,2023,371,Kildare Ave & Chicago Ave,41.9,-87.73,20,22,0,0,20,22,13,1.54,1.69,0.0,0.0,1.54,1.69
5,2023,KA1503000020,South Shore Dr & 74th St,41.762253284,-87.559154749,20,18,30,30,50,48,28,0.71,0.64,1.07,1.07,1.79,1.71
5,2023,LP-,Lincoln Park Conservatory,41.924029469,-87.635867238,552,549,863,900,1415,1449,31,17.81,17.71,27.84,29.03,45.65,46.74
5,2023,21544,State St & Chicago Ave,41.89662366666667,-87.62869466666666,1096,1087,1270,1260,2366,2347,32,34.25,33.97,39.69,39.38,73.94,73.34
5,2023,1272.0,Public Rack - Damen & 81st,41.74664247,-87.673146129,7,6,0,0,7,6,5,1.4,1.2,0.0,0.0,1.4,1.2
5,2023,20128,S Wentworth Ave & W 111th St,41.692607522,-87.628291011,8,4,0,0,8,4,7,1.14,0.57,0.0,0.0,1.14,0.57
5,2023,1019,Public Rack - Kostner Ave & Diversey Ave,41.931725025,-87.737095714,22,23,0,0,22,23,15,1.47,1.53,0.0,0.0,1.47,1.53
5,2023,380,Fairfield Ave & 44th St,41.81,-87.69,41,28,0,0,41,28,24,1.71,1.17,0.0,0.0,1.71,1.17
5,2023,549,Marshfield Ave & 44th St,41.813982487,-87.666625142,14,13,4,15,18,28,21,0.67,0.62,0.19,0.71,0.86,1.33
5,2023,KA1504000096,Sawyer Ave & Irving Park Rd,41.953621626,-87.70927918,83,77,65,68,148,145,31,2.68,2.48,2.1,2.19,4.77,4.68
5,2023,16915,Central Ave & Harrison St,41.872993,-87.764499,8,11,9,7,17,18,18,0.44,0.61,0.5,0.39,0.94,1.0
5,2023,TA1308000045,Wallace St & 35th St,41.83070705144085,-87.64125533401966,74,74,92,99,166,173,31,2.39,2.39,2.97,3.19,5.35,5.58
5,2023,15470,Calumet Ave & 51st St,41.802225,-87.61807933333333,58,55,56,60,114,115,31,1.87,1.77,1.81,1.94,3.68,3.71
5,2023,TA1307000149,Ravenswood Ave & Irving Park Rd,41.95470516666666,-87.67393233333334,365,365,249,296,614,661,31,11.77,11.77,8.03,9.55,19.81,21.32
5,2023,651,Michigan Ave & 71st St,41.765286,-87.621748,14,13,14,13,28,26,23,0.61,0.57,0.61,0.57,1.22,1.13
5,2023,396,Central Ave & Roscoe St,41.94,-87.77,24,22,0,0,24,22,19,1.26,1.16,0.0,0.0,1.26,1.16
5,2023,TA1307000166,Halsted St & Willow St,41.913861513,-87.648825288,533,519,696,621,1229,1140,32,16.66,16.22,21.75,19.41,38.41,35.62
5,2023,KA1503000022,Clark St & Montrose Ave,41.961588,-87.666036,460,448,357,331,817,779,31,14.84,14.45,11.52,10.68,26.35,25.13
5,2023,TA1309000049,DuSable Lake Shore Dr & Belmont Ave,41.940775,-87.639192,999,996,1278,1311,2277,2307,31,32.23,32.13,41.23,42.29,73.45,74.42
5,2023,TA1309000004,LaSalle St & Jackson Blvd,41.878166,-87.631929,718,708,784,783,1502,1491,31,23.16,22.84,25.29,25.26,48.45,48.1
5,2023,KA1504000146,Clark St & Berwyn Ave,41.97803062248656,-87.66856491565704,817,819,581,642,1398,1461,31,26.35,26.42,18.74,20.71,45.1,47.13
5,2023,464,Western Ave & Ardmore Ave,41.986664653,-87.689683795,23,20,0,0,23,20,18,1.28,1.11,0.0,0.0,1.28,1.11
5,2023,20104,State St & 95th St,41.7218499,-87.6228544,44,39,58,35,102,74,31,1.42,1.26,1.87,1.13,3.29,2.39
5,2023,20102,Loomis St & 89th St,41.73237975329554,-87.65806943178177,2,2,11,8,13,10,12,0.17,0.17,0.92,0.67,1.08,0.83
5,2023,16932,Ashland Ave & Pershing Rd,41.823465,-87.665577,11,6,40,40,51,46,26,0.42,0.23,1.54,1.54,1.96,1.77
5,2023,574,Vernon Ave & 79th St,41.75094,-87.61379,19,19,8,7,27,26,24,0.79,0.79,0.33,0.29,1.12,1.08
5,2023,16940,Ashland Ave & 50th St,41.803023,-87.664699,18,16,9,8,27,24,22,0.82,0.73,0.41,0.36,1.23,1.09
5,2023,KA1503000049,Rainbow Beach,41.75787144829,-87.54938625,19,14,11,10,30,24,16,1.19,0.88,0.69,0.62,1.88,1.5
5,2023,KA1504000158,Oakley Ave & Irving Park Rd,41.95425266666667,-87.68609316666667,105,105,148,156,253,261,31,3.39,3.39,4.77,5.03,8.16,8.42
5,2023,20133,Woodlawn & 103rd - Olive Harvey Vaccination Site,41.71,-87.59,16,3,0,0,16,3,12,1.33,0.25,0.0,0.0,1.33,0.25
5,2023,564,Racine Ave & 65th St,41.775393,-87.654308,2,2,1,1,3,3,4,0.5,0.5,0.25,0.25,0.75,0.75
5,2023,546,Damen Ave & Pershing Rd,41.823192,-87.676597,32,30,5,6,37,36,25,1.28,1.2,0.2,0.24,1.48,1.44
5,2023,1052,Public Rack - Rockwell & Division,41.9,-87.69,18,19,0,0,18,19,18,1.0,1.06,0.0,0.0,1.0,1.06
5,2023,650,Eggleston Ave & 69th St,41.768898,-87.635876,5,6,53,58,58,64,31,0.16,0.19,1.71,1.87,1.87,2.06
5,2023,951,Public Rack - Woodlawn Ave & 63rd St N,41.78,-87.6,36,33,0,0,36,33,21,1.71,1.57,0.0,0.0,1.71,1.57
5,2023,13053,Green St & Washington Blvd,41.883200049,-87.648765326,444,436,576,608,1020,1044,31,14.32,14.06,18.58,19.61,32.9,33.68
5,2023,406,Kostner Ave & 63rd St,41.78,-87.73,20,11,0,0,20,11,17,1.18,0.65,0.0,0.0,1.18,0.65
5,2023,KA1503000054,Cottage Grove Ave & 63rd St,41.78053094070882,-87.6059702038765,32,41,104,112,136,153,31,1.03,1.32,3.35,3.61,4.39,4.94
5,2023,417,Troy St & Jackson Blvd,41.877505302,-87.704822183,10,8,0,0,10,8,6,1.67,1.33,0.0,0.0,1.67,1.33
5,2023,1084.0,Public Rack - Linder Ave & 64th Pl,41.77544868,-87.758030295,4,2,0,0,4,2,3,1.33,0.67,0.0,0.0,1.33,0.67
5,2023,13432,Wood St & Hubbard St,41.88988416666667,-87.67151466666667,280,233,270,248,550,481,31,9.03,7.52,8.71,8.0,17.74,15.52
5,2023,KA1503000028,Jeffery Blvd & 76th St,41.75711016666666,-87.57587466666666,3,1,6,8,9,9,15,0.2,0.07,0.4,0.53,0.6,0.6
5,2023,1255.0,Public Rack - Pulaski & 74th,41.76,-87.72,10,8,0,0,10,8,4,2.5,2.0,0.0,0.0,2.5,2.0
5,2023,1228.0,Public Rack - S. New England/ W. 65th,41.77,-87.79,3,2,0,0,3,2,2,1.5,1.0,0.0,0.0,1.5,1.0
5,2023,20245,Ashland Ave & 74th St,41.759236,-87.663474,0,0,3,3,3,3,6,0.0,0.0,0.5,0.5,0.5,0.5
5,2023,TA1305000002,Wabash Ave & Roosevelt Rd,41.867177833333336,-87.62599333333333,885,886,1250,1264,2135,2150,31,28.55,28.58,40.32,40.77,68.87,69.35
5,2023,594,Western Blvd & 48th Pl,41.805661,-87.683392,24,20,19,17,43,37,25,0.96,0.8,0.76,0.68,1.72,1.48
5,2023,855,Public Rack - Washtenaw Ave & Superior St,41.89,-87.69,65,68,0,0,65,68,28,2.32,2.43,0.0,0.0,2.32,2.43
5,2023,15687,Central Park Ave & 24th St,41.84807229,-87.715095401,20,21,24,16,44,37,26,0.77,0.81,0.92,0.62,1.69,1.42
5,2023,KA1503000047,Perry Ave & 69th St,41.76929308995,-87.6281959291,18,23,14,14,32,37,25,0.72,0.92,0.56,0.56,1.28,1.48
5,2023,1211.0,Public Rack - Keating & Peterson,41.990123833333335,-87.74716683333334,2,0,0,0,2,0,2,1.0,0.0,0.0,0.0,1.0,0.0
5,2023,821,Public Rack - Western Blvd & 49th St,41.804923415,-87.683937311,28,34,0,0,28,34,22,1.27,1.55,0.0,0.0,1.27,1.55
5,2023,1057,Public Rack - Tripp Ave & North Ave,41.91,-87.73,6,6,0,0,6,6,7,0.86,0.86,0.0,0.0,0.86,0.86
5,2023,362.0,Lawndale Ave & 16th St,41.86,-87.72,11,16,0,0,11,16,15,0.73,1.07,0.0,0.0,0.73,1.07
5,2023,1186.0,Public Rack - Oketo & Talcott,41.99,-87.81,2,0,0,0,2,0,2,1.0,0.0,0.0,0.0,1.0,0.0
5,2023,394,Panama Ave & Grace St,41.947637081,-87.829230785,6,0,0,0,6,0,5,1.2,0.0,0.0,0.0,1.2,0.0
5,2023,640,Public Rack - Morgan St & 87th St,41.73594716666667,-87.64809083333333,1,1,0,0,1,1,2,0.5,0.5,0.0,0.0,0.5,0.5
5,2023,16948,Ashland Ave & 63rd St,41.77941466666667,-87.66491916666666,6,6,6,6,12,12,16,0.38,0.38,0.38,0.38,0.75,0.75
5,2023,392,Homan Ave & 65th St,41.78,-87.71,18,15,0,0,18,15,16,1.12,0.94,0.0,0.0,1.12,0.94
5,2023,20233,Halsted St & 78th St,41.75248701249013,-87.6439021574879,12,5,6,1,18,6,12,1.0,0.42,0.5,0.08,1.5,0.5
5,2023,1033,Public Rack - Pulaski Rd & 65th St,41.77,-87.72,7,6,0,0,7,6,7,1.0,0.86,0.0,0.0,1.0,0.86
5,2023,458,Washtenaw Ave & Peterson Ave,41.99,-87.7,34,36,0,0,34,36,24,1.42,1.5,0.0,0.0,1.42,1.5
5,2023,1088.0,Public Rack - Natoma Ave & 61st St,41.78,-87.79,6,10,0,0,6,10,6,1.0,1.67,0.0,0.0,1.0,1.67
5,2023,1145.0,Public Rack - Peterson Ave & Milwaukee Ave,41.98966682,-87.780501604,4,4,0,0,4,4,4,1.0,1.0,0.0,0.0,1.0,1.0
5,2023,964,Public Rack - Lockwood Ave & Diversey Ave,41.93,-87.76,2,2,0,0,2,2,4,0.5,0.5,0.0,0.0,0.5,0.5
5,2023,393,Oketo Ave & Addison St,41.944979,-87.81189483333333,19,13,0,0,19,13,14,1.36,0.93,0.0,0.0,1.36,0.93
5,2023,TA1307000161,Halsted St & 37th St,41.82711041,-87.645648122,24,25,32,27,56,52,28,0.86,0.89,1.14,0.96,2.0,1.86
5,2023,356,Lavergne & Fullerton,41.92396816666667,-87.7511755,33,29,0,0,33,29,26,1.27,1.12,0.0,0.0,1.27,1.12
5,2023,16921,Austin Blvd & Chicago Ave,41.894887805,-87.774530888,11,7,8,10,19,17,22,0.5,0.32,0.36,0.45,0.86,0.77
5,2023,502,Public Rack - Milwaukee Ave & Addison St,41.946256638,-87.735574603,4,4,0,0,4,4,5,0.8,0.8,0.0,0.0,0.8,0.8
5,2023,20115,Martin Luther King Dr & 111th St,41.69,-87.61,19,8,0,0,19,8,14,1.36,0.57,0.0,0.0,1.36,0.57
5,2023,559,Public Rack - Menard Ave & Dakin St - midblock,41.95,-87.77,15,14,8,9,23,23,19,0.79,0.74,0.42,0.47,1.21,1.21
5,2023,702,Public Rack - Western Ave & 92nd Pl,41.73,-87.68,4,2,0,0,4,2,4,1.0,0.5,0.0,0.0,1.0,0.5
5,2023,1099.0,Public Rack - Leland Ave & Melvina Ave,41.97,-87.78,4,4,0,0,4,4,6,0.67,0.67,0.0,0.0,0.67,0.67
5,2023,490,Public Rack - Kimball Ave & Carmen Ave,41.97,-87.71,21,21,0,0,21,21,16,1.31,1.31,0.0,0.0,1.31,1.31
5,2023,935,Public Rack - Lorel Ave & Grand Ave,41.917683363,-87.759540081,5,9,0,0,5,9,7,0.71,1.29,0.0,0.0,0.71,1.29
5,2023,KA1504000086,Kedzie Ave & 24th St (Temp),41.846357,-87.704966,6,14,5,12,11,26,20,0.3,0.7,0.25,0.6,0.55,1.3
5,2023,KA1504000130,Maplewood Ave & Peterson Ave,41.99023602867,-87.6933696402,40,39,33,31,73,70,29,1.38,1.34,1.14,1.07,2.52,2.41
5,2023,1183.0,Public Rack - Canfield & Victoria,41.98,-87.82,3,2,0,0,3,2,2,1.5,1.0,0.0,0.0,1.5,1.0
5,2023,13434,Ashland Ave & Grand Ave,41.891082644,-87.666711092,327,281,288,257,615,538,31,10.55,9.06,9.29,8.29,19.84,17.35
5,2023,TA1309000037,Kimbark Ave & 53rd St,41.799568,-87.594747,556,549,1229,1212,1785,1761,31,17.94,17.71,39.65,39.1,57.58,56.81
5,2023,1124.0,Public Rack - Lotus Ave & Lawrence Ave,41.97,-87.76,8,6,0,0,8,6,11,0.73,0.55,0.0,0.0,0.73,0.55
5,2023,429,Francisco Ave & Bloomingdale Ave,41.913958073,-87.699361801,74,39,0,0,74,39,26,2.85,1.5,0.0,0.0,2.85,1.5
5,2023,E011,Dodge Ave & Main St,42.03463185161588,-87.69918769598006,32,28,17,16,49,44,25,1.28,1.12,0.68,0.64,1.96,1.76
5,2023,KA1503000001,Shields Ave & 43rd St,41.816190362,-87.634777665,11,17,6,18,17,35,23,0.48,0.74,0.26,0.78,0.74,1.52
5,2023,TA1306000014,Wilton Ave & Diversey Pkwy,41.932418,-87.652705,780,747,929,894,1709,1641,31,25.16,24.1,29.97,28.84,55.13,52.94
5,2023,13292,Kedzie Ave & Palmer Ct,41.921526,-87.7072995,231,220,220,244,451,464,31,7.45,7.1,7.1,7.87,14.55,14.97
5,2023,1271.0,Public Rack - Western & 83rd,41.74356183333333,-87.6828015,6,5,0,0,6,5,8,0.75,0.62,0.0,0.0,0.75,0.62
5,2023,402,Kenneth Ave & 50th St,41.8,-87.73,15,13,0,0,15,13,11,1.36,1.18,0.0,0.0,1.36,1.18
5,2023,415,Western Ave & Lake St,41.884545088,-87.686053991,33,15,0,0,33,15,22,1.5,0.68,0.0,0.0,1.5,0.68
5,2023,KA1504000164,Keystone Ave & Montrose Ave,41.961030483,-87.728987455,73,77,30,47,103,124,31,2.35,2.48,0.97,1.52,3.32,4.0
5,2023,460,Francisco Ave & Hollywood Ave,41.98439716666667,-87.70157483333334,24,20,0,0,24,20,15,1.6,1.33,0.0,0.0,1.6,1.33
5,2023,1123.0,Public Rack - Milwaukee Ave & Lawrence Ave,41.97,-87.76,8,9,0,0,8,9,8,1.0,1.12,0.0,0.0,1.0,1.12
5,2023,353,Meade Ave & Diversey Ave,41.93,-87.78,18,25,0,0,18,25,21,0.86,1.19,0.0,0.0,0.86,1.19
5,2023,1155.0,Public Rack - Olmstead Ave & Oliphant Ave,42.0023067,-87.817114353,9,10,0,0,9,10,12,0.75,0.83,0.0,0.0,0.75,0.83
5,2023,1172.0,Public Rack - Touhy Ave & Oconto Ave,42.011797667,-87.807577372,4,1,0,0,4,1,3,1.33,0.33,0.0,0.0,1.33,0.33
5,2023,932,Public Rack - Jensen Park,41.96,-87.72,9,10,0,0,9,10,13,0.69,0.77,0.0,0.0,0.69,0.77
5,2023,341,Archer Ave & 43rd St,41.82,-87.7,17,11,0,0,17,11,13,1.31,0.85,0.0,0.0,1.31,0.85
5,2023,18022,Archer (Damen) Ave & 37th St,41.826712,-87.683144,33,24,44,45,77,69,29,1.14,0.83,1.52,1.55,2.66,2.38
5,2023,505,Public Rack - Milwaukee Ave & Haussen Ct,41.94,-87.72,43,48,0,0,43,48,27,1.59,1.78,0.0,0.0,1.59,1.78
5,2023,16953,Vincennes Ave & 75th St,41.757907033,-87.631233215,7,5,7,8,14,13,10,0.7,0.5,0.7,0.8,1.4,1.3
5,2023,573,State St & 79th St,41.750805666666665,-87.62441766666667,27,31,10,12,37,43,25,1.08,1.24,0.4,0.48,1.48,1.72
5,2023,1110.0,Public Rack - Milwaukee Ave & Culyer Ave,41.95,-87.75,16,13,0,0,16,13,12,1.33,1.08,0.0,0.0,1.33,1.08
5,2023,375,Long Ave & North Ave,41.91,-87.76,10,8,0,0,10,8,10,1.0,0.8,0.0,0.0,1.0,0.8
5,2023,16912,Cicero Ave & Flournoy St,41.872174501,-87.746717811,6,9,1,4,7,13,14,0.43,0.64,0.07,0.29,0.5,0.93
5,2023,20247.0,W Washington Blvd & N Peoria St,41.883368492,-87.649883389,42,9,0,0,42,9,7,6.0,1.29,0.0,0.0,6.0,1.29
5,2023,chargingstx3,Green St & Randolph St*,41.88352433333333,-87.648523,83,409,6,448,89,857,31,2.68,13.19,0.19,14.45,2.87,27.65
5,2023,929,Public Rack - Campbell Ave & Pratt Blvd,42.01,-87.69,5,4,0,0,5,4,6,0.83,0.67,0.0,0.0,0.83,0.67
5,2023,579,Public Rack - Oketo Ave & Belmont Ave,41.94,-87.81,30,29,9,8,39,37,25,1.2,1.16,0.36,0.32,1.56,1.48
5,2023,TA1308000046,Morgan St & 31st St,41.837846398,-87.65114975,230,226,222,243,452,469,31,7.42,7.29,7.16,7.84,14.58,15.13
5,2023,TA1309000012,Damen Ave & Sunnyside Ave,41.96327166666666,-87.6793365,200,196,253,220,453,416,31,6.45,6.32,8.16,7.1,14.61,13.42
5,2023,647,Elizabeth St & 59th St,41.789696880483376,-87.65469789505005,26,26,17,13,43,39,29,0.9,0.9,0.59,0.45,1.48,1.34
5,2023,354,Parkside Ave & Armitage Ave,41.92,-87.77,12,5,0,0,12,5,13,0.92,0.38,0.0,0.0,0.92,0.38
5,2023,324,Meade Ave & Addison St,41.945845604,-87.778913975,15,10,0,0,15,10,14,1.07,0.71,0.0,0.0,1.07,0.71
5,2023,703,Public Rack - Marshfield Ave & 87th St,41.74,-87.66,6,5,0,0,6,5,9,0.67,0.56,0.0,0.0,0.67,0.56
5,2023,491,Public Rack - Kedzie Ave & Argyle St,41.97215666666666,-87.70884616666666,32,31,0,0,32,31,22,1.45,1.41,0.0,0.0,1.45,1.41
5,2023,20119,Elizabeth St & 92nd St,41.72679896370119,-87.65429019927979,12,11,9,12,21,23,16,0.75,0.69,0.56,0.75,1.31,1.44
5,2023,836,Public Rack - Kedzie Ave & Archer Ave,41.813595176,-87.704847932,12,13,0,0,12,13,11,1.09,1.18,0.0,0.0,1.09,1.18
5,2023,488,Public Rack - McCormick Blvd & Devon Ave,42.0,-87.71,6,7,0,0,6,7,8,0.75,0.88,0.0,0.0,0.75,0.88
5,2023,966,Public Rack - Laporte Ave & Armitage Ave,41.92,-87.75,1,2,0,0,1,2,3,0.33,0.67,0.0,0.0,0.33,0.67
5,2023,494,Public Rack - Avers Ave & Irving Park Rd,41.95,-87.72,24,25,0,0,24,25,22,1.09,1.14,0.0,0.0,1.09,1.14
5,2023,021320,MTV Hubbard St,41.89,-87.68,199,161,0,0,199,161,31,6.42,5.19,0.0,0.0,6.42,5.19
5,2023,350,Hamlin Ave & 62nd Pl,41.78,-87.72,9,7,0,0,9,7,12,0.75,0.58,0.0,0.0,0.75,0.58
5,2023,304,Lavergne Ave & Division St,41.9,-87.75,4,4,0,0,4,4,6,0.67,0.67,0.0,0.0,0.67,0.67
5,2023,1238.0,Public Rack - Austin & 62nd,41.77970466666667,-87.77143233333334,11,9,0,0,11,9,9,1.22,1.0,0.0,0.0,1.22,1.0
5,2023,510,Public Rack - Spaulding Ave & North Ave,41.91,-87.71,26,27,0,0,26,27,22,1.18,1.23,0.0,0.0,1.18,1.23
5,2023,387,St Louis Ave & 59th St,41.79,-87.71,38,35,0,0,38,35,23,1.65,1.52,0.0,0.0,1.65,1.52
5,2023,403,Kildare Ave & 55th St,41.79,-87.73,8,4,0,0,8,4,7,1.14,0.57,0.0,0.0,1.14,0.57
5,2023,KA1504000155,2112 W Peterson Ave,41.9911485,-87.68360016666666,52,53,21,37,73,90,31,1.68,1.71,0.68,1.19,2.35,2.9
5,2023,20225,Commercial Ave & 100th St,41.71331466666667,-87.55116916666667,5,6,3,2,8,8,5,1.0,1.2,0.6,0.4,1.6,1.6
5,2023,20206,Homewood Ave & 115th St,41.68463552,-87.670840502,13,11,4,1,17,12,13,1.0,0.85,0.31,0.08,1.31,0.92
5,2023,497,Public Rack - Lowell Ave & Elston Ave,41.97,-87.74,14,16,0,0,14,16,18,0.78,0.89,0.0,0.0,0.78,0.89
5,2023,930,Public Rack - Washtenaw Ave & Devon Ave,41.997753024,-87.697282791,27,27,0,0,27,27,23,1.17,1.17,0.0,0.0,1.17,1.17
5,2023,TA1307000160,Prairie Ave & Garfield Blvd,41.794832587,-87.618796349,27,32,72,57,99,89,30,0.9,1.07,2.4,1.9,3.3,2.97
5,2023,556,Throop St & 52nd St,41.799649239,-87.657153368,4,3,0,1,4,4,6,0.67,0.5,0.0,0.17,0.67,0.67
5,2023,365.0,Kildare Ave & 26th St,41.84421666666667,-87.73214933333334,11,12,0,0,11,12,9,1.22,1.33,0.0,0.0,1.22,1.33
5,2023,379,Rockwell St & Archer Ave,41.82,-87.69,44,43,0,0,44,43,27,1.63,1.59,0.0,0.0,1.63,1.59
5,2023,322,Cicero Ave & Grace St,41.949738145,-87.746910453,29,28,0,0,29,28,22,1.32,1.27,0.0,0.0,1.32,1.27
5,2023,572,Public Rack - Hiawatha Park,41.94,-87.83,6,6,4,2,10,8,12,0.5,0.5,0.33,0.17,0.83,0.67
5,2023,KA1503000010,Halsted St & 51st St,41.801752925,-87.645259976,5,2,7,6,12,8,11,0.45,0.18,0.64,0.55,1.09,0.73
5,2023,471,Damen Ave & 33rd St,41.834325666666665,-87.67535166666667,2,2,0,0,2,2,3,0.67,0.67,0.0,0.0,0.67,0.67
5,2023,301,Monticello Ave & Chicago Ave,41.895150065,-87.717458725,13,28,0,0,13,28,18,0.72,1.56,0.0,0.0,0.72,1.56
5,2023,1029,Public Rack - Maplewood Ave & 63rd St,41.78,-87.69,2,0,0,0,2,0,1,2.0,0.0,0.0,0.0,2.0,0.0
5,2023,13420,MLK Jr Dr & Pershing Rd,41.82450766666667,-87.61678783333333,84,84,85,88,169,172,31,2.71,2.71,2.74,2.84,5.45,5.55
5,2023,595,Wabash Ave & 87th St,41.73655301831962,-87.62264415621758,3,4,9,8,12,12,12,0.25,0.33,0.75,0.67,1.0,1.0
5,2023,345,Artesian Ave & 55th St,41.7939955,-87.68581,22,11,0,0,22,11,17,1.29,0.65,0.0,0.0,1.29,0.65
5,2023,641,Public Rack - Loomis St & 87th St,41.74,-87.66,7,5,0,0,7,5,8,0.88,0.62,0.0,0.0,0.88,0.62
5,2023,545,Kostner Ave & Adams St,41.877917,-87.735737,9,8,4,9,13,17,12,0.75,0.67,0.33,0.75,1.08,1.42
5,2023,325,Harlem Ave & Grace St,41.9489085,-87.80682483333334,15,13,0,0,15,13,13,1.15,1.0,0.0,0.0,1.15,1.0
5,2023,327,Plainfield & Irving Park,41.95196083333333,-87.83335583333333,10,10,0,0,10,10,8,1.25,1.25,0.0,0.0,1.25,1.25
5,2023,1020,Public Rack - Hamlin Ave & Madison St,41.880935192,-87.720534325,3,4,0,0,3,4,4,0.75,1.0,0.0,0.0,0.75,1.0
5,2023,20121,Loomis Blvd & 84th St,41.74148652861805,-87.65841007232666,4,4,8,5,12,9,11,0.36,0.36,0.73,0.45,1.09,0.82
5,2023,16920,Central Ave & Chicago Ave,41.895012021,-87.764993906,35,31,0,1,35,32,27,1.3,1.15,0.0,0.04,1.3,1.19
5,2023,15449,State St & Pershing Rd,41.823015,-87.626568,7,9,10,9,17,18,20,0.35,0.45,0.5,0.45,0.85,0.9
5,2023,KA1503000021,Stony Island Ave & 64th St,41.778881,-87.586647,9,6,12,14,21,20,17,0.53,0.35,0.71,0.82,1.24,1.18
5,2023,788,Public Rack - Greenwood Ave & Lake Park Ave,41.82,-87.6,3,3,0,0,3,3,1,3.0,3.0,0.0,0.0,3.0,3.0
5,2023,16903,Cicero Ave & Lake St,41.886841,-87.745261,15,8,7,7,22,15,13,1.15,0.62,0.54,0.54,1.69,1.15
5,2023,474,Fullerton & Monitor,41.92,-87.77,21,21,0,0,21,21,23,0.91,0.91,0.0,0.0,0.91,0.91
5,2023,20249.0,N Clark St & W Elm St,41.9,-87.63,23,28,0,0,23,28,18,1.28,1.56,0.0,0.0,1.28,1.56
5,2023,20130,Wentworth Ave & 104th St,41.705307996998194,-87.62921690940857,1,1,1,1,2,2,3,0.33,0.33,0.33,0.33,0.67,0.67
5,2023,RP-005,Western Ave & Lunt Ave,42.0085943972,-87.6904922389,80,77,64,65,144,142,31,2.58,2.48,2.06,2.1,4.65,4.58
5,2023,504,Public Rack - Milwaukee Ave & Diversey Ave,41.931369,-87.71110866666666,22,37,0,0,22,37,22,1.0,1.68,0.0,0.0,1.0,1.68
5,2023,473,Mason Ave & Belmont Ave,41.938308954,-87.772494555,19,13,0,0,19,13,18,1.06,0.72,0.0,0.0,1.06,0.72
5,2023,1223.0,Public Rack - Kenton & Lawrence,41.97,-87.74,6,4,0,0,6,4,7,0.86,0.57,0.0,0.0,0.86,0.57
5,2023,13083,Indiana Ave & 40th St,41.82171866666667,-87.62139566666667,9,9,20,13,29,22,21,0.43,0.43,0.95,0.62,1.38,1.05
5,2023,508,Public Rack - Pulaski Rd & Fullerton Ave,41.92,-87.73,7,8,0,0,7,8,7,1.0,1.14,0.0,0.0,1.0,1.14
5,2023,20112,Indiana Ave & 103rd St,41.70717,-87.618472,1,3,3,2,4,5,8,0.12,0.38,0.38,0.25,0.5,0.62
5,2023,KA1504000106,Kedzie Ave & Lake St,41.88460328501,-87.7063037436,95,89,15,30,110,119,31,3.06,2.87,0.48,0.97,3.55,3.84
5,2023,20125,Halsted St & 104th St,41.70514,-87.642424,2,0,5,4,7,4,10,0.2,0.0,0.5,0.4,0.7,0.4
5,2023,407,Tripp Ave & 65th St,41.77,-87.73,22,19,0,0,22,19,12,1.83,1.58,0.0,0.0,1.83,1.58
5,2023,20127,Halsted St & 111th St,41.692296863,-87.642673492,18,18,3,3,21,21,14,1.29,1.29,0.21,0.21,1.5,1.5
5,2023,346,Kedzie Ave & 57th St,41.789891362,-87.703152418,31,26,0,0,31,26,22,1.41,1.18,0.0,0.0,1.41,1.18
5,2023,1237.0,Public Rack - Mason & Archer,41.79,-87.77,4,0,0,0,4,0,3,1.33,0.0,0.0,0.0,1.33,0.0
5,2023,335.0,Komensky Ave & 31st St,41.83667783333333,-87.7256665,32,42,0,0,32,42,24,1.33,1.75,0.0,0.0,1.33,1.75
5,2023,KA1503000023,Stony Island Ave & 67th St,41.77345849948,-87.5853397391,10,9,19,15,29,24,24,0.42,0.38,0.79,0.62,1.21,1.0
5,2023,571,Vernon Ave & 75th St,41.758393,-87.61410716666667,8,10,1,7,9,17,16,0.5,0.62,0.06,0.44,0.56,1.06
5,2023,20103,Prospect Sq & 91st St,41.728234,-87.667524,4,2,5,8,9,10,12,0.33,0.17,0.42,0.67,0.75,0.83
5,2023,693,Public Rack - Walden Pkwy & 103rd St,41.71,-87.67,19,22,0,0,19,22,16,1.19,1.38,0.0,0.0,1.19,1.38
5,2023,452,Richmond St & Lincoln Ave,41.988338166666665,-87.7030595,52,44,0,0,52,44,25,2.08,1.76,0.0,0.0,2.08,1.76
5,2023,TA1309000067,Cottage Grove Ave & 51st St,41.803038,-87.606615,46,48,116,96,162,144,31,1.48,1.55,3.74,3.1,5.23,4.65
5,2023,950,Public Rack - Woodlawn Ave & 63rd St S,41.78,-87.6,1,1,0,0,1,1,2,0.5,0.5,0.0,0.0,0.5,0.5
5,2023,506,Public Rack - Lawndale Ave & Diversey Ave,41.93,-87.72,38,38,0,0,38,38,28,1.36,1.36,0.0,0.0,1.36,1.36
5,2023,1141.0,Public Rack - Holbrook St & Milwaukee Ave,41.99,-87.78,6,3,0,0,6,3,5,1.2,0.6,0.0,0.0,1.2,0.6
5,2023,1235.0,Public Rack - Lockwood & Archer,41.8,-87.76,4,7,0,0,4,7,6,0.67,1.17,0.0,0.0,0.67,1.17
5,2023,627,Public Rack - Halsted St & 95th St - SE,41.72,-87.64,4,0,0,0,4,0,4,1.0,0.0,0.0,0.0,1.0,0.0
5,2023,499,Public Rack - Christiana Ave & Belmont Ave,41.939163089,-87.712064505,23,22,0,0,23,22,22,1.05,1.0,0.0,0.0,1.05,1.0
5,2023,20260.0,Ping Tom Park (East),41.858264327,-87.632039547,6,3,0,0,6,3,4,1.5,0.75,0.0,0.0,1.5,0.75
5,2023,767,Public Rack - Hyde Park Blvd & 53rd St,41.799401164,-87.584447026,24,13,0,0,24,13,10,2.4,1.3,0.0,0.0,2.4,1.3
5,2023,13124,Cannon Dr & Fullerton Ave,41.9267559875,-87.6344287848,262,273,475,523,737,796,31,8.45,8.81,15.32,16.87,23.77,25.68
5,2023,385,St Louis Ave & Norman Bobbins Ave,41.79,-87.71,21,19,0,0,21,19,23,0.91,0.83,0.0,0.0,0.91,0.83
5,2023,738,Public Rack - 63rd & Western Ave S,41.78,-87.68,1,0,0,0,1,0,1,1.0,0.0,0.0,0.0,1.0,0.0
5,2023,1201.0,Public Rack - Austin & Higgins,41.972911358,-87.777587652,8,6,0,0,8,6,8,1.0,0.75,0.0,0.0,1.0,0.75
5,2023,642,Latrobe Ave & Chicago Ave,41.894753456,-87.756926298,14,8,4,5,18,13,16,0.88,0.5,0.25,0.31,1.12,0.81
5,2023,KA1504000082,Kedzie Ave & Harrison St,41.873652339,-87.704925179,7,9,8,8,15,17,17,0.41,0.53,0.47,0.47,0.88,1.0
5,2023,560,Public Rack - Austin Ave & Roscoe St,41.942213297,-87.776665568,9,8,10,16,19,24,18,0.5,0.44,0.56,0.89,1.06,1.33
5,2023,581,Public Rack - Baltimore Ave & 133rd St,41.6536365,-87.546957,5,4,0,0,5,4,8,0.62,0.5,0.0,0.0,0.62,0.5
5,2023,803,Public Rack - Newland Ave & Diversey Ave,41.930929899,-87.799433589,1,1,0,0,1,1,1,1.0,1.0,0.0,0.0,1.0,1.0
5,2023,383,Campbell Ave & 51st St,41.8,-87.69,13,3,0,0,13,3,10,1.3,0.3,0.0,0.0,1.3,0.3
5,2023,1269.0,Public Rack - Western & 79th,41.75,-87.68,2,3,0,0,2,3,5,0.4,0.6,0.0,0.0,0.4,0.6
5,2023,TA1309000051,Commercial Ave & 83rd St,41.74461484,-87.55122602,9,10,5,5,14,15,14,0.64,0.71,0.36,0.36,1.0,1.07
5,2023,20215,Hegewisch Metra Station,41.6485905,-87.54621183333333,8,9,12,15,20,24,23,0.35,0.39,0.52,0.65,0.87,1.04
5,2023,368.0,Tripp Ave & 31st St,41.836971166666665,-87.730488,4,0,0,0,4,0,4,1.0,0.0,0.0,0.0,1.0,0.0
5,2023,404,Pulaski Rd & 60th St,41.784263372,-87.722524285,18,15,0,0,18,15,23,0.78,0.65,0.0,0.0,0.78,0.65
5,2023,721,Public Rack - Ashland Ave & 73rd St,41.76,-87.66,2,0,0,0,2,0,2,1.0,0.0,0.0,0.0,1.0,0.0
5,2023,831,Public Rack - Kolin Ave & Archer Ave,41.800549333333336,-87.7317415,1,1,0,0,1,1,2,0.5,0.5,0.0,0.0,0.5,0.5
5,2023,1136.0,Public Rack - William J Onahan Public School,41.99,-87.79,3,4,0,0,3,4,3,1.0,1.33,0.0,0.0,1.0,1.33
5,2023,KA1503000055,Halsted St & 63rd St,41.779381,-87.644621,5,3,13,10,18,13,17,0.29,0.18,0.76,0.59,1.06,0.76
5,2023,937,Public Rack - King Dr & 115th St,41.68539466666667,-87.61335066666666,5,4,0,0,5,4,8,0.62,0.5,0.0,0.0,0.62,0.5
5,2023,361,Kenosha & Wellington,41.93440833333333,-87.73382216666667,53,29,0,0,53,29,29,1.83,1.0,0.0,0.0,1.83,1.0
5,2023,1219.0,Public Rack - Kimball & Ardmore,41.99,-87.71,4,5,0,0,4,5,5,0.8,1.0,0.0,0.0,0.8,1.0
5,2023,621,Public Rack - Lafayette Ave & 95th St,41.721973538,-87.624773264,12,10,0,0,12,10,10,1.2,1.0,0.0,0.0,1.2,1.0
5,2023,20123,Western Ave & 104th St,41.70458710218908,-87.68120348453522,6,8,4,5,10,13,14,0.43,0.57,0.29,0.36,0.71,0.93
5,2023,1097.0,Public Rack - Meade Ave & Archer Ave,41.794090986,-87.774046779,4,2,0,0,4,2,5,0.8,0.4,0.0,0.0,0.8,0.4
5,2023,1224.0,Public Rack - Kilpatrick & Elston,41.97,-87.74,9,7,0,0,9,7,11,0.82,0.64,0.0,0.0,0.82,0.64
5,2023,480,Public Rack - Rockwell Ave & Touhy Ave ,42.01,-87.7,7,7,0,0,7,7,7,1.0,1.0,0.0,0.0,1.0,1.0
5,2023,332.0,Harding Ave & 26th St,41.844557285,-87.723434567,9,10,0,0,9,10,6,1.5,1.67,0.0,0.0,1.5,1.67
5,2023,363.0,Tripp Ave & 15th St,41.86,-87.73,8,7,0,0,8,7,8,1.0,0.88,0.0,0.0,1.0,0.88
5,2023,338,California Ave & 36th St,41.83,-87.69,14,8,0,0,14,8,14,1.0,0.57,0.0,0.0,1.0,0.57
5,2023,492,Public Rack - Hamlin Ave & Montrose Ave,41.96,-87.72,42,47,0,0,42,47,30,1.4,1.57,0.0,0.0,1.4,1.57
5,2023,20213,Commercial Ave & 130th St,41.659167886,-87.550777435,12,13,14,17,26,30,20,0.6,0.65,0.7,0.85,1.3,1.5
5,2023,583,Stony Island Ave & 82nd St,41.746565833333335,-87.58600466666667,7,5,6,4,13,9,9,0.78,0.56,0.67,0.44,1.44,1.0
5,2023,534,Karlov Ave & Madison St,41.88089283333333,-87.7279025,15,14,1,4,16,18,18,0.83,0.78,0.06,0.22,0.89,1.0
5,2023,991,Public Rack - Western Ave & 96th St,41.718377233,-87.681869268,5,3,0,0,5,3,5,1.0,0.6,0.0,0.0,1.0,0.6
5,2023,20220,Avenue L & 114th St,41.68800233333333,-87.536537,2,0,0,0,2,0,1,2.0,0.0,0.0,0.0,2.0,0.0
5,2023,575,Cottage Grove Ave & 78th St,41.753174,-87.605026,0,0,3,0,3,0,3,0.0,0.0,1.0,0.0,1.0,0.0
5,2023,20214,Avenue O & 134th St,41.651885166666666,-87.53964866666666,17,13,4,3,21,16,14,1.21,0.93,0.29,0.21,1.5,1.14
5,2023,1248.0,Public Rack - Sacramento & 71st,41.764396,-87.6977995,1,1,0,0,1,1,1,1.0,1.0,0.0,0.0,1.0,1.0
5,2023,1241.0,Public Rack - Harlem and W. 59th,41.784905,-87.80105533333334,2,0,0,0,2,0,1,2.0,0.0,0.0,0.0,2.0,0.0
5,2023,KA1503000019,Stony Island Ave & 75th St,41.7586696704,-87.586882871,8,7,13,12,21,19,16,0.5,0.44,0.81,0.75,1.31,1.19
5,2023,875,Public Rack - Halsted St & 111th St,41.69,-87.64,2,2,0,0,2,2,3,0.67,0.67,0.0,0.0,0.67,0.67
5,2023,307,Leamington Ave & Hirsch St,41.91,-87.75,6,7,0,0,6,7,9,0.67,0.78,0.0,0.0,0.67,0.78
5,2023,824,Public Rack - Avers Ave & Archer Ave,41.8,-87.72,4,7,0,0,4,7,8,0.5,0.88,0.0,0.0,0.5,0.88
5,2023,397,Narragansett Ave & School St,41.940135717,-87.786491275,16,16,0,0,16,16,18,0.89,0.89,0.0,0.0,0.89,0.89
5,2023,441,Virginia Ave & Catalpa Ave,41.9812225,-87.7049845,19,21,0,0,19,21,20,0.95,1.05,0.0,0.0,0.95,1.05
5,2023,359,Kilbourn & Belden,41.922261953,-87.739016414,38,38,0,0,38,38,24,1.58,1.58,0.0,0.0,1.58,1.58
5,2023,833,Public Rack - Pulaski Rd & 44th St,41.81,-87.72,11,13,0,0,11,13,11,1.0,1.18,0.0,0.0,1.0,1.18
5,2023,832,Public Rack - Christiana Ave & Archer Ave,41.81,-87.71,10,9,0,0,10,9,9,1.11,1.0,0.0,0.0,1.11,1.0
5,2023,570,Evans Ave & 75th St,41.758483171,-87.606382728,6,4,1,1,7,5,7,0.86,0.57,0.14,0.14,1.0,0.71
5,2023,646,Public Rack - Cottage Grove Ave & 87th St,41.74,-87.61,12,15,6,5,18,20,23,0.52,0.65,0.26,0.22,0.78,0.87
5,2023,20223,Ewing Ave & Burnham Greenway,41.712768555,-87.534714818,9,4,5,5,14,9,13,0.69,0.31,0.38,0.38,1.08,0.69
5,2023,528,Pulaski Rd & Lake St,41.885308146,-87.72671473,22,17,6,4,28,21,27,0.81,0.63,0.22,0.15,1.04,0.78
5,2023,20222,Burnham Greenway & 105th St,41.7045750872071,-87.52823173999786,4,7,6,4,10,11,14,0.29,0.5,0.43,0.29,0.71,0.79
5,2023,20109,Vernon Ave & 107th St,41.70012137923888,-87.61225998401642,3,1,3,3,6,4,7,0.43,0.14,0.43,0.43,0.86,0.57
5,2023,16907,Central Park Blvd & 5th Ave,41.875647545,-87.715492487,15,12,8,15,23,27,22,0.68,0.55,0.36,0.68,1.05,1.23
5,2023,483,Public Rack - Western Ave & Jarvis Ave,42.02,-87.69,4,4,0,0,4,4,5,0.8,0.8,0.0,0.0,0.8,0.8
5,2023,931,Public Rack - Western Ave & Devon Ave,42.0,-87.69,13,13,0,0,13,13,13,1.0,1.0,0.0,0.0,1.0,1.0
5,2023,20244,Halsted St & 73rd St,41.76160543804394,-87.64416097666071,2,2,3,5,5,7,9,0.22,0.22,0.33,0.56,0.56,0.78
5,2023,318,Oak Park & Wellington,41.9345875,-87.79585583333333,26,20,0,0,26,20,13,2.0,1.54,0.0,0.0,2.0,1.54
5,2023,1147.0,Public Rack - Kedvale Ave & Peterson Ave,41.99020883333333,-87.73229166666667,9,4,0,0,9,4,6,1.5,0.67,0.0,0.0,1.5,0.67
5,2023,20218,Avenue O & 118th St,41.681054235,-87.538033366,3,7,2,5,5,12,11,0.27,0.64,0.18,0.45,0.45,1.09
5,2023,1203.0,Public Rack - Lavergne & Lawrence,41.967902333333335,-87.752531,9,7,0,0,9,7,9,1.0,0.78,0.0,0.0,1.0,0.78
5,2023,840,Public Rack - Marshfield Ave & 45th St,41.812332511,-87.66622746,2,2,0,0,2,2,2,1.0,1.0,0.0,0.0,1.0,1.0
5,2023,15691,Albany Ave & 26th St,41.84447501366,-87.7020130128,22,19,6,6,28,25,25,0.88,0.76,0.24,0.24,1.12,1.0
5,2023,1060,Public Rack - Homan Ave & Lake St,41.884682298,-87.711486578,1,0,0,0,1,0,1,1.0,0.0,0.0,0.0,1.0,0.0
5,2023,KA1503000011,Halsted St & 56th St,41.79292964599,-87.6449900565,2,1,10,5,12,6,12,0.17,0.08,0.83,0.42,1.0,0.5
5,2023,577,Stony Island Ave & South Chicago Ave,41.751173,-87.585337,2,2,3,3,5,5,10,0.2,0.2,0.3,0.3,0.5,0.5
5,2023,973,Public Rack - Halsted St & 113th St,41.688525915,-87.64242506,2,2,0,0,2,2,1,2.0,2.0,0.0,0.0,2.0,2.0
5,2023,479,Public Rack - California Ave & Touhy Ave - NW,42.01,-87.7,13,16,0,0,13,16,15,0.87,1.07,0.0,0.0,0.87,1.07
5,2023,1189.0,Public Rack - Neva & Foster,41.97482121,-87.805980802,12,10,0,0,12,10,12,1.0,0.83,0.0,0.0,1.0,0.83
5,2023,1157.0,Public Rack - Northwest Hwy & Neva Ave,42.0,-87.81,4,2,0,0,4,2,3,1.33,0.67,0.0,0.0,1.33,0.67
5,2023,347,Komensky Ave & 55th St,41.7934145,-87.72433183333334,9,9,0,0,9,9,9,1.0,1.0,0.0,0.0,1.0,1.0
5,2023,1199.0,Public Rack - Nagel & Higgins,41.98,-87.79,3,2,0,0,3,2,5,0.6,0.4,0.0,0.0,0.6,0.4
5,2023,1034,Public Rack - Kenneth Ave & 63rd St E,41.78,-87.73,5,1,0,0,5,1,3,1.67,0.33,0.0,0.0,1.67,0.33
5,2023,948,Public Rack - South Shore Dr & 71st St,41.77,-87.56,7,6,0,0,7,6,8,0.88,0.75,0.0,0.0,0.88,0.75
5,2023,367,Mayfield & Roosevelt Rd,41.865682125,-87.771677494,3,2,0,0,3,2,4,0.75,0.5,0.0,0.0,0.75,0.5
5,2023,757,Public Rack - Kedzie Ave & 63rd St,41.77870667,-87.703419089,2,2,0,0,2,2,3,0.67,0.67,0.0,0.0,0.67,0.67
5,2023,1161.0,Public Rack - Kinzua Ave & Devon Ave,42.0,-87.77,2,0,0,0,2,0,2,1.0,0.0,0.0,0.0,1.0,0.0
5,2023,366.0,Spaulding Ave & 16th St,41.86,-87.71,2,3,0,0,2,3,3,0.67,1.0,0.0,0.0,0.67,1.0
5,2023,20219,Burnham Greenway & 112th St,41.69177385116831,-87.53043115139008,21,19,13,13,34,32,18,1.17,1.06,0.72,0.72,1.89,1.78
5,2023,1222.0,Public Rack - Central Park & Bryn Mawr,41.98,-87.72,5,3,0,0,5,3,5,1.0,0.6,0.0,0.0,1.0,0.6
5,2023,953,Public Rack - Lawndale Ave & 63rd St,41.78,-87.71,2,0,0,0,2,0,2,1.0,0.0,0.0,0.0,1.0,0.0
5,2023,333.0,Kildare & Cermak,41.85,-87.73,8,8,0,0,8,8,7,1.14,1.14,0.0,0.0,1.14,1.14
5,2023,993,Public Rack - Ashland Ave & 83rd St,41.74,-87.66,4,2,0,0,4,2,3,1.33,0.67,0.0,0.0,1.33,0.67
5,2023,485,Public Rack - Sacramento Ave & Devon Ave,42.0,-87.7,3,4,0,0,3,4,7,0.43,0.57,0.0,0.0,0.43,0.57
5,2023,334.0,Lawndale Ave & 30th St,41.83892417,-87.71686089,23,18,0,0,23,18,19,1.21,0.95,0.0,0.0,1.21,0.95
5,2023,1076.0,Public Rack - 82nd st & Kedzie Ave,41.743461847,-87.702314973,5,3,0,0,5,3,6,0.83,0.5,0.0,0.0,0.83,0.5
5,2023,1239.0,Public Rack - S Menard & W 63rd,41.777059674,-87.766636848,13,11,0,0,13,11,11,1.18,1.0,0.0,0.0,1.18,1.0
5,2023,20108,Hale Ave & 107th St,41.699247479,-87.668867826,5,7,4,5,9,12,13,0.38,0.54,0.31,0.38,0.69,0.92
5,2023,1070,Public Rack - Lawndale Ave & 23rd St,41.849705219,-87.716579914,5,7,0,0,5,7,5,1.0,1.4,0.0,0.0,1.0,1.4
5,2023,1043,Public Rack - Loomis Blvd & 47th St,41.8085755,-87.66052,2,2,0,0,2,2,3,0.67,0.67,0.0,0.0,0.67,0.67
5,2023,719,Public Rack - Ashland Ave & 76th St,41.76,-87.66,4,2,0,0,4,2,4,1.0,0.5,0.0,0.0,1.0,0.5
5,2023,1104.0,Public Rack - Irving Park Rd & Austin Ave,41.95,-87.78,3,3,0,0,3,3,4,0.75,0.75,0.0,0.0,0.75,0.75
5,2023,20126,S Aberdeen St & W 106th St,41.7,-87.65,1,1,0,0,1,1,1,1.0,1.0,0.0,0.0,1.0,1.0
5,2023,20114,Doty Ave & 111th St,41.695008755,-87.598808289,9,4,2,2,11,6,12,0.75,0.33,0.17,0.17,0.92,0.5
5,2023,825,Public Rack - Kedzie Ave & 54th St - SW,41.8,-87.7,2,2,0,0,2,2,2,1.0,1.0,0.0,0.0,1.0,1.0
5,2023,567,May St & 69th St,41.768948197,-87.652965307,42,43,5,5,47,48,25,1.68,1.72,0.2,0.2,1.88,1.92
5,2023,465,Troy Ave & 27th St,41.84265033333333,-87.70409366666667,11,8,0,0,11,8,10,1.1,0.8,0.0,0.0,1.1,0.8
5,2023,763,Public Rack - Kildare Ave & 63rd St,41.778477907,-87.730544329,6,5,0,0,6,5,4,1.5,1.25,0.0,0.0,1.5,1.25
5,2023,20105,Halsted St & 96th St,41.71971218361882,-87.6430195569992,20,19,29,29,49,48,28,0.71,0.68,1.04,1.04,1.75,1.71
5,2023,493,Public Rack - St Louis Ave & Berteau Ave,41.96,-87.72,2,2,0,0,2,2,3,0.67,0.67,0.0,0.0,0.67,0.67
5,2023,584,Ellis Ave & 83rd St,41.74414333333333,-87.59906216666667,14,13,3,2,17,15,12,1.17,1.08,0.25,0.17,1.42,1.25
5,2023,1058,Public Rack - Kildare Ave & North Ave,41.909900904,-87.733829618,4,5,0,0,4,5,6,0.67,0.83,0.0,0.0,0.67,0.83
5,2023,805,Public Rack - Neva Ave & Grand Ave,41.923639655,-87.804526567,4,2,0,0,4,2,5,0.8,0.4,0.0,0.0,0.8,0.4
5,2023,20129,Ada St & 113th St,41.687552571,-87.655462265,6,4,1,4,7,8,9,0.67,0.44,0.11,0.44,0.78,0.89
5,2023,20243,Michigan Ave & 114th St,41.687041402,-87.62108624,5,7,1,1,6,8,7,0.71,1.0,0.14,0.14,0.86,1.14
5,2023,762,Public Rack - Kenneth Ave & 63rd St W,41.78,-87.73,3,3,0,0,3,3,1,3.0,3.0,0.0,0.0,3.0,3.0
5,2023,565,Public Rack - Austin Ave & Wrightwood Ave,41.93,-87.78,14,11,0,0,14,11,14,1.0,0.79,0.0,0.0,1.0,0.79
5,2023,1246.0,Public Rack - California & 71st,41.764715552,-87.693081021,12,11,0,0,12,11,13,0.92,0.85,0.0,0.0,0.92,0.85
5,2023,391,Rockwell St & 63rd St,41.778846741,-87.688595653,3,6,0,0,3,6,7,0.43,0.86,0.0,0.0,0.43,0.86
5,2023,1129.0,Public Rack - Elston Ave & Kenneth Ave,41.97,-87.74,5,5,0,0,5,5,8,0.62,0.62,0.0,0.0,0.62,0.62
5,2023,1126.0,Public Rack - Laramine Ave & Winnemac Ave,41.97,-87.76,17,16,0,0,17,16,17,1.0,0.94,0.0,0.0,1.0,0.94
5,2023,696,Public Rack - Hamilton Ave & 95th St,41.72,-87.68,2,1,0,0,2,1,1,2.0,1.0,0.0,0.0,2.0,1.0
