month,year,station_id,station_name,lat,lng,ebike_start,ebike_end,cbike_start,cbike_end,total_start,total_end,active_days,daily_ebike_start,daily_ebike_end,daily_cbike_start,daily_cbike_end,daily_start,daily_end
4,2023,361,Kenosha & Wellington,41.93,-87.73,67,49,0,0,67,49,28,2.39,1.75,0.0,0.0,2.39,1.75
4,2023,13256,California Ave & Division St,41.903009833333336,-87.69763666666667,171,178,103,134,274,312,30,5.7,5.93,3.43,4.47,9.13,10.4
4,2023,20214,Avenue O & 134th St,41.65186780228521,-87.53967136144637,2,3,14,11,16,14,9,0.22,0.33,1.56,1.22,1.78,1.56
4,2023,13084,California Ave & Milwaukee Ave,41.92265966666667,-87.69705666666667,512,505,348,354,860,859,30,17.07,16.83,11.6,11.8,28.67,28.63
4,2023,15623,Campbell Ave & Montrose Ave,41.961605072,-87.691176891,144,142,102,114,246,256,30,4.8,4.73,3.4,3.8,8.2,8.53
4,2023,637,Wood St & Chicago Ave,41.895669833333336,-87.67231983333333,350,330,235,246,585,576,30,11.67,11.0,7.83,8.2,19.5,19.2
4,2023,TA1309000067,Cottage Grove Ave & 51st St,41.803038,-87.606615,39,38,74,83,113,121,29,1.34,1.31,2.55,2.86,3.9,4.17
4,2023,TA1306000002,Morgan Ave & 14th Pl,41.862429738,-87.651152372,285,289,169,192,454,481,30,9.5,9.63,5.63,6.4,15.13,16.03
4,2023,15634,Western Ave & Roscoe St,41.943059325,-87.687309265,112,108,114,110,226,218,30,3.73,3.6,3.8,3.67,7.53,7.27
4,2023,20106,Chicago State University,41.718937516,-87.608349085,39,35,8,9,47,44,22,1.77,1.59,0.36,0.41,2.14,2.0
4,2023,KA1504000106,Kedzie Ave & Lake St,41.884814262,-87.706372261,69,55,19,15,88,70,30,2.3,1.83,0.63,0.5,2.93,2.33
4,2023,20222,Burnham Greenway & 105th St,41.7045750872071,-87.52823173999786,0,1,10,13,10,14,11,0.0,0.09,0.91,1.18,0.91,1.27
4,2023,320,Orange & Addison,41.94,-87.82,16,16,0,0,16,16,6,2.67,2.67,0.0,0.0,2.67,2.67
4,2023,336,La Villita Park (Albany/30th),41.84,-87.7,7,8,0,0,7,8,8,0.88,1.0,0.0,0.0,0.88,1.0
4,2023,927,Public Rack - Michigan Ave & 119th St,41.68,-87.62,1,1,0,0,1,1,2,0.5,0.5,0.0,0.0,0.5,0.5
4,2023,TA1309000024,Clark St & Schiller St,41.907993,-87.631501,657,656,708,689,1365,1345,30,21.9,21.87,23.6,22.97,45.5,44.83
4,2023,TA1309000041,Sheridan Rd & Lawrence Ave,41.969460011,-87.654703379,202,204,255,253,457,457,30,6.73,6.8,8.5,8.43,15.23,15.23
4,2023,TA1307000144,Wolcott (Ravenswood) Ave & Montrose Ave,41.961428404,-87.676234484,315,314,178,178,493,492,30,10.5,10.47,5.93,5.93,16.43,16.4
4,2023,15578,Broadway & Ridge Ave,41.984053731,-87.660300612,256,253,275,287,531,540,30,8.53,8.43,9.17,9.57,17.7,18.0
4,2023,KA1503000052,Ellis Ave & 53rd St,41.79933626261,-87.6009581145,133,132,319,301,452,433,30,4.43,4.4,10.63,10.03,15.07,14.43
4,2023,TA1308000013,Halsted St & Archer Ave,41.847203,-87.646795,133,128,102,80,235,208,30,4.43,4.27,3.4,2.67,7.83,6.93
4,2023,TA1307000151,Wells St & Hubbard St,41.889941,-87.63409633333333,978,957,820,794,1798,1751,30,32.6,31.9,27.33,26.47,59.93,58.37
4,2023,TA1307000128,Dearborn Pkwy & Delaware Pl,41.898969,-87.629912,739,734,767,780,1506,1514,30,24.63,24.47,25.57,26.0,50.2,50.47
4,2023,13259,California Ave & Francis Pl (Temp),41.91849115368695,-87.69742280244827,224,224,137,167,361,391,30,7.47,7.47,4.57,5.57,12.03,13.03
4,2023,15654,Spaulding Ave & Division St,41.90270659438,-87.709219571,141,133,27,32,168,165,30,4.7,4.43,0.9,1.07,5.6,5.5
4,2023,TA1308000043,Halsted St & 35th St,41.830703974,-87.647135139,144,137,105,105,249,242,30,4.8,4.57,3.5,3.5,8.3,8.07
4,2023,596,Benson Ave & Church St,42.048214,-87.683485,244,249,246,250,490,499,30,8.13,8.3,8.2,8.33,16.33,16.63
4,2023,TA1307000142,Clark St & Drummond Pl,41.931248,-87.644336,725,720,769,819,1494,1539,30,24.17,24.0,25.63,27.3,49.8,51.3
4,2023,768,Public Rack - Hyde Park Blvd & 55th St,41.8,-87.58,8,9,0,0,8,9,8,1.0,1.12,0.0,0.0,1.0,1.12
4,2023,RP-006,Ridge Blvd & Touhy Ave,42.01213227742,-87.6829126443,31,31,32,31,63,62,25,1.24,1.24,1.28,1.24,2.52,2.48
4,2023,TA1308000021,Winthrop Ave & Lawrence Ave,41.968920231,-87.657641292,252,254,230,253,482,507,30,8.4,8.47,7.67,8.43,16.07,16.9
4,2023,TA1307000126,Sheffield Ave & Waveland Ave,41.949252009,-87.654534817,1136,1208,676,804,1812,2012,30,37.87,40.27,22.53,26.8,60.4,67.07
4,2023,15632,Talman Ave & Addison St,41.946636,-87.694615,169,177,70,72,239,249,30,5.63,5.9,2.33,2.4,7.97,8.3
4,2023,13133,Damen Ave & Cortland St,41.915983,-87.677335,508,518,311,372,819,890,30,16.93,17.27,10.37,12.4,27.3,29.67
4,2023,TA1309000063,Lake Park Ave & 56th St,41.793235779,-87.58788085,189,193,466,522,655,715,30,6.3,6.43,15.53,17.4,21.83,23.83
4,2023,13341,Canal St & Madison St,41.882243395,-87.640124798,844,844,565,630,1409,1474,30,28.13,28.13,18.83,21.0,46.97,49.13
4,2023,20249.0,N Clark St & W Elm St,41.9,-87.63,15,27,0,0,15,27,17,0.88,1.59,0.0,0.0,0.88,1.59
4,2023,621,Public Rack - Lafayette Ave & 95th St,41.72,-87.62,5,3,0,0,5,3,6,0.83,0.5,0.0,0.0,0.83,0.5
4,2023,13162,Halsted St & 21st St,41.85393405,-87.64661181,96,104,94,120,190,224,31,3.1,3.35,3.03,3.87,6.13,7.23
4,2023,13029,Field Museum,41.865289833333335,-87.61791966666667,297,255,524,314,821,569,30,9.9,8.5,17.47,10.47,27.37,18.97
4,2023,TA1309000061,Halsted St & Wrightwood Ave,41.929143,-87.649077,833,820,683,667,1516,1487,30,27.77,27.33,22.77,22.23,50.53,49.57
4,2023,15571,Broadway & Granville Ave,41.9947796884,-87.6602845349,277,281,256,298,533,579,30,9.23,9.37,8.53,9.93,17.77,19.3
4,2023,KA1504000117,Halsted St & North Branch St,41.89939028549696,-87.64854490756989,79,68,64,50,143,118,29,2.72,2.34,2.21,1.72,4.93,4.07
4,2023,KA1706005007,Delano Ct & Roosevelt Rd,41.867491,-87.63219,259,259,228,238,487,497,30,8.63,8.63,7.6,7.93,16.23,16.57
4,2023,472,Elston Ave & George St,41.93,-87.69,112,107,0,0,112,107,30,3.73,3.57,0.0,0.0,3.73,3.57
4,2023,580,Exchange Ave & 79th St,41.751731,-87.552812,7,3,3,5,10,8,9,0.78,0.33,0.33,0.56,1.11,0.89
4,2023,KA1504000090,St. Louis Ave & Fullerton Ave,41.92481559681187,-87.71449506282805,155,158,101,133,256,291,30,5.17,5.27,3.37,4.43,8.53,9.7
4,2023,TA1308000005,Leavitt St & North Ave,41.91017466666667,-87.68240616666667,335,301,205,172,540,473,30,11.17,10.03,6.83,5.73,18.0,15.77
4,2023,KA1504000096,Sawyer Ave & Irving Park Rd,41.95358617895,-87.7093107999,63,62,30,31,93,93,30,2.1,2.07,1.0,1.03,3.1,3.1
4,2023,350,Hamlin Ave & 62nd Pl,41.78,-87.72,9,6,0,0,9,6,9,1.0,0.67,0.0,0.0,1.0,0.67
4,2023,TA1309000053,Cottage Grove Ave & 47th St,41.809809566,-87.606767416,40,35,46,50,86,85,29,1.38,1.21,1.59,1.72,2.97,2.93
4,2023,13248,Ashland Ave & Augusta Blvd,41.899643,-87.6677,247,244,262,266,509,510,30,8.23,8.13,8.73,8.87,16.97,17.0
4,2023,KA1504000128,Kedzie Ave & Foster Ave,41.975672,-87.709261,71,67,38,42,109,109,29,2.45,2.31,1.31,1.45,3.76,3.76
4,2023,13332,Loomis St & Lexington St,41.87222873224032,-87.66136385500431,986,992,899,910,1885,1902,30,32.87,33.07,29.97,30.33,62.83,63.4
4,2023,1018,Public Rack - Kostner Ave & Wrightwood Ave,41.93,-87.74,2,1,0,0,2,1,2,1.0,0.5,0.0,0.0,1.0,0.5
4,2023,021320,MTV Hubbard St,41.89,-87.68,121,126,0,0,121,126,30,4.03,4.2,0.0,0.0,4.03,4.2
4,2023,658,Leavitt St & Division St,41.903013825,-87.683697104,201,187,167,161,368,348,30,6.7,6.23,5.57,5.37,12.27,11.6
4,2023,540,Laramie Ave & Madison St,41.880224347,-87.75542748,19,14,5,6,24,20,22,0.86,0.64,0.23,0.27,1.09,0.91
4,2023,KA1504000146,Clark St & Berwyn Ave,41.97803062248656,-87.66856491565704,606,628,329,399,935,1027,30,20.2,20.93,10.97,13.3,31.17,34.23
4,2023,13179,Clark St & Lincoln Ave,41.915689,-87.6346,859,855,895,989,1754,1844,30,28.63,28.5,29.83,32.97,58.47,61.47
4,2023,WL-012,Clinton St & Washington Blvd,41.883450985,-87.641484261,1360,1346,1056,1128,2416,2474,30,45.33,44.87,35.2,37.6,80.53,82.47
4,2023,KA1504000143,Leavitt St & Addison St,41.946655,-87.683359,136,128,116,114,252,242,30,4.53,4.27,3.87,3.8,8.4,8.07
4,2023,TA1309000004,LaSalle St & Jackson Blvd,41.878166,-87.631929,636,612,593,605,1229,1217,30,21.2,20.4,19.77,20.17,40.97,40.57
4,2023,20233,Halsted St & 78th St,41.75248701249013,-87.6439021574879,8,9,5,2,13,11,10,0.8,0.9,0.5,0.2,1.3,1.1
4,2023,313,Long Ave & Belden Ave,41.92,-87.76,20,12,0,0,20,12,18,1.11,0.67,0.0,0.0,1.11,0.67
4,2023,16906,Austin Blvd & Lake St,41.887988925,-87.774451137,23,19,5,6,28,25,25,0.92,0.76,0.2,0.24,1.12,1.0
4,2023,13292,Kedzie Ave & Palmer Ct,41.921525,-87.707322,153,150,124,142,277,292,30,5.1,5.0,4.13,4.73,9.23,9.73
4,2023,13434,Ashland Ave & Grand Ave,41.891072,-87.666611,253,248,150,181,403,429,30,8.43,8.27,5.0,6.03,13.43,14.3
4,2023,TA1307000124,Michigan Ave & 14th St,41.864059,-87.623727,391,383,392,426,783,809,30,13.03,12.77,13.07,14.2,26.1,26.97
4,2023,TA1308000046,Morgan St & 31st St,41.837764,-87.65115333333334,184,180,111,112,295,292,30,6.13,6.0,3.7,3.73,9.83,9.73
4,2023,356,Lavergne & Fullerton,41.92,-87.75,16,19,0,0,16,19,20,0.8,0.95,0.0,0.0,0.8,0.95
4,2023,497,Public Rack - Lowell Ave & Elston Ave,41.97,-87.74,35,33,0,0,35,33,25,1.4,1.32,0.0,0.0,1.4,1.32
4,2023,865,Public Rack - Kilbourn Ave & Fullerton Ave,41.92,-87.74,3,2,0,0,3,2,4,0.75,0.5,0.0,0.0,0.75,0.5
4,2023,542,Public Rack - Chopin Park,41.94,-87.76,2,4,0,0,2,4,1,2.0,4.0,0.0,0.0,2.0,4.0
4,2023,KA1504000151,Clark St & Bryn Mawr Ave,41.983617187,-87.669129252,409,417,262,302,671,719,30,13.63,13.9,8.73,10.07,22.37,23.97
4,2023,KA1503000011,Halsted St & 56th St,41.79292964599,-87.6449900565,2,3,2,3,4,6,7,0.29,0.43,0.29,0.43,0.57,0.86
4,2023,TA1306000032,Sheffield Ave & Willow St,41.913688,-87.652855,377,371,382,385,759,756,30,12.57,12.37,12.73,12.83,25.3,25.2
4,2023,13289,Eckhart Park,41.896377206,-87.660989642,333,330,356,340,689,670,30,11.1,11.0,11.87,11.33,22.97,22.33
4,2023,KA17018068,Leavitt St & Belmont Ave,41.939354,-87.683282,151,146,102,108,253,254,30,5.03,4.87,3.4,3.6,8.43,8.47
4,2023,TA1308000001,Theater on the Lake,41.926277,-87.630834,710,711,1443,1482,2153,2193,30,23.67,23.7,48.1,49.4,71.77,73.1
4,2023,636,Orleans St & Hubbard St,41.889982,-87.63676283333334,352,351,285,288,637,639,30,11.73,11.7,9.5,9.6,21.23,21.3
4,2023,398,Long & Irving Park,41.95,-87.76,73,71,0,0,73,71,26,2.81,2.73,0.0,0.0,2.81,2.73
4,2023,20105,Halsted St & 96th St,41.71971816666667,-87.64286366666667,20,14,16,14,36,28,22,0.91,0.64,0.73,0.64,1.64,1.27
4,2023,13096,California Ave & 21st St,41.8537957934734,-87.69582286477088,25,28,32,35,57,63,30,0.83,0.93,1.07,1.17,1.9,2.1
4,2023,15545,Burnham Harbor,41.857412,-87.613792,153,147,517,484,670,631,30,5.1,4.9,17.23,16.13,22.33,21.03
4,2023,15529,Mies van der Rohe Way & Chestnut St,41.8985866514,-87.6219152258,489,479,492,491,981,970,30,16.3,15.97,16.4,16.37,32.7,32.33
4,2023,TA1307000070,Damen Ave & Thomas St (Augusta Blvd),41.901367307,-87.67759037,328,273,254,225,582,498,30,10.93,9.1,8.47,7.5,19.4,16.6
4,2023,TA1305000034,Honore St & Division St,41.903119,-87.673935,593,595,400,434,993,1029,30,19.77,19.83,13.33,14.47,33.1,34.3
4,2023,13325,Broadway & Waveland Ave,41.949088216,-87.648541212,788,797,790,850,1578,1647,30,26.27,26.57,26.33,28.33,52.6,54.9
4,2023,TA1307000041,DuSable Lake Shore Dr & Wellington Ave,41.93678216666667,-87.6367605,496,500,720,810,1216,1310,30,16.53,16.67,24.0,27.0,40.53,43.67
4,2023,15651,Humboldt Blvd & Armitage Ave,41.917541623,-87.701781034,250,239,170,179,420,418,30,8.33,7.97,5.67,5.97,14.0,13.93
4,2023,510,Public Rack - Spaulding Ave & North Ave,41.91,-87.71,20,21,0,0,20,21,20,1.0,1.05,0.0,0.0,1.0,1.05
4,2023,TA1307000064,Lincoln Ave & Diversey Pkwy,41.932241797,-87.658747554,732,728,424,408,1156,1136,30,24.4,24.27,14.13,13.6,38.53,37.87
4,2023,TA1305000035,State St & Van Buren St,41.877153158,-87.627879858,386,349,443,419,829,768,30,12.87,11.63,14.77,13.97,27.63,25.6
4,2023,SL-005,Indiana Ave & Roosevelt Rd,41.867888,-87.623041,753,678,1199,1152,1952,1830,30,25.1,22.6,39.97,38.4,65.07,61.0
4,2023,TA1307000153,Emerald Ave & 28th St,41.84358,-87.645368,71,74,125,126,196,200,30,2.37,2.47,4.17,4.2,6.53,6.67
4,2023,15470,Calumet Ave & 51st St,41.802250624,-87.618035078,17,18,34,30,51,48,28,0.61,0.64,1.21,1.07,1.82,1.71
4,2023,13008,Millennium Park,41.8810317,-87.62408432,888,871,1042,1145,1930,2016,30,29.6,29.03,34.73,38.17,64.33,67.2
4,2023,13011,Canal St & Adams St,41.879360557,-87.640131831,987,954,848,812,1835,1766,30,32.9,31.8,28.27,27.07,61.17,58.87
4,2023,425,Rockwell St & Cermak Rd,41.85,-87.69,58,47,0,0,58,47,27,2.15,1.74,0.0,0.0,2.15,1.74
4,2023,15622,California Ave & Montrose Ave,41.961182952,-87.695435643,130,127,114,120,244,247,30,4.33,4.23,3.8,4.0,8.13,8.23
4,2023,TA1306000016,Sheffield Ave & Fullerton Ave,41.9256018819,-87.6537080423,1058,1053,896,908,1954,1961,30,35.27,35.1,29.87,30.27,65.13,65.37
4,2023,13319,Ashland Ave & Grace St,41.950687,-87.6687,297,288,248,191,545,479,30,9.9,9.6,8.27,6.37,18.17,15.97
4,2023,13296,Ashland Ave & Wrightwood Ave,41.92883,-87.668507,201,202,158,196,359,398,30,6.7,6.73,5.27,6.53,11.97,13.27
4,2023,TA1307000159,Paulina St & 18th St,41.857901,-87.668745,176,179,172,184,348,363,30,5.87,5.97,5.73,6.13,11.6,12.1
4,2023,855,Public Rack - Washtenaw Ave & Superior St,41.89,-87.69,52,51,0,0,52,51,24,2.17,2.12,0.0,0.0,2.17,2.12
4,2023,903,Public Rack - Western Ave & 106th St - West,41.7,-87.68,2,3,0,0,2,3,3,0.67,1.0,0.0,0.0,0.67,1.0
4,2023,479,Public Rack - California Ave & Touhy Ave - NW,42.01,-87.7,8,8,0,0,8,8,10,0.8,0.8,0.0,0.0,0.8,0.8
4,2023,16806,Bosworth Ave & Howard St,42.019537,-87.669563,36,37,38,31,74,68,27,1.33,1.37,1.41,1.15,2.74,2.52
4,2023,15689,California Ave & 23rd Pl,41.84910969176,-87.6951398068,14,11,36,26,50,37,26,0.54,0.42,1.38,1.0,1.92,1.42
4,2023,406,Kostner Ave & 63rd St,41.78,-87.73,19,19,0,0,19,19,9,2.11,2.11,0.0,0.0,2.11,2.11
4,2023,359,Kilbourn & Belden,41.92,-87.74,17,12,0,0,17,12,17,1.0,0.71,0.0,0.0,1.0,0.71
4,2023,595,Wabash Ave & 87th St,41.736614704,-87.622674346,6,7,7,4,13,11,17,0.35,0.41,0.41,0.24,0.76,0.65
4,2023,TA1309000003,Western Ave & 24th St,41.848506212,-87.685129046,41,42,24,20,65,62,30,1.37,1.4,0.8,0.67,2.17,2.07
4,2023,516,Public Rack - Kenton Ave & Palmer St,41.92,-87.74,4,5,0,0,4,5,6,0.67,0.83,0.0,0.0,0.67,0.83
4,2023,13331,May St & Cullerton St,41.855167,-87.654194,85,85,76,89,161,174,30,2.83,2.83,2.53,2.97,5.37,5.8
4,2023,KA1503000028,Jeffery Blvd & 76th St,41.75712006802,-87.5758393587,2,1,5,7,7,8,10,0.2,0.1,0.5,0.7,0.7,0.8
4,2023,365.0,Kildare Ave & 26th St,41.84,-87.73,12,11,0,0,12,11,14,0.86,0.79,0.0,0.0,0.86,0.79
4,2023,20104,State St & 95th St,41.721655,-87.62278016666667,44,43,19,16,63,59,29,1.52,1.48,0.66,0.55,2.17,2.03
4,2023,20219,Burnham Greenway & 112th St,41.69177385116831,-87.53043115139008,0,0,23,21,23,21,16,0.0,0.0,1.44,1.31,1.44,1.31
4,2023,507,Public Rack - Hamlin Ave & Fullerton Ave,41.92,-87.72,54,56,0,0,54,56,28,1.93,2.0,0.0,0.0,1.93,2.0
4,2023,TA1308000023,Cottage Grove Ave & 43rd St,41.816426516,-87.606591344,43,46,38,43,81,89,29,1.48,1.59,1.31,1.48,2.79,3.07
4,2023,13022,Streeter Dr & Grand Ave,41.892187,-87.61226183333333,1639,1596,2553,2518,4192,4114,30,54.63,53.2,85.1,83.93,139.73,137.13
4,2023,TA1309000008,Franklin St & Adams St (Temp),41.879028559,-87.635510683,393,388,345,367,738,755,30,13.1,12.93,11.5,12.23,24.6,25.17
4,2023,647,Elizabeth St & 59th St,41.78986752,-87.654712439,29,28,3,0,32,28,25,1.16,1.12,0.12,0.0,1.28,1.12
4,2023,KA1504000079,Larrabee St & Division St,41.90348607004,-87.6433534936,408,382,418,359,826,741,30,13.6,12.73,13.93,11.97,27.53,24.7
4,2023,15534,Field Blvd & South Water St,41.887026191,-87.617757559,532,533,319,335,851,868,30,17.73,17.77,10.63,11.17,28.37,28.93
4,2023,13156,Aberdeen St & Monroe St,41.880419,-87.655519,326,300,410,393,736,693,30,10.87,10.0,13.67,13.1,24.53,23.1
4,2023,13042,Michigan Ave & Oak St,41.90096039,-87.62377664,989,972,1385,1428,2374,2400,30,32.97,32.4,46.17,47.6,79.13,80.0
4,2023,KA1706005015,Kildare Ave & Montrose Ave,41.961090446,-87.735683918,29,25,48,38,77,63,30,0.97,0.83,1.6,1.27,2.57,2.1
4,2023,503,Public Rack - Jonathan Y Scammon Public School,41.94,-87.73,12,11,0,0,12,11,14,0.86,0.79,0.0,0.0,0.86,0.79
4,2023,TA1305000017,Halsted St & Roosevelt Rd,41.867408,-87.64866483333333,430,418,443,415,873,833,30,14.33,13.93,14.77,13.83,29.1,27.77
4,2023,342,Kedzie Ave & 45th St,41.81,-87.7,27,10,0,0,27,10,21,1.29,0.48,0.0,0.0,1.29,0.48
4,2023,430,Troy St & Grace St,41.95,-87.71,96,84,0,0,96,84,26,3.69,3.23,0.0,0.0,3.69,3.23
4,2023,KA1504000159,Sheridan Rd & Greenleaf Ave,42.01058656284,-87.6624120948,83,63,77,69,160,132,30,2.77,2.1,2.57,2.3,5.33,4.4
4,2023,13063,Sheridan Rd & Irving Park Rd,41.954245,-87.654406,685,679,741,701,1426,1380,31,22.1,21.9,23.9,22.61,46.0,44.52
4,2023,13137,Broadway & Barry Ave,41.93758231600629,-87.6440978050232,1042,1052,1019,1083,2061,2135,30,34.73,35.07,33.97,36.1,68.7,71.17
4,2023,TA1309000018,Ravenswood Ave & Berteau Ave,41.957921,-87.673567,125,128,169,172,294,300,30,4.17,4.27,5.63,5.73,9.8,10.0
4,2023,KA1504000167,Kedzie Ave & Bryn Mawr Ave,41.982315302,-87.708899736,44,46,33,40,77,86,29,1.52,1.59,1.14,1.38,2.66,2.97
4,2023,411,Francisco Ave & Chicago Ave,41.9,-87.7,2,2,0,0,2,2,2,1.0,1.0,0.0,0.0,1.0,1.0
4,2023,15682,Kedzie Ave & Roosevelt Rd,41.866496,-87.70642766666667,10,7,5,6,15,13,16,0.62,0.44,0.31,0.38,0.94,0.81
4,2023,TA1306000012,Wells St & Huron St,41.894843102,-87.634395957,950,927,915,872,1865,1799,30,31.67,30.9,30.5,29.07,62.17,59.97
4,2023,TA1309000042,Lincoln Ave & Belmont Ave (Temp),41.93953161982257,-87.6711143553257,344,353,243,281,587,634,30,11.47,11.77,8.1,9.37,19.57,21.13
4,2023,TA1308000049,Wells St & Evergreen Ave,41.906724,-87.63483,784,774,615,662,1399,1436,30,26.13,25.8,20.5,22.07,46.63,47.87
4,2023,13290,Noble St & Milwaukee Ave,41.90068,-87.6626,329,323,272,240,601,563,30,10.97,10.77,9.07,8.0,20.03,18.77
4,2023,TA1305000005,Dearborn St & Adams St,41.87847816666667,-87.63012733333333,292,281,381,385,673,666,30,9.73,9.37,12.7,12.83,22.43,22.2
4,2023,20201,Kedzie Ave & 104th St,41.7,-87.7,9,4,0,0,9,4,5,1.8,0.8,0.0,0.0,1.8,0.8
4,2023,TA1306000006,Orleans St & Elm St,41.902924,-87.637715,232,234,155,194,387,428,30,7.73,7.8,5.17,6.47,12.9,14.27
4,2023,TA1306000013,New St & Illinois St,41.89081933333333,-87.618972,710,683,759,745,1469,1428,30,23.67,22.77,25.3,24.83,48.97,47.6
4,2023,KA17018054,Damen Ave & Walnut (Lake) St,41.885969281,-87.677088618,161,150,111,119,272,269,30,5.37,5.0,3.7,3.97,9.07,8.97
4,2023,13132,Damen Ave & Chicago Ave,41.89558053,-87.677090287,449,435,274,334,723,769,30,14.97,14.5,9.13,11.13,24.1,25.63
4,2023,KA1503000045,Stony Island Ave & 71st St,41.766459823,-87.58647275,16,15,19,14,35,29,22,0.73,0.68,0.86,0.64,1.59,1.32
4,2023,20134,Maryland Ave & 104th St,41.71,-87.6,8,4,0,0,8,4,5,1.6,0.8,0.0,0.0,1.6,0.8
4,2023,15621,Albany Ave & Montrose Ave,41.960988045,-87.705727935,105,110,49,52,154,162,30,3.5,3.67,1.63,1.73,5.13,5.4
4,2023,KA1504000109,Washtenaw Ave & Ogden Ave,41.86197114,-87.693540454,23,19,18,22,41,41,23,1.0,0.83,0.78,0.96,1.78,1.78
4,2023,SL-013,State St & 19th St,41.856594,-87.627542,65,62,66,68,131,130,29,2.24,2.14,2.28,2.34,4.52,4.48
4,2023,KA1503000074,Museum of Science and Industry,41.79172820953,-87.583945009,106,103,212,217,318,320,30,3.53,3.43,7.07,7.23,10.6,10.67
4,2023,13071,Southport Ave & Roscoe St,41.943706751,-87.663944244,726,734,723,792,1449,1526,30,24.2,24.47,24.1,26.4,48.3,50.87
4,2023,13034,Michigan Ave & Pearson St,41.89766,-87.62351,239,222,424,383,663,605,30,7.97,7.4,14.13,12.77,22.1,20.17
4,2023,TA1306000010,Daley Center Plaza,41.8838325,-87.629489,650,662,691,711,1341,1373,30,21.67,22.07,23.03,23.7,44.7,45.77
4,2023,RP-008,Clark St & Columbia Ave,42.00445062934,-87.6724024047,122,112,77,57,199,169,30,4.07,3.73,2.57,1.9,6.63,5.63
4,2023,394,Panama Ave & Grace St,41.95,-87.83,8,7,0,0,8,7,5,1.6,1.4,0.0,0.0,1.6,1.4
4,2023,561,Damen Ave & 59th St,41.785954333333336,-87.67416116666666,38,38,3,4,41,42,23,1.65,1.65,0.13,0.17,1.78,1.83
4,2023,858,Public Rack - Christiana Ave & Bryn Mawr Ave,41.98,-87.71,2,1,0,0,2,1,1,2.0,1.0,0.0,0.0,2.0,1.0
4,2023,KA1503000002,South Shore Dr & 71st St,41.7664094567,-87.5656875719,14,14,35,37,49,51,23,0.61,0.61,1.52,1.61,2.13,2.22
4,2023,13277,Broadway & Belmont Ave,41.940106,-87.645451,567,574,634,685,1201,1259,30,18.9,19.13,21.13,22.83,40.03,41.97
4,2023,TA1307000038,Sedgwick St & North Ave,41.911386,-87.638677,447,419,603,530,1050,949,30,14.9,13.97,20.1,17.67,35.0,31.63
4,2023,631,Malcolm X College,41.877618,-87.673895,85,76,56,50,141,126,30,2.83,2.53,1.87,1.67,4.7,4.2
4,2023,414,Sacramento Blvd & Fulton Ave,41.89,-87.7,21,18,0,0,21,18,15,1.4,1.2,0.0,0.0,1.4,1.2
4,2023,13247,Ashland Ave & Chicago Ave,41.89595583333333,-87.66772366666666,276,274,218,210,494,484,30,9.2,9.13,7.27,7.0,16.47,16.13
4,2023,TA1306000015,Sangamon St & Lake St,41.88577925240433,-87.65102460980414,625,629,424,525,1049,1154,30,20.83,20.97,14.13,17.5,34.97,38.47
4,2023,15650,Spaulding Ave & Armitage Ave,41.917135477,-87.71023953,261,274,140,163,401,437,30,8.7,9.13,4.67,5.43,13.37,14.57
4,2023,TA1307000163,Clifton Ave & Armitage Ave,41.91819266666667,-87.65706733333333,317,325,406,434,723,759,30,10.57,10.83,13.53,14.47,24.1,25.3
4,2023,644,Western Ave & Fillmore St,41.8685975,-87.6862525,295,294,114,146,409,440,30,9.83,9.8,3.8,4.87,13.63,14.67
4,2023,E008,Chicago Ave & Sheridan Rd,42.050491,-87.677821,207,200,266,259,473,459,30,6.9,6.67,8.87,8.63,15.77,15.3
4,2023,432,Sacramento Blvd & Addison St,41.95,-87.7,57,41,0,0,57,41,25,2.28,1.64,0.0,0.0,2.28,1.64
4,2023,KA1503000068,Leavitt St & Archer Ave,41.82879201994,-87.6806044594,40,38,31,25,71,63,28,1.43,1.36,1.11,0.89,2.54,2.25
4,2023,546,Damen Ave & Pershing Rd,41.823193073,-87.6765939,15,19,18,13,33,32,24,0.62,0.79,0.75,0.54,1.38,1.33
4,2023,15542,Clinton St & Polk St,41.871360898,-87.64098227,34,36,19,26,53,62,27,1.26,1.33,0.7,0.96,1.96,2.3
4,2023,641,Public Rack - Loomis St & 87th St,41.74,-87.66,17,17,0,0,17,17,20,0.85,0.85,0.0,0.0,0.85,0.85
4,2023,20236,Stony Island Ave & 90th St,41.73139494330236,-87.58574366569519,0,0,6,1,6,1,6,0.0,0.0,1.0,0.17,1.0,0.17
4,2023,316,Lamon Ave & Belmont Ave,41.94,-87.75,48,44,0,0,48,44,22,2.18,2.0,0.0,0.0,2.18,2.0
4,2023,15624,Avondale Ave & Irving Park Rd,41.953393,-87.732002,137,138,72,53,209,191,31,4.42,4.45,2.32,1.71,6.74,6.16
4,2023,TA1309000064,Wolcott Ave & Polk St,41.871262,-87.673688,512,475,480,461,992,936,30,17.07,15.83,16.0,15.37,33.07,31.2
4,2023,527,Western Ave & Howard St,42.018901,-87.690048,23,25,63,55,86,80,30,0.77,0.83,2.1,1.83,2.87,2.67
4,2023,13059,Sheridan Rd & Argyle St,41.97328682025979,-87.65475958585739,294,294,263,275,557,569,30,9.8,9.8,8.77,9.17,18.57,18.97
4,2023,KA1503000038,Shields Ave & 31st St,41.83843616666667,-87.63529283333334,199,205,147,142,346,347,30,6.63,6.83,4.9,4.73,11.53,11.57
4,2023,TA1309000007,Franklin St & Monroe St,41.8803535,-87.63568183333334,706,709,362,379,1068,1088,30,23.53,23.63,12.07,12.63,35.6,36.27
4,2023,TA1305000029,State St & Randolph St,41.88462107257936,-87.62783423066139,554,553,598,599,1152,1152,30,18.47,18.43,19.93,19.97,38.4,38.4
4,2023,KA1504000129,Western Ave & Granville Ave,41.99416136902,-87.689438282,63,60,46,62,109,122,30,2.1,2.0,1.53,2.07,3.63,4.07
4,2023,13229,Southport Ave & Belmont Ave,41.939415336,-87.663727641,471,443,436,413,907,856,30,15.7,14.77,14.53,13.77,30.23,28.53
4,2023,518,Public Rack - Keystone Ave & North Ave,41.91,-87.73,47,42,19,18,66,60,25,1.88,1.68,0.76,0.72,2.64,2.4
4,2023,569,Woodlawn Ave & 75th St,41.75916,-87.595751,2,2,10,4,12,6,14,0.14,0.14,0.71,0.29,0.86,0.43
4,2023,586,MLK Jr Dr & 83rd St,41.743116,-87.6148,6,3,4,1,10,4,10,0.6,0.3,0.4,0.1,1.0,0.4
4,2023,TA1309000002,Michigan Ave & Jackson Blvd,41.87785,-87.62408,358,332,511,523,869,855,30,11.93,11.07,17.03,17.43,28.97,28.5
4,2023,815,Public Rack - Forrestville Ave & 47th St,41.81,-87.61,1,1,0,0,1,1,1,1.0,1.0,0.0,0.0,1.0,1.0
4,2023,562,Racine Ave & 61st St,41.78316766666666,-87.65433066666667,4,3,1,3,5,6,8,0.5,0.38,0.12,0.38,0.62,0.75
4,2023,KA1504000091,Hoyne Ave & 47th St,41.808237791,-87.677187681,10,8,22,28,32,36,25,0.4,0.32,0.88,1.12,1.28,1.44
4,2023,KA1504000134,Ritchie Ct & Banks St,41.906866,-87.626217,466,453,328,330,794,783,29,16.07,15.62,11.31,11.38,27.38,27.0
4,2023,TA1309000043,Southport Ave & Irving Park Rd,41.954177,-87.664358,283,288,304,285,587,573,30,9.43,9.6,10.13,9.5,19.57,19.1
4,2023,TA1309000033,Sheffield Ave & Webster Ave,41.921734452,-87.653862,713,728,601,634,1314,1362,30,23.77,24.27,20.03,21.13,43.8,45.4
4,2023,15644,Central Park Ave & Elbridge Ave,41.93533728263,-87.7168892935,170,176,67,72,237,248,30,5.67,5.87,2.23,2.4,7.9,8.27
4,2023,RP-007,Clark St & Touhy Ave,42.01256011541,-87.6743671152,19,17,39,18,58,35,28,0.68,0.61,1.39,0.64,2.07,1.25
4,2023,SL-010,Financial Pl & Ida B Wells Dr,41.8750236280333,-87.6330940425396,363,285,409,298,772,583,30,12.1,9.5,13.63,9.93,25.73,19.43
4,2023,438,Western Ave & Berteau Ave,41.96,-87.69,84,79,0,0,84,79,26,3.23,3.04,0.0,0.0,3.23,3.04
4,2023,18022,Archer (Damen) Ave & 37th St,41.826712,-87.683144,12,12,20,20,32,32,23,0.52,0.52,0.87,0.87,1.39,1.39
4,2023,575,Cottage Grove Ave & 78th St,41.753176833333335,-87.604992,3,0,1,2,4,2,5,0.6,0.0,0.2,0.4,0.8,0.4
4,2023,KA1503000001,Shields Ave & 43rd St,41.816217184,-87.634756565,6,8,5,16,11,24,24,0.25,0.33,0.21,0.67,0.46,1.0
4,2023,TA1307000130,Morgan St & Polk St,41.871737,-87.65103,986,985,748,793,1734,1778,30,32.87,32.83,24.93,26.43,57.8,59.27
4,2023,20257.0,N Southport Ave & W Newport Ave,41.94,-87.66,98,87,0,0,98,87,29,3.38,3.0,0.0,0.0,3.38,3.0
4,2023,1011,Public Rack - Fullerton Ave & Narragansett Ave,41.92,-87.79,7,8,0,0,7,8,8,0.88,1.0,0.0,0.0,0.88,1.0
4,2023,999,Public Rack - Champlain Ave & 65th St,41.78,-87.61,22,21,0,0,22,21,21,1.05,1.0,0.0,0.0,1.05,1.0
4,2023,583,Stony Island Ave & 82nd St,41.746559,-87.586005,2,3,3,3,5,6,9,0.22,0.33,0.33,0.33,0.56,0.67
4,2023,948,Public Rack - South Shore Dr & 71st St,41.77,-87.56,10,13,0,0,10,13,13,0.77,1.0,0.0,0.0,0.77,1.0
4,2023,16991,Milwaukee Ave & Cuyler Ave,41.954455376,-87.749449134,42,45,23,28,65,73,28,1.5,1.61,0.82,1.0,2.32,2.61
4,2023,20223,Ewing Ave & Burnham Greenway,41.712749,-87.534814,59,3,2,2,61,5,10,5.9,0.3,0.2,0.2,6.1,0.5
4,2023,652,Rhodes Ave & 71st St,41.766,-87.611726,0,0,1,2,1,2,2,0.0,0.0,0.5,1.0,0.5,1.0
4,2023,15685,Central Park Ave & Ogden Ave,41.854063503874464,-87.71511733531952,26,24,14,12,40,36,24,1.08,1.0,0.58,0.5,1.67,1.5
4,2023,20112,Indiana Ave & 103rd St,41.70697,-87.61871783333333,7,3,4,4,11,7,9,0.78,0.33,0.44,0.44,1.22,0.78
4,2023,443,California Ave & Winona St,41.97,-87.7,50,47,0,0,50,47,24,2.08,1.96,0.0,0.0,2.08,1.96
4,2023,390,Public Rack - California Ave & Marquette Rd,41.77,-87.69,5,7,0,0,5,7,7,0.71,1.0,0.0,0.0,0.71,1.0
4,2023,434,Albany Ave & Belmont Ave,41.94,-87.71,35,35,0,0,35,35,23,1.52,1.52,0.0,0.0,1.52,1.52
4,2023,382,Kedzie Ave & 48th Pl,41.8,-87.7,74,56,0,0,74,56,28,2.64,2.0,0.0,0.0,2.64,2.0
4,2023,TA1309000066,Ravenswood Ave & Lawrence Ave,41.969239235,-87.67426765,785,789,551,547,1336,1336,30,26.17,26.3,18.37,18.23,44.53,44.53
4,2023,TA1308000022,Pine Grove Ave & Irving Park Rd,41.954619,-87.64810383333334,568,563,625,619,1193,1182,30,18.93,18.77,20.83,20.63,39.77,39.4
4,2023,KA1503000059,Lake Park Ave & 53rd St,41.79949429373,-87.5864498959,168,171,299,334,467,505,30,5.6,5.7,9.97,11.13,15.57,16.83
4,2023,473,Mason Ave & Belmont Ave,41.94,-87.77,17,10,0,0,17,10,13,1.31,0.77,0.0,0.0,1.31,0.77
4,2023,TA1309000036,Burling St & Diversey Pkwy,41.93314,-87.64776,474,481,478,566,952,1047,30,15.8,16.03,15.93,18.87,31.73,34.9
4,2023,572,State St & 76th St,41.757032514,-87.624596953,5,4,0,3,5,7,8,0.62,0.5,0.0,0.38,0.62,0.88
4,2023,TA1307000158,Damen Ave & Leland Ave,41.967090368,-87.679073691,265,268,221,175,486,443,30,8.83,8.93,7.37,5.83,16.2,14.77
4,2023,643,Smith Park,41.892017007,-87.689408183,76,70,61,80,137,150,29,2.62,2.41,2.1,2.76,4.72,5.17
4,2023,23002,Lincoln Ave & Byron St,41.95,-87.68,57,57,71,55,128,112,19,3.0,3.0,3.74,2.89,6.74,5.89
4,2023,KA1504000104,Paulina St & Flournoy St,41.873016715,-87.668992281,413,385,371,328,784,713,30,13.77,12.83,12.37,10.93,26.13,23.77
4,2023,693,Public Rack - Walden Pkwy & 103rd St,41.71,-87.67,21,28,0,0,21,28,19,1.11,1.47,0.0,0.0,1.11,1.47
4,2023,557,Seeley Ave & Garfield Blvd,41.794155717,-87.67541492,7,5,0,2,7,7,9,0.78,0.56,0.0,0.22,0.78,0.78
4,2023,13016,St. Clair St & Erie St,41.894403458,-87.622978091,761,745,708,771,1469,1516,30,25.37,24.83,23.6,25.7,48.97,50.53
4,2023,13258,California Ave & North Ave,41.9104754,-87.6968944,196,195,129,132,325,327,30,6.53,6.5,4.3,4.4,10.83,10.9
4,2023,13235,Southport Ave & Waveland Ave,41.94815,-87.66394,737,736,696,725,1433,1461,30,24.57,24.53,23.2,24.17,47.77,48.7
4,2023,KA1503000072,Wacker Dr & Washington St,41.883143,-87.637242,494,488,336,333,830,821,30,16.47,16.27,11.2,11.1,27.67,27.37
4,2023,KP1705001026,LaSalle Dr & Huron St,41.894742,-87.632438,344,327,373,373,717,700,30,11.47,10.9,12.43,12.43,23.9,23.33
4,2023,KA1503000027,Prairie Ave & 43rd St,41.816659,-87.619412,44,43,27,28,71,71,29,1.52,1.48,0.93,0.97,2.45,2.45
4,2023,KA1503000071,University Ave & 57th St,41.79150216666667,-87.60008683333334,1014,975,2026,2025,3040,3000,30,33.8,32.5,67.53,67.5,101.33,100.0
4,2023,KA1504000162,Clark St & Lunt Ave,42.009078,-87.67424133333333,176,174,120,103,296,277,30,5.87,5.8,4.0,3.43,9.87,9.23
4,2023,13409,Sangamon St & Washington Blvd,41.883165,-87.6511,355,350,280,304,635,654,30,11.83,11.67,9.33,10.13,21.17,21.8
4,2023,TA1307000131,Wabash Ave & Wacker Pl,41.88701916666667,-87.6263325,425,408,463,500,888,908,30,14.17,13.6,15.43,16.67,29.6,30.27
4,2023,15541,Buckingham Fountain,41.876423,-87.620339,220,161,446,288,666,449,30,7.33,5.37,14.87,9.6,22.2,14.97
4,2023,13197,Elizabeth St & Fulton St,41.88671077318443,-87.65965729951859,336,319,173,182,509,501,30,11.2,10.63,5.77,6.07,16.97,16.7
4,2023,13109,Broadway & Berwyn Ave,41.978354454,-87.659741998,238,241,325,308,563,549,30,7.93,8.03,10.83,10.27,18.77,18.3
4,2023,13278,Broadway & Cornelia Ave,41.945529,-87.646439,697,682,799,736,1496,1418,30,23.23,22.73,26.63,24.53,49.87,47.27
4,2023,TA1309000015,Leavitt St & Lawrence Ave,41.968885,-87.684001,101,101,114,88,215,189,30,3.37,3.37,3.8,2.93,7.17,6.3
4,2023,15652,Central Park Ave & North Ave,41.90965687563,-87.7166319516,35,33,48,52,83,85,29,1.21,1.14,1.66,1.79,2.86,2.93
4,2023,475,Whipple/Irving Park,41.95,-87.7,63,46,0,0,63,46,26,2.42,1.77,0.0,0.0,2.42,1.77
4,2023,18016,Bernard St & Elston Ave,41.949923,-87.713949,121,120,46,47,167,167,30,4.03,4.0,1.53,1.57,5.57,5.57
4,2023,304,Lavergne Ave & Division St,41.9,-87.75,3,1,0,0,3,1,3,1.0,0.33,0.0,0.0,1.0,0.33
4,2023,528,Pulaski Rd & Lake St,41.885409,-87.726491,10,9,6,3,16,12,17,0.59,0.53,0.35,0.18,0.94,0.71
4,2023,487,Public Rack - California Ave & Devon Ave - NE,42.0,-87.7,4,4,0,0,4,4,5,0.8,0.8,0.0,0.0,0.8,0.8
4,2023,KA1503000032,Union Ave & Root St,41.819102,-87.643278,8,10,10,13,18,23,18,0.44,0.56,0.56,0.72,1.0,1.28
4,2023,549,Marshfield Ave & 44th St,41.81402116666667,-87.66662783333334,15,13,5,9,20,22,19,0.79,0.68,0.26,0.47,1.05,1.16
4,2023,20111,Olive Harvey College,41.709556,-87.59018916666666,5,7,0,0,5,7,8,0.62,0.88,0.0,0.0,0.62,0.88
4,2023,TA1306000014,Wilton Ave & Diversey Pkwy,41.932418,-87.652705,738,711,571,514,1309,1225,30,24.6,23.7,19.03,17.13,43.63,40.83
4,2023,13124,Cannon Dr & Fullerton Ave,41.9267559875,-87.6344287848,148,146,224,269,372,415,29,5.1,5.03,7.72,9.28,12.83,14.31
4,2023,862,Public Rack - Milwaukee Ave & Waveland Ave,41.95,-87.74,1,1,0,0,1,1,1,1.0,1.0,0.0,0.0,1.0,1.0
4,2023,466,California Ave & 29th St,41.84,-87.69,6,3,0,0,6,3,3,2.0,1.0,0.0,0.0,2.0,1.0
4,2023,TA1307000119,Clarendon Ave & Leland Ave,41.967932701,-87.650319219,320,324,171,170,491,494,30,10.67,10.8,5.7,5.67,16.37,16.47
4,2023,TA1305000002,Wabash Ave & Roosevelt Rd,41.867227,-87.625961,755,758,670,762,1425,1520,30,25.17,25.27,22.33,25.4,47.5,50.67
4,2023,13053,Green St & Washington Blvd,41.88318130597391,-87.64872461557388,427,401,276,270,703,671,30,14.23,13.37,9.2,9.0,23.43,22.37
4,2023,977,Public Rack - Halsted St & 109th St,41.7,-87.64,1,1,0,0,1,1,2,0.5,0.5,0.0,0.0,0.5,0.5
4,2023,E011,Dodge Ave & Main St,42.03463185161588,-87.69918769598006,19,21,30,30,49,51,27,0.7,0.78,1.11,1.11,1.81,1.89
4,2023,13379,Clarendon Ave & Gordon Ter,41.95786652415174,-87.64950513839722,594,591,540,555,1134,1146,30,19.8,19.7,18.0,18.5,37.8,38.2
4,2023,KA1503000055,Halsted St & 63rd St,41.77938114228,-87.6446208145,11,12,8,4,19,16,15,0.73,0.8,0.53,0.27,1.27,1.07
4,2023,TA1308000050,Wells St & Concord Ln,41.912133,-87.634656,1360,1354,1130,1182,2490,2536,30,45.33,45.13,37.67,39.4,83.0,84.53
4,2023,TA1309000049,DuSable Lake Shore Dr & Belmont Ave,41.940766573,-87.639199615,700,691,741,768,1441,1459,30,23.33,23.03,24.7,25.6,48.03,48.63
4,2023,20207,Major Taylor Trail & 115th St,41.68499732,-87.645354867,17,12,3,3,20,15,16,1.06,0.75,0.19,0.19,1.25,0.94
4,2023,900,Public Rack - Western Ave & 118th St,41.68,-87.68,5,7,0,0,5,7,7,0.71,1.0,0.0,0.0,0.71,1.0
4,2023,460,Francisco Ave & Hollywood Ave,41.98,-87.7,7,6,0,0,7,6,8,0.88,0.75,0.0,0.0,0.88,0.75
4,2023,KA1504000158,Oakley Ave & Irving Park Rd,41.954308,-87.68605166666667,99,98,86,105,185,203,30,3.3,3.27,2.87,3.5,6.17,6.77
4,2023,16937,Ashland Ave & McDowell Ave,41.808875084,-87.664467454,15,11,30,24,45,35,26,0.58,0.42,1.15,0.92,1.73,1.35
4,2023,TA1309000030,Southport Ave & Clybourn Ave,41.920771,-87.663712,312,319,264,367,576,686,30,10.4,10.63,8.8,12.23,19.2,22.87
4,2023,654,Racine Ave & Washington Blvd,41.883073,-87.656952,221,224,174,169,395,393,30,7.37,7.47,5.8,5.63,13.17,13.1
4,2023,RP-005,Western Ave & Lunt Ave,42.0085943972,-87.6904922389,70,72,47,49,117,121,30,2.33,2.4,1.57,1.63,3.9,4.03
4,2023,378,Nordica & Medill,41.92,-87.8,15,10,0,0,15,10,10,1.5,1.0,0.0,0.0,1.5,1.0
4,2023,KA1504000114,Kedzie Ave & Chicago Ave,41.8955025,-87.70618433333334,28,26,22,31,50,57,28,1.0,0.93,0.79,1.11,1.79,2.04
4,2023,480,Public Rack - Rockwell Ave & Touhy Ave ,42.01,-87.7,10,11,0,0,10,11,14,0.71,0.79,0.0,0.0,0.71,0.79
4,2023,KA1504000093,Rockwell St & Eastwood Ave,41.96590013976,-87.6936384935,166,169,135,130,301,299,30,5.53,5.63,4.5,4.33,10.03,9.97
4,2023,TA1309000032,Elston Ave & Wabansia Ave,41.91303033333333,-87.66414683333333,81,84,110,119,191,203,30,2.7,2.8,3.67,3.97,6.37,6.77
4,2023,389,Maplewood Ave & 59th St,41.79,-87.69,21,15,0,0,21,15,9,2.33,1.67,0.0,0.0,2.33,1.67
4,2023,814,Public Rack - Prairie Ave & 47th St ,41.81,-87.62,9,11,0,0,9,11,13,0.69,0.85,0.0,0.0,0.69,0.85
4,2023,20128,S Wentworth Ave & W 111th St,41.69,-87.63,9,4,0,0,9,4,8,1.12,0.5,0.0,0.0,1.12,0.5
4,2023,KA1503000005,Wentworth Ave & 35th St,41.83089304,-87.632466078,78,76,70,64,148,140,30,2.6,2.53,2.33,2.13,4.93,4.67
4,2023,13165,Racine Ave & 13th St,41.865054,-87.656959,62,59,40,32,102,91,30,2.07,1.97,1.33,1.07,3.4,3.03
4,2023,20256.0,N Sheffield Ave & W Wellington Ave,41.94,-87.65,161,145,0,0,161,145,28,5.75,5.18,0.0,0.0,5.75,5.18
4,2023,TA1308000036,Indiana Ave & 31st St,41.83874483333334,-87.62183,172,171,209,214,381,385,30,5.73,5.7,6.97,7.13,12.7,12.83
4,2023,20251.0,N Carpenter St & W Lake St,41.89,-87.65,196,171,0,0,196,171,29,6.76,5.9,0.0,0.0,6.76,5.9
4,2023,660,Sheridan Rd & Columbia Ave,42.004580617,-87.66151464000001,135,131,128,175,263,306,30,4.5,4.37,4.27,5.83,8.77,10.2
4,2023,322,Cicero Ave & Grace St,41.95,-87.75,13,7,0,0,13,7,14,0.93,0.5,0.0,0.0,0.93,0.5
4,2023,20108,Hale Ave & 107th St,41.699281454,-87.668852925,6,5,2,4,8,9,19,0.32,0.26,0.11,0.21,0.42,0.47
4,2023,821,Public Rack - Western Blvd & 49th St,41.8,-87.68,24,25,0,0,24,25,19,1.26,1.32,0.0,0.0,1.26,1.32
4,2023,991,Public Rack - Western Ave & 96th St,41.72,-87.68,1,1,0,0,1,1,2,0.5,0.5,0.0,0.0,0.5,0.5
4,2023,392,Homan Ave & 65th St,41.78,-87.71,11,7,0,0,11,7,12,0.92,0.58,0.0,0.0,0.92,0.58
4,2023,442,Lincoln Ave & Balmoral Ave,41.98,-87.69,35,35,0,0,35,35,26,1.35,1.35,0.0,0.0,1.35,1.35
4,2023,KA1504000155,2112 W Peterson Ave,41.991178,-87.683593,37,33,27,27,64,60,27,1.37,1.22,1.0,1.0,2.37,2.22
4,2023,385,St Louis Ave & Norman Bobbins Ave,41.79,-87.71,26,14,0,0,26,14,12,2.17,1.17,0.0,0.0,2.17,1.17
4,2023,15692,California Ave & 26th St,41.843721032,-87.694931388,18,15,3,4,21,19,17,1.06,0.88,0.18,0.24,1.24,1.12
4,2023,530,Laramie Ave & Kinzie St,41.887835145,-87.755654693,15,14,2,2,17,16,17,0.88,0.82,0.12,0.12,1.0,0.94
4,2023,767,Public Rack - Hyde Park Blvd & 53rd St,41.8,-87.58,2,2,0,0,2,2,3,0.67,0.67,0.0,0.0,0.67,0.67
4,2023,488,Public Rack - McCormick Blvd & Devon Ave,42.0,-87.71,5,5,0,0,5,5,4,1.25,1.25,0.0,0.0,1.25,1.25
4,2023,321,Kostner Ave & Wrightwood Ave,41.93,-87.74,50,32,0,0,50,32,25,2.0,1.28,0.0,0.0,2.0,1.28
4,2023,571,Vernon Ave & 75th St,41.758335233,-87.614132762,8,5,0,8,8,13,17,0.47,0.29,0.0,0.47,0.47,0.76
4,2023,699,Public Rack - Cottage Grove Ave & 98th St,41.72,-87.6,1,2,0,0,1,2,2,0.5,1.0,0.0,0.0,0.5,1.0
4,2023,314,Narragansett & Wrightwood,41.93,-87.79,71,47,0,0,71,47,26,2.73,1.81,0.0,0.0,2.73,1.81
4,2023,902,Public Rack - Hoyne Ave & 110th Pl,41.69,-87.67,11,16,0,0,11,16,14,0.79,1.14,0.0,0.0,0.79,1.14
4,2023,376,Menard Ave & North Ave,41.91,-87.77,11,6,0,0,11,6,9,1.22,0.67,0.0,0.0,1.22,0.67
4,2023,677,Public Rack - Rockwell & 111th St,41.69,-87.69,6,7,0,0,6,7,7,0.86,1.0,0.0,0.0,0.86,1.0
4,2023,387,St Louis Ave & 59th St,41.79,-87.71,13,13,0,0,13,13,14,0.93,0.93,0.0,0.0,0.93,0.93
4,2023,772,Public Rack - Kedzie Ave & 61st Pl E,41.78,-87.7,5,5,0,0,5,5,7,0.71,0.71,0.0,0.0,0.71,0.71
4,2023,20240,Indiana Ave & 133rd St,41.65,-87.62,6,4,0,0,6,4,5,1.2,0.8,0.0,0.0,1.2,0.8
4,2023,627,Public Rack - Halsted St & 95th St - SE,41.72,-87.64,12,2,0,0,12,2,8,1.5,0.25,0.0,0.0,1.5,0.25
4,2023,309,Narragansett & McLean,41.92,-87.79,4,3,0,0,4,3,4,1.0,0.75,0.0,0.0,1.0,0.75
4,2023,344,Springfield Ave & 47th St,41.81,-87.72,11,8,0,0,11,8,11,1.0,0.73,0.0,0.0,1.0,0.73
4,2023,16994,Kilbourn Ave & Milwaukee Ave,41.94716833333333,-87.739939,17,13,10,24,27,37,23,0.74,0.57,0.43,1.04,1.17,1.61
4,2023,485,Public Rack - Sacramento Ave & Devon Ave,42.0,-87.7,6,5,0,0,6,5,9,0.67,0.56,0.0,0.0,0.67,0.56
4,2023,401,Kildare Ave & 47th St,41.81,-87.73,19,12,0,0,19,12,17,1.12,0.71,0.0,0.0,1.12,0.71
4,2023,20231,East End Ave & 87th St,41.73681521440671,-87.58280128240585,1,1,4,6,5,7,7,0.14,0.14,0.57,0.86,0.71,1.0
4,2023,Hubbard Bike-checking (LBS-WH-TEST),Base - 2132 W Hubbard,41.88996749470834,-87.6801560819149,1,5,2,6,3,11,10,0.1,0.5,0.2,0.6,0.3,1.1
4,2023,501,Public Rack - Milwaukee Ave & School St,41.94,-87.73,13,14,0,0,13,14,15,0.87,0.93,0.0,0.0,0.87,0.93
4,2023,753,Public Rack - Jeffery Blvd & 67th St,41.77,-87.58,1,0,0,0,1,0,1,1.0,0.0,0.0,0.0,1.0,0.0
4,2023,417,Troy St & Jackson Blvd,41.88,-87.7,5,8,0,0,5,8,8,0.62,1.0,0.0,0.0,0.62,1.0
4,2023,339,Sacramento Ave & Pershing Rd,41.82,-87.7,11,9,0,0,11,9,10,1.1,0.9,0.0,0.0,1.1,0.9
4,2023,20203,Lawndale Ave & 111th St,41.69131919221066,-87.71288573741913,15,11,6,5,21,16,11,1.36,1.0,0.55,0.45,1.91,1.45
4,2023,20124,Vincennes Ave & 104th St,41.70492556499764,-87.65686810958869,8,3,3,1,11,4,11,0.73,0.27,0.27,0.09,1.0,0.36
4,2023,345,Artesian Ave & 55th St,41.79,-87.69,23,15,0,0,23,15,18,1.28,0.83,0.0,0.0,1.28,0.83
4,2023,422,Albany Ave & 16th St,41.86,-87.7,2,1,0,0,2,1,2,1.0,0.5,0.0,0.0,1.0,0.5
4,2023,KA1504000082,Kedzie Ave & Harrison St,41.87359967462,-87.7048707493,10,3,5,4,15,7,11,0.91,0.27,0.45,0.36,1.36,0.64
4,2023,933,Public Rack - Drake Ave & Leland Ave,41.97,-87.72,1,1,0,0,1,1,2,0.5,0.5,0.0,0.0,0.5,0.5
4,2023,18058,Leavitt St & Chicago Ave,41.895403147,-87.681892276,240,237,139,139,379,376,30,8.0,7.9,4.63,4.63,12.63,12.53
4,2023,TA1309000027,Sheridan Rd & Buena Ave,41.958494,-87.654966,386,375,490,424,876,799,30,12.87,12.5,16.33,14.13,29.2,26.63
4,2023,SL-012,Wabash Ave & 16th St,41.860384,-87.625813,262,252,354,315,616,567,30,8.73,8.4,11.8,10.5,20.53,18.9
4,2023,KA1503000033,Eberhart Ave & 61st St,41.784071072761,-87.61448353528975,10,12,17,30,27,42,25,0.4,0.48,0.68,1.2,1.08,1.68
4,2023,20229,Baltimore Ave & 87th St,41.73733560041666,-87.54851460456847,1,2,7,8,8,10,8,0.12,0.25,0.88,1.0,1.0,1.25
4,2023,334.0,Lawndale Ave & 30th St,41.84,-87.72,11,11,0,0,11,11,17,0.65,0.65,0.0,0.0,0.65,0.65
4,2023,429,Francisco Ave & Bloomingdale Ave,41.91,-87.7,42,41,0,0,42,41,26,1.62,1.58,0.0,0.0,1.62,1.58
4,2023,950,Public Rack - Woodlawn Ave & 63rd St S,41.78,-87.6,2,1,0,0,2,1,3,0.67,0.33,0.0,0.0,0.67,0.33
4,2023,TA1307000001,Greenview Ave & Fullerton Ave,41.92533,-87.6658,552,554,359,399,911,953,30,18.4,18.47,11.97,13.3,30.37,31.77
4,2023,KA1503000009,Princeton Ave & 47th St,41.809376001,-87.633484483,22,23,20,11,42,34,28,0.79,0.82,0.71,0.39,1.5,1.21
4,2023,592,Knox Ave & Montrose Ave,41.960669518,-87.745399714,79,80,43,42,122,122,30,2.63,2.67,1.43,1.4,4.07,4.07
4,2023,632,Clark St & Newport St,41.94454,-87.654678,1035,1017,699,710,1734,1727,30,34.5,33.9,23.3,23.67,57.8,57.57
4,2023,352,Sayre & Diversey,41.93,-87.8,48,36,0,0,48,36,29,1.66,1.24,0.0,0.0,1.66,1.24
4,2023,932,Public Rack - Jensen Park,41.96,-87.72,4,4,0,0,4,4,8,0.5,0.5,0.0,0.0,0.5,0.5
4,2023,KA1503000003,Cottage Grove Ave & 71st St,41.765729666666665,-87.605079,1,1,4,3,5,4,6,0.17,0.17,0.67,0.5,0.83,0.67
4,2023,500,Public Rack - Monticello Ave & Belmont Ave,41.94,-87.72,18,20,0,0,18,20,19,0.95,1.05,0.0,0.0,0.95,1.05
4,2023,20254.0,W Armitage Ave & N Sheffield Ave,41.92,-87.65,281,263,0,0,281,263,30,9.37,8.77,0.0,0.0,9.37,8.77
4,2023,13143,Damen Ave & Melrose Ave,41.9406,-87.6785,141,140,111,126,252,266,30,4.7,4.67,3.7,4.2,8.4,8.87
4,2023,KA1504000149,Damen Ave & Foster Ave,41.975697875,-87.679511189,227,235,98,116,325,351,30,7.57,7.83,3.27,3.87,10.83,11.7
4,2023,642,Latrobe Ave & Chicago Ave,41.894785523,-87.756897807,9,9,2,3,11,12,14,0.64,0.64,0.14,0.21,0.79,0.86
4,2023,506,Public Rack - Lawndale Ave & Diversey Ave,41.93,-87.72,22,25,0,0,22,25,19,1.16,1.32,0.0,0.0,1.16,1.32
4,2023,548,Public Rack - Cicero Ave & Altgeld St,41.93,-87.75,2,3,0,0,2,3,3,0.67,1.0,0.0,0.0,0.67,1.0
4,2023,624,Dearborn St & Van Buren St,41.876268,-87.629155,217,221,220,220,437,441,30,7.23,7.37,7.33,7.33,14.57,14.7
4,2023,TA1305000010,Michigan Ave & Ida B Wells Dr,41.87607666666667,-87.62445383333333,181,177,268,223,449,400,30,6.03,5.9,8.93,7.43,14.97,13.33
4,2023,20228,Constance Ave & 95th St,41.722291,-87.578968,0,0,4,2,4,2,4,0.0,0.0,1.0,0.5,1.0,0.5
4,2023,573,State St & 79th St,41.750788689,-87.624504685,7,8,16,9,23,17,19,0.37,0.42,0.84,0.47,1.21,0.89
4,2023,318,Oak Park & Wellington,41.93,-87.8,19,16,0,0,19,16,13,1.46,1.23,0.0,0.0,1.46,1.23
4,2023,662,Dodge Ave & Mulford St,42.023463,-87.699595,31,38,21,37,52,75,29,1.07,1.31,0.72,1.28,1.79,2.59
4,2023,13056,Canal St & Monroe St,41.88169,-87.63953,694,699,432,425,1126,1124,30,23.13,23.3,14.4,14.17,37.53,37.47
4,2023,TA1307000138,Wood St & Webster Ave,41.92105383333333,-87.67280183333334,131,128,100,94,231,222,30,4.37,4.27,3.33,3.13,7.7,7.4
4,2023,799,Public Rack - Newcastle Ave & Belden Ave,41.92,-87.8,4,3,0,0,4,3,2,2.0,1.5,0.0,0.0,2.0,1.5
4,2023,931,Public Rack - Western Ave & Devon Ave,42.0,-87.69,18,19,0,0,18,19,18,1.0,1.06,0.0,0.0,1.0,1.06
4,2023,KA1503000021,Stony Island Ave & 64th St,41.778881,-87.586647,3,4,15,13,18,17,13,0.23,0.31,1.15,1.0,1.38,1.31
4,2023,856,Public Rack - Sawyer Ave & Bryn Mawr Ave - SW,41.98,-87.71,1,2,0,0,1,2,3,0.33,0.67,0.0,0.0,0.33,0.67
4,2023,13193,Larrabee St & Webster Ave,41.921822,-87.64414,792,779,703,783,1495,1562,30,26.4,25.97,23.43,26.1,49.83,52.07
4,2023,757,Public Rack - Kedzie Ave & 63rd St,41.78,-87.7,2,0,0,0,2,0,2,1.0,0.0,0.0,0.0,1.0,0.0
4,2023,756,Public Rack - Albany Ave & 63rd St,41.78,-87.7,5,6,0,0,5,6,6,0.83,1.0,0.0,0.0,0.83,1.0
4,2023,364.0,Homan Ave & Fillmore St,41.87,-87.71,10,9,0,0,10,9,11,0.91,0.82,0.0,0.0,0.91,0.82
4,2023,TA1307000134,Wilton Ave & Belmont Ave,41.940231918108594,-87.65294373035431,1058,1059,932,953,1990,2012,30,35.27,35.3,31.07,31.77,66.33,67.07
4,2023,13033,Milwaukee Ave & Grand Ave,41.891524553,-87.648307085,702,643,578,462,1280,1105,30,23.4,21.43,19.27,15.4,42.67,36.83
4,2023,523,Eastlake Ter & Howard St,42.019199371,-87.664285183,86,81,79,74,165,155,30,2.87,2.7,2.63,2.47,5.5,5.17
4,2023,KA1504000110,Millard Ave & 26th St,41.84455616666666,-87.71591066666667,14,17,12,12,26,29,23,0.61,0.74,0.52,0.52,1.13,1.26
4,2023,15664,Artesian Ave & Hubbard St,41.8895,-87.688257,218,180,132,111,350,291,30,7.27,6.0,4.4,3.7,11.67,9.7
4,2023,TA1307000164,Woodlawn Ave & 55th St,41.795264,-87.596471,325,286,623,548,948,834,30,10.83,9.53,20.77,18.27,31.6,27.8
4,2023,20133,Woodlawn & 103rd - Olive Harvey Vaccination Site,41.71,-87.59,8,2,0,0,8,2,9,0.89,0.22,0.0,0.0,0.89,0.22
4,2023,536,Kostner Ave & Lake St,41.885928,-87.73541,7,1,6,4,13,5,14,0.5,0.07,0.43,0.29,0.93,0.36
4,2023,489,Public Rack - Spaulding Ave & Bryn Mawr Ave,41.98,-87.71,7,8,0,0,7,8,8,0.88,1.0,0.0,0.0,0.88,1.0
4,2023,20206,Homewood Ave & 115th St,41.684645891,-87.670831084,10,8,4,6,14,14,12,0.83,0.67,0.33,0.5,1.17,1.17
4,2023,20225,Commercial Ave & 100th St,41.71331739547703,-87.55109757184982,0,0,1,1,1,1,1,0.0,0.0,1.0,1.0,1.0,1.0
4,2023,E007,Central St & Girard Ave,42.064313,-87.686152,26,26,49,51,75,77,30,0.87,0.87,1.63,1.7,2.5,2.57
4,2023,13196,Carpenter St & Huron St,41.894612789,-87.653437972,557,481,430,353,987,834,30,18.57,16.03,14.33,11.77,32.9,27.8
4,2023,TA1305000032,Clinton St & Madison St,41.882751965685614,-87.64119029045105,1085,1069,819,857,1904,1926,30,36.17,35.63,27.3,28.57,63.47,64.2
4,2023,TA1308000009,Shore Dr & 55th St,41.795212,-87.580715,268,258,619,598,887,856,30,8.93,8.6,20.63,19.93,29.57,28.53
4,2023,13300,DuSable Lake Shore Dr & Monroe St,41.880958,-87.616743,823,726,1692,1580,2515,2306,30,27.43,24.2,56.4,52.67,83.83,76.87
4,2023,15445,Wentworth Ave & 33rd St,41.83452988563,-87.6318229814,193,197,129,144,322,341,30,6.43,6.57,4.3,4.8,10.73,11.37
4,2023,15666,California Ave & Lake St,41.884357691,-87.69633781900001,55,46,36,24,91,70,29,1.9,1.59,1.24,0.83,3.14,2.41
4,2023,LP-,Lincoln Park Conservatory,41.92393131136619,-87.63582453131676,339,339,470,500,809,839,30,11.3,11.3,15.67,16.67,26.97,27.97
4,2023,13432,Wood St & Hubbard St,41.889899,-87.671473,155,139,141,139,296,278,30,5.17,4.63,4.7,4.63,9.87,9.27
4,2023,TA1307000166,Halsted St & Willow St,41.913865,-87.648755,425,406,348,340,773,746,30,14.17,13.53,11.6,11.33,25.77,24.87
4,2023,KA1503000022,Clark St & Montrose Ave,41.961551547,-87.666252971,344,340,242,221,586,561,30,11.47,11.33,8.07,7.37,19.53,18.7
4,2023,TA1309000037,Kimbark Ave & 53rd St,41.799504166666665,-87.59462533333334,527,527,985,988,1512,1515,30,17.57,17.57,32.83,32.93,50.4,50.5
4,2023,21544,State St & Chicago Ave,41.89661720040753,-87.62857854366302,978,970,906,919,1884,1889,30,32.6,32.33,30.2,30.63,62.8,62.97
4,2023,860,Public Rack - Christiana Ave & Lawrence Ave,41.97,-87.71,3,3,0,0,3,3,6,0.5,0.5,0.0,0.0,0.5,0.5
4,2023,16953,Vincennes Ave & 75th St,41.757973552,-87.631221175,4,4,7,8,11,12,13,0.31,0.31,0.54,0.62,0.85,0.92
4,2023,TA1309000012,Damen Ave & Sunnyside Ave,41.963284373,-87.67928946,149,151,186,163,335,314,30,4.97,5.03,6.2,5.43,11.17,10.47
4,2023,399,Lavergne Ave & 46th St,41.81,-87.75,5,3,0,0,5,3,3,1.67,1.0,0.0,0.0,1.67,1.0
4,2023,TA1307000111,Franklin St & Lake St,41.885837,-87.6355,680,682,497,481,1177,1163,30,22.67,22.73,16.57,16.03,39.23,38.77
4,2023,TA1307000113,Southport Ave & Wrightwood Ave,41.928780913,-87.663815141,539,532,308,365,847,897,30,17.97,17.73,10.27,12.17,28.23,29.9
4,2023,TA1308000047,Southport Ave & Clark St,41.957081,-87.664199,112,106,174,149,286,255,30,3.73,3.53,5.8,4.97,9.53,8.5
4,2023,418,Mozart St & Jackson Blvd,41.88,-87.7,24,22,0,0,24,22,14,1.71,1.57,0.0,0.0,1.71,1.57
4,2023,20235,Greenwood Ave & 91st St,41.728728533,-87.597298145,5,6,0,0,5,6,4,1.25,1.5,0.0,0.0,1.25,1.5
4,2023,570,Evans Ave & 75th St,41.75849,-87.60641,5,4,7,6,12,10,10,0.5,0.4,0.7,0.6,1.2,1.0
4,2023,13420,MLK Jr Dr & Pershing Rd,41.8246,-87.61678,52,52,59,60,111,112,30,1.73,1.73,1.97,2.0,3.7,3.73
4,2023,KA1503000069,Dorchester Ave & 49th St,41.805817485,-87.592461109,60,61,28,31,88,92,30,2.0,2.03,0.93,1.03,2.93,3.07
4,2023,13085,Kedzie Ave & Milwaukee Ave,41.929704666,-87.708078265,613,615,350,362,963,977,30,20.43,20.5,11.67,12.07,32.1,32.57
4,2023,TA1308000031,Logan Blvd & Elston Ave,41.929482102,-87.684185266,287,302,162,228,449,530,30,9.57,10.07,5.4,7.6,14.97,17.67
4,2023,KA1503000018,Jeffery Blvd & 71st St,41.766616821,-87.576451659,27,20,10,10,37,30,20,1.35,1.0,0.5,0.5,1.85,1.5
4,2023,23001,Elizabeth St & Randolph St,41.88,-87.66,284,275,198,212,482,487,30,9.47,9.17,6.6,7.07,16.07,16.23
4,2023,15615,Christiana Ave & Lawrence Ave,41.96835449363,-87.7118306675,113,101,48,53,161,154,30,3.77,3.37,1.6,1.77,5.37,5.13
4,2023,504,Public Rack - Milwaukee Ave & Diversey Ave,41.93,-87.71,24,30,0,0,24,30,24,1.0,1.25,0.0,0.0,1.0,1.25
4,2023,1027,Public Rack - Fairfield Ave & 63rd St,41.78,-87.69,2,2,0,0,2,2,3,0.67,0.67,0.0,0.0,0.67,0.67
4,2023,543,Laramie Ave & Gladys Ave,41.875829697,-87.755393028,7,5,1,1,8,6,7,1.0,0.71,0.14,0.14,1.14,0.86
4,2023,20113,Dauphin Ave & 103rd St,41.707339048,-87.607712746,3,3,0,0,3,3,5,0.6,0.6,0.0,0.0,0.6,0.6
4,2023,585,Cottage Grove Ave & 83rd St,41.743441,-87.604836,25,17,4,5,29,22,20,1.25,0.85,0.2,0.25,1.45,1.1
4,2023,KA1504000130,Maplewood Ave & Peterson Ave,41.99023602867,-87.6933696402,27,23,30,35,57,58,30,0.9,0.77,1.0,1.17,1.9,1.93
4,2023,TA1306000029,McClurg Ct & Ohio St,41.892592119709725,-87.61728912591934,630,632,718,750,1348,1382,30,21.0,21.07,23.93,25.0,44.93,46.07
4,2023,TA1308000029,Stetson Ave & South Water St,41.886835,-87.62232,446,438,408,300,854,738,30,14.87,14.6,13.6,10.0,28.47,24.6
4,2023,20129,Ada St & 113th St,41.6875335,-87.65534183333334,3,0,0,0,3,0,2,1.5,0.0,0.0,0.0,1.5,0.0
4,2023,371,Kildare Ave & Chicago Ave,41.9,-87.73,3,3,0,0,3,3,6,0.5,0.5,0.0,0.0,0.5,0.5
4,2023,15539,Desplaines St & Jackson Blvd,41.87811890091227,-87.64394760131836,545,488,587,468,1132,956,30,18.17,16.27,19.57,15.6,37.73,31.87
4,2023,TA1307000149,Ravenswood Ave & Irving Park Rd,41.954508424,-87.673986435,219,226,197,210,416,436,30,7.3,7.53,6.57,7.0,13.87,14.53
4,2023,866,Public Rack - Kostner Ave & Armitage Ave,41.92,-87.74,82,83,0,0,82,83,28,2.93,2.96,0.0,0.0,2.93,2.96
4,2023,TA1307000005,Indiana Ave & 26th St,41.845715165,-87.62250793,116,117,96,84,212,201,30,3.87,3.9,3.2,2.8,7.07,6.7
4,2023,TA1309000050,Lincoln Ave & Addison St,41.9462135,-87.67331516666667,144,140,135,142,279,282,30,4.8,4.67,4.5,4.73,9.3,9.4
4,2023,KA1503000070,Harper Ave & 59th St,41.78794281287,-87.5883151702,219,206,514,436,733,642,30,7.3,6.87,17.13,14.53,24.43,21.4
4,2023,15643,Kosciuszko Park,41.930626869,-87.723395586,168,177,59,76,227,253,30,5.6,5.9,1.97,2.53,7.57,8.43
4,2023,KA150400009X,Kimball Ave & Belmont Ave,41.939366166666666,-87.71219,130,115,64,65,194,180,30,4.33,3.83,2.13,2.17,6.47,6.0
4,2023,588,South Chicago Ave & 83rd St,41.743921,-87.575225,4,3,3,1,7,4,3,1.33,1.0,1.0,0.33,2.33,1.33
4,2023,824,Public Rack - Avers Ave & Archer Ave,41.8,-87.72,5,10,0,0,5,10,11,0.45,0.91,0.0,0.0,0.45,0.91
4,2023,823,Public Rack - Kedzie Ave & 54th St - SE,41.79,-87.7,2,2,0,0,2,2,3,0.67,0.67,0.0,0.0,0.67,0.67
4,2023,736,Public Rack - Jeffrey Blvd & 71st St,41.77,-87.58,1,2,0,0,1,2,2,0.5,1.0,0.0,0.0,0.5,1.0
4,2023,13108,Broadway & Argyle St,41.97373316666667,-87.6596255,262,257,313,322,575,579,30,8.73,8.57,10.43,10.73,19.17,19.3
4,2023,978,Public Rack - Ave N & 106th St,41.7,-87.54,1,0,0,0,1,0,1,1.0,0.0,0.0,0.0,1.0,0.0
4,2023,13074,Broadway & Wilson Ave,41.965221,-87.658139,425,418,394,350,819,768,30,14.17,13.93,13.13,11.67,27.3,25.6
4,2023,13036,Michigan Ave & Madison St,41.882310748,-87.625332713,393,385,355,374,748,759,30,13.1,12.83,11.83,12.47,24.93,25.3
4,2023,KA1503000015,Wabash Ave & Adams St,41.87947235235,-87.6256886059,317,319,411,412,728,731,30,10.57,10.63,13.7,13.73,24.27,24.37
4,2023,15631,Troy St & Elston Ave,41.945223166666665,-87.70672433333333,105,104,90,117,195,221,30,3.5,3.47,3.0,3.9,6.5,7.37
4,2023,15686,Kedzie Ave & 21st St,41.85353363213,-87.7050730318,40,31,6,7,46,38,27,1.48,1.15,0.22,0.26,1.7,1.41
4,2023,646,Public Rack - Cottage Grove Ave & 87th St,41.74,-87.61,12,9,10,7,22,16,19,0.63,0.47,0.53,0.37,1.16,0.84
4,2023,513,Public Rack - Spaulding Ave & Evergreen Ave,41.91,-87.71,21,24,0,0,21,24,23,0.91,1.04,0.0,0.0,0.91,1.04
4,2023,556,Throop St & 52nd St,41.799654841,-87.657193303,1,2,0,1,1,3,3,0.33,0.67,0.0,0.33,0.33,1.0
4,2023,509,Public Rack - Mozart Elementary School,41.92,-87.72,1,3,0,0,1,3,3,0.33,1.0,0.0,0.0,0.33,1.0
4,2023,918,Public Rack - Pullman Community Center,41.7,-87.59,1,1,0,0,1,1,1,1.0,1.0,0.0,0.0,1.0,1.0
4,2023,537,Public Rack - 2302 S Pulaski Rd,41.85,-87.72,12,6,2,4,14,10,15,0.8,0.4,0.13,0.27,0.93,0.67
4,2023,649,Stewart Ave & 63rd St,41.779832721,-87.634706378,5,5,2,2,7,7,9,0.56,0.56,0.22,0.22,0.78,0.78
4,2023,381,Francisco Ave & 47th St,41.81,-87.7,26,18,0,0,26,18,22,1.18,0.82,0.0,0.0,1.18,0.82
4,2023,20221,Torrence Ave & 106th St,41.702825427,-87.559910417,3,11,0,0,3,11,12,0.25,0.92,0.0,0.0,0.25,0.92
4,2023,841,Public Rack - Damen Ave & 47th St,41.81,-87.67,1,1,0,0,1,1,1,1.0,1.0,0.0,0.0,1.0,1.0
4,2023,545,Public Rack - Linder Ave & Belmont Ave,41.94,-87.76,7,5,4,2,11,7,11,0.64,0.45,0.36,0.18,1.0,0.64
4,2023,16903,Cicero Ave & Lake St,41.886859536,-87.745549321,6,4,5,4,11,8,11,0.55,0.36,0.45,0.36,1.0,0.73
4,2023,KA1503000065,Woodlawn Ave & Lake Park Ave,41.81409271048,-87.5970051479,21,19,58,69,79,88,30,0.7,0.63,1.93,2.3,2.63,2.93
4,2023,16916,Central Ave & Madison St,41.880098224,-87.763251305,9,2,5,3,14,5,12,0.75,0.17,0.42,0.25,1.17,0.42
4,2023,1034,Public Rack - Kenneth Ave & 63rd St E,41.78,-87.73,2,0,0,0,2,0,2,1.0,0.0,0.0,0.0,1.0,0.0
4,2023,826,Public Rack - Harding Ave & 47th St,41.81,-87.72,2,2,0,0,2,2,3,0.67,0.67,0.0,0.0,0.67,0.67
4,2023,20230,Clyde Ave & 87th St,41.737242937,-87.572674155,3,2,0,0,3,2,3,1.0,0.67,0.0,0.0,1.0,0.67
4,2023,KA1503000023,Stony Island Ave & 67th St,41.773474813,-87.585322738,8,7,11,11,19,18,16,0.5,0.44,0.69,0.69,1.19,1.12
4,2023,KA1503000073,MLK Jr Dr & 56th St,41.793429,-87.615853,3,1,18,12,21,13,17,0.18,0.06,1.06,0.71,1.24,0.76
4,2023,554,Damen Ave & 51st St,41.800908,-87.674684,10,11,5,5,15,16,15,0.67,0.73,0.33,0.33,1.0,1.07
4,2023,492,Public Rack - Hamlin Ave & Montrose Ave,41.96,-87.72,34,29,0,0,34,29,25,1.36,1.16,0.0,0.0,1.36,1.16
4,2023,419,Sacramento Blvd & Polk St,41.87,-87.7,9,9,0,0,9,9,3,3.0,3.0,0.0,0.0,3.0,3.0
4,2023,16970,Bennett Ave & 79th St,41.751785,-87.578496,1,1,2,2,3,3,4,0.25,0.25,0.5,0.5,0.75,0.75
4,2023,679,Public Rack - Western Ave & 111th St - SW,41.69,-87.68,2,0,0,0,2,0,1,2.0,0.0,0.0,0.0,2.0,0.0
4,2023,544,Public Rack - Laramie Ave & Belmont Ave,41.94,-87.76,5,5,0,0,5,5,7,0.71,0.71,0.0,0.0,0.71,0.71
4,2023,857,Public Rack - Sawyer Ave & Bryn Mawr Ave - SE,41.98,-87.71,1,2,0,0,1,2,3,0.33,0.67,0.0,0.0,0.33,0.67
4,2023,18025,Carpenter St & 63rd St,41.77987,-87.650919,0,2,1,2,1,4,2,0.0,1.0,0.5,1.0,0.5,2.0
4,2023,13050,State St & Kinzie St,41.889297366,-87.627326727,660,673,451,511,1111,1184,30,22.0,22.43,15.03,17.03,37.03,39.47
4,2023,TA1305000006,Dearborn St & Monroe St,41.880782247,-87.629636407,720,715,645,697,1365,1412,30,24.0,23.83,21.5,23.23,45.5,47.07
4,2023,13073,Ashland Ave & Lake St,41.885981202,-87.667191625,239,176,266,219,505,395,30,7.97,5.87,8.87,7.3,16.83,13.17
4,2023,TA1309000006,Larrabee St & Armitage Ave,41.918293118,-87.64377594,354,345,273,280,627,625,30,11.8,11.5,9.1,9.33,20.9,20.83
4,2023,13017,Franklin St & Chicago Ave,41.89680466666667,-87.63587866666667,575,547,502,456,1077,1003,30,19.17,18.23,16.73,15.2,35.9,33.43
4,2023,KA1504000135,Wells St & Elm St,41.903163433,-87.634668827,1112,1110,991,1028,2103,2138,30,37.07,37.0,33.03,34.27,70.1,71.27
4,2023,13221,Wood St & Milwaukee Ave,41.907616833333336,-87.67252866666666,605,608,441,522,1046,1130,30,20.17,20.27,14.7,17.4,34.87,37.67
4,2023,15576,Lakefront Trail & Bryn Mawr Ave,41.98404411519213,-87.65228122472763,377,378,471,541,848,919,30,12.57,12.6,15.7,18.03,28.27,30.63
4,2023,TA1309000029,Leavitt St & Armitage Ave,41.917805,-87.682437,271,267,180,180,451,447,30,9.03,8.9,6.0,6.0,15.03,14.9
4,2023,TA1305000022,Orleans St & Merchandise Mart Plaza,41.888243,-87.63639,818,765,643,548,1461,1313,30,27.27,25.5,21.43,18.27,48.7,43.77
4,2023,13001,Michigan Ave & Washington St,41.8839840647265,-87.6246839761734,649,652,770,781,1419,1433,30,21.63,21.73,25.67,26.03,47.3,47.77
4,2023,13245,Claremont Ave & Hirsch St,41.907753,-87.685867,126,105,103,78,229,183,30,4.2,3.5,3.43,2.6,7.63,6.1
4,2023,13215,Rhodes Ave & 32nd St,41.836208,-87.613533,356,348,233,202,589,550,30,11.87,11.6,7.77,6.73,19.63,18.33
4,2023,SL-007,State St & Harrison St,41.873923063,-87.627639294,216,212,297,253,513,465,30,7.2,7.07,9.9,8.43,17.1,15.5
4,2023,639,Lakefront Trail & Wilson Ave,41.965845,-87.645361,220,218,305,354,525,572,30,7.33,7.27,10.17,11.8,17.5,19.07
4,2023,375,Long Ave & North Ave,41.91,-87.76,8,5,0,0,8,5,9,0.89,0.56,0.0,0.0,0.89,0.56
4,2023,13206,Loomis St & Jackson Blvd,41.877952576,-87.662030816,146,149,328,324,474,473,30,4.87,4.97,10.93,10.8,15.8,15.77
4,2023,582,Phillips Ave & 83rd St,41.744538903,-87.56511724,2,1,0,1,2,2,3,0.67,0.33,0.0,0.33,0.67,0.67
4,2023,929,Public Rack - Campbell Ave & Pratt Blvd,42.01,-87.69,1,3,0,0,1,3,4,0.25,0.75,0.0,0.0,0.25,0.75
4,2023,20239,Marquette Ave & 89th St,41.733714938,-87.558483481,3,2,0,1,3,3,3,1.0,0.67,0.0,0.33,1.0,1.0
4,2023,847,Public Rack - Brandon Ave & 91st St,41.73,-87.55,9,9,0,0,9,9,8,1.12,1.12,0.0,0.0,1.12,1.12
4,2023,656,Public Rack - West Chatham Park,41.75,-87.63,1,1,0,0,1,1,2,0.5,0.5,0.0,0.0,0.5,0.5
4,2023,16950,Ashland Ave & 66th St,41.774065137,-87.663735032,3,1,1,2,4,3,7,0.43,0.14,0.14,0.29,0.57,0.43
4,2023,714,Public Rack - Western Ave & 79th St,41.75,-87.68,1,0,0,0,1,0,1,1.0,0.0,0.0,0.0,1.0,0.0
4,2023,20114,Doty Ave & 111th St,41.695033193,-87.59866178,7,7,2,3,9,10,12,0.58,0.58,0.17,0.25,0.75,0.83
4,2023,20242,Houston Ave & 92nd St,41.72820421535798,-87.54970014095306,1,2,5,5,6,7,6,0.17,0.33,0.83,0.83,1.0,1.17
4,2023,15550,Canal St & Taylor St,41.870204449,-87.639484406,229,223,225,249,454,472,30,7.63,7.43,7.5,8.3,15.13,15.73
4,2023,13139,Throop St & Taylor St,41.868968,-87.659141,325,323,273,284,598,607,30,10.83,10.77,9.1,9.47,19.93,20.23
4,2023,553,Elizabeth St & 47th St,41.80839,-87.656526,2,3,4,3,6,6,11,0.18,0.27,0.36,0.27,0.55,0.55
4,2023,840,Public Rack - Marshfield Ave & 45th St,41.81,-87.67,2,1,0,0,2,1,2,1.0,0.5,0.0,0.0,1.0,0.5
4,2023,324,Meade Ave & Addison St,41.95,-87.78,9,5,0,0,9,5,8,1.12,0.62,0.0,0.0,1.12,0.62
4,2023,363.0,Tripp Ave & 15th St,41.86,-87.73,4,3,0,0,4,3,5,0.8,0.6,0.0,0.0,0.8,0.6
4,2023,307,Leamington Ave & Hirsch St,41.91,-87.75,8,7,0,0,8,7,11,0.73,0.64,0.0,0.0,0.73,0.64
4,2023,1038,Public Rack - Kedzie Ave & 62nd Pl,41.78,-87.7,4,5,0,0,4,5,5,0.8,1.0,0.0,0.0,0.8,1.0
4,2023,563,Public Rack - Central Ave & George St,41.93,-87.77,2,0,0,0,2,0,2,1.0,0.0,0.0,0.0,1.0,0.0
4,2023,383,Campbell Ave & 51st St,41.8,-87.69,12,2,0,0,12,2,11,1.09,0.18,0.0,0.0,1.09,0.18
4,2023,403,Kildare Ave & 55th St,41.79,-87.73,13,8,0,0,13,8,7,1.86,1.14,0.0,0.0,1.86,1.14
4,2023,526,Public Rack - Legler Regional Library,41.88,-87.73,1,1,0,0,1,1,2,0.5,0.5,0.0,0.0,0.5,0.5
4,2023,333.0,Kildare & Cermak,41.85,-87.73,4,6,0,0,4,6,7,0.57,0.86,0.0,0.0,0.57,0.86
4,2023,13091,Western Ave & 21st St,41.854109,-87.685838,83,87,44,50,127,137,30,2.77,2.9,1.47,1.67,4.23,4.57
4,2023,13163,Morgan St & 18th St,41.85800716666667,-87.6510045,236,238,175,163,411,401,30,7.87,7.93,5.83,5.43,13.7,13.37
4,2023,773,"Public Rack - Senka ""Edward Duke"" Park",41.79,-87.71,1,1,0,0,1,1,1,1.0,1.0,0.0,0.0,1.0,1.0
4,2023,366.0,Spaulding Ave & 16th St,41.86,-87.71,2,0,0,0,2,0,2,1.0,0.0,0.0,0.0,1.0,0.0
4,2023,310,North Ave & New England Ave,41.91,-87.8,7,5,0,0,7,5,6,1.17,0.83,0.0,0.0,1.17,0.83
4,2023,338,California Ave & 36th St,41.83,-87.69,10,8,0,0,10,8,6,1.67,1.33,0.0,0.0,1.67,1.33
4,2023,308,Major Ave & Bloomingdale Ave,41.91,-87.77,4,4,0,0,4,4,5,0.8,0.8,0.0,0.0,0.8,0.8
4,2023,681,Public Rack - Western Ave & 111th St - NW,41.69,-87.68,2,0,0,0,2,0,2,1.0,0.0,0.0,0.0,1.0,0.0
4,2023,827,Public Rack - Strohacker Park,41.79,-87.73,1,2,0,0,1,2,2,0.5,1.0,0.0,0.0,0.5,1.0
4,2023,302,Lamon Ave & Chicago Ave,41.9,-87.75,4,4,0,0,4,4,3,1.33,1.33,0.0,0.0,1.33,1.33
4,2023,579,Phillips Ave & 79th St,41.75184383333333,-87.56525716666667,7,9,6,7,13,16,13,0.54,0.69,0.46,0.54,1.0,1.23
4,2023,400,Lawler Ave & 50th St,41.8,-87.75,18,16,0,0,18,16,10,1.8,1.6,0.0,0.0,1.8,1.6
4,2023,15642,California Ave & Fletcher St,41.938435166666665,-87.697954,127,132,94,145,221,277,30,4.23,4.4,3.13,4.83,7.37,9.23
4,2023,766,Public Rack - Harold Washington Park,41.8,-87.58,12,10,0,0,12,10,11,1.09,0.91,0.0,0.0,1.09,0.91
4,2023,830,Public Rack - Pulaski & 52nd,41.8,-87.72,2,2,0,0,2,2,4,0.5,0.5,0.0,0.0,0.5,0.5
4,2023,13083,Indiana Ave & 40th St,41.821651,-87.62139983333333,9,8,11,8,20,16,15,0.6,0.53,0.73,0.53,1.33,1.07
4,2023,KA1503000029,South Shore Dr & 67th St,41.773692489,-87.567416787,50,49,61,66,111,115,30,1.67,1.63,2.03,2.2,3.7,3.83
4,2023,1066,Public Rack - St Louis Ave & Flournoy St,41.87,-87.71,1,3,0,0,1,3,4,0.25,0.75,0.0,0.0,0.25,0.75
4,2023,20243,Michigan Ave & 114th St,41.687013268,-87.621208668,2,2,0,2,2,4,4,0.5,0.5,0.0,0.5,0.5,1.0
4,2023,921,Public Rack - Pullman - Planet Fitness,41.7,-87.6,1,2,0,0,1,2,3,0.33,0.67,0.0,0.0,0.33,0.67
4,2023,TA1309000035,Clark St & Winnemac Ave,41.97334764047304,-87.6678554713726,773,772,476,483,1249,1255,30,25.77,25.73,15.87,16.1,41.63,41.83
4,2023,13021,Clinton St & Lake St,41.885509968,-87.641862988,827,764,664,583,1491,1347,30,27.57,25.47,22.13,19.43,49.7,44.9
4,2023,13061,Ashland Ave & Division St,41.903221726,-87.667945266,882,879,702,704,1584,1583,30,29.4,29.3,23.4,23.47,52.8,52.77
4,2023,TA1307000127,Clark St & Grace St,41.95078,-87.659172,659,652,496,500,1155,1152,31,21.26,21.03,16.0,16.13,37.26,37.16
4,2023,13128,Clark St & North Ave,41.911974,-87.631942,350,344,421,469,771,813,30,11.67,11.47,14.03,15.63,25.7,27.1
4,2023,TA1305000014,Clark St & Wrightwood Ave,41.929546,-87.643118,927,918,870,861,1797,1779,30,30.9,30.6,29.0,28.7,59.9,59.3
4,2023,TA1307000139,MLK Jr Dr & 29th St,41.841998,-87.6169575,631,621,419,328,1050,949,30,21.03,20.7,13.97,10.93,35.0,31.63
4,2023,TA1307000156,Lincoln Ave & Sunnyside Ave,41.963033915,-87.684864521,285,276,188,209,473,485,30,9.5,9.2,6.27,6.97,15.77,16.17
4,2023,KA1504000101,Ogden Ave & Roosevelt Rd,41.866515517,-87.684502959,141,128,61,42,202,170,31,4.55,4.13,1.97,1.35,6.52,5.48
4,2023,15640,Avers Ave & Belmont Ave,41.939408,-87.723574,105,112,71,84,176,196,30,3.5,3.73,2.37,2.8,5.87,6.53
4,2023,13191,Sedgwick St & Webster Ave,41.922167,-87.638888,468,462,595,573,1063,1035,30,15.6,15.4,19.83,19.1,35.43,34.5
4,2023,435,Rockwell St & Fletcher St,41.94,-87.69,156,152,0,0,156,152,29,5.38,5.24,0.0,0.0,5.38,5.24
4,2023,478,Public Rack - California Ave & Touhy Ave - SW,42.01,-87.7,1,0,0,0,1,0,1,1.0,0.0,0.0,0.0,1.0,0.0
4,2023,TA1309000011,Ellis Ave & 58th St,41.788746,-87.601334,236,233,708,808,944,1041,30,7.87,7.77,23.6,26.93,31.47,34.7
4,2023,TA1305000001,Wabash Ave & Cermak Rd,41.852603078,-87.626576662,120,124,106,138,226,262,30,4.0,4.13,3.53,4.6,7.53,8.73
4,2023,TA1309000019,Lakeview Ave & Fullerton Pkwy,41.926019669,-87.639054894,705,695,646,669,1351,1364,30,23.5,23.17,21.53,22.3,45.03,45.47
4,2023,KA1503000012,Clark St & Lake St,41.88602082773,-87.6308760584,526,501,654,604,1180,1105,30,17.53,16.7,21.8,20.13,39.33,36.83
4,2023,433,Elston Ave & Henderson St,41.94,-87.7,101,93,0,0,101,93,30,3.37,3.1,0.0,0.0,3.37,3.1
4,2023,TA1309000014,Clark St & Leland Ave,41.967108607,-87.667563796,397,378,340,321,737,699,30,13.23,12.6,11.33,10.7,24.57,23.3
4,2023,TA1309000021,Paulina St & Montrose Ave,41.961503625,-87.671415091,187,191,183,161,370,352,30,6.23,6.37,6.1,5.37,12.33,11.73
4,2023,KA1504000103,Western Ave & Walton St,41.89841768945,-87.6865960164,394,385,152,176,546,561,30,13.13,12.83,5.07,5.87,18.2,18.7
4,2023,17660,California Ave & Cortez St,41.900363,-87.696704,284,298,179,196,463,494,30,9.47,9.93,5.97,6.53,15.43,16.47
4,2023,TA1305000003,Fairbanks Ct & Grand Ave,41.89184737210993,-87.62058019638062,592,596,617,641,1209,1237,30,19.73,19.87,20.57,21.37,40.3,41.23
4,2023,TA1308000012,Montrose Harbor,41.963982,-87.638181,477,471,689,683,1166,1154,30,15.9,15.7,22.97,22.77,38.87,38.47
4,2023,15597,Halsted St & 69th St,41.76906172032,-87.6446135779,1,2,7,9,8,11,12,0.08,0.17,0.58,0.75,0.67,0.92
4,2023,RP-002,Warren Park East,42.00454962194,-87.6806661451,42,44,44,45,86,89,28,1.5,1.57,1.57,1.61,3.07,3.18
4,2023,KA1504000097,Drake Ave & Montrose Ave,41.961189508,-87.716662645,47,49,59,59,106,108,30,1.57,1.63,1.97,1.97,3.53,3.6
4,2023,13150,Michigan Ave & 18th St,41.857813,-87.62455,333,320,324,309,657,629,30,11.1,10.67,10.8,10.3,21.9,20.97
4,2023,13080,Hermitage Ave & Polk St,41.871514,-87.669886,282,289,233,244,515,533,30,9.4,9.63,7.77,8.13,17.17,17.77
4,2023,13326,Canal St & Harrison St,41.874255,-87.639573,93,93,132,109,225,202,30,3.1,3.1,4.4,3.63,7.5,6.73
4,2023,20246.0,N Green St & W Lake St,41.89,-87.65,507,469,0,0,507,469,30,16.9,15.63,0.0,0.0,16.9,15.63
4,2023,KA1504000175,Glenwood Ave & Morse Ave,42.00796628,-87.665495753,184,182,137,163,321,345,30,6.13,6.07,4.57,5.43,10.7,11.5
4,2023,13269,Ashland Ave & Wellington Ave,41.936074376,-87.66987586,295,295,166,176,461,471,30,9.83,9.83,5.53,5.87,15.37,15.7
4,2023,20252.0,W Oakdale Ave & N Broadway,41.94,-87.64,233,214,0,0,233,214,30,7.77,7.13,0.0,0.0,7.77,7.13
4,2023,TA1308000014,Normal Ave & Archer Ave,41.849527,-87.640591,36,35,28,36,64,71,30,1.2,1.17,0.93,1.2,2.13,2.37
4,2023,20202,W 103rd St & S Avers Ave,41.71,-87.72,18,7,0,0,18,7,7,2.57,1.0,0.0,0.0,2.57,1.0
4,2023,20123,Western Ave & 104th St,41.704621673,-87.68114984,4,3,3,2,7,5,10,0.4,0.3,0.3,0.2,0.7,0.5
4,2023,KA1503000046,Dorchester Ave & 63rd St,41.7804056457,-87.5914159893,21,23,34,52,55,75,29,0.72,0.79,1.17,1.79,1.9,2.59
4,2023,15546,Calumet Ave & 21st St,41.853980184,-87.618979692,168,169,119,126,287,295,30,5.6,5.63,3.97,4.2,9.57,9.83
4,2023,KA1503000030,Jeffery Blvd & 67th St,41.77351755125,-87.5771428255,21,23,18,15,39,38,22,0.95,1.05,0.82,0.68,1.77,1.73
4,2023,20253.0,N Paulina St & Lincoln Ave,41.94,-87.67,124,121,0,0,124,121,30,4.13,4.03,0.0,0.0,4.13,4.03
4,2023,13263,Columbus Dr & Randolph St,41.884728,-87.619521,732,619,954,560,1686,1179,30,24.4,20.63,31.8,18.67,56.2,39.3
4,2023,13303,Clark St & Chicago Ave,41.89675,-87.63089,400,389,337,325,737,714,30,13.33,12.97,11.23,10.83,24.57,23.8
4,2023,TA1308000002,Greenwood Ave & 47th St,41.809835,-87.599383,96,91,88,68,184,159,30,3.2,3.03,2.93,2.27,6.13,5.3
4,2023,599,Valli Produce - Evanston Plaza,42.039742,-87.699413,23,16,27,22,50,38,26,0.88,0.62,1.04,0.85,1.92,1.46
4,2023,E002,Chicago Ave & Washington St,42.03259666666667,-87.67923216666667,147,152,95,104,242,256,30,4.9,5.07,3.17,3.47,8.07,8.53
4,2023,598,Elmwood Ave & Austin St,42.025874138,-87.684169292,53,49,22,26,75,75,28,1.89,1.75,0.79,0.93,2.68,2.68
4,2023,326,Harlem & Irving Park,41.95,-87.81,58,56,0,0,58,56,27,2.15,2.07,0.0,0.0,2.15,2.07
4,2023,374,Kilpatrick Ave & Grand Ave,41.91,-87.74,32,33,0,0,32,33,19,1.68,1.74,0.0,0.0,1.68,1.74
4,2023,KA1504000076,Ellis Ave & 55th St,41.79422616666667,-87.60152166666667,544,538,1357,1321,1901,1859,30,18.13,17.93,45.23,44.03,63.37,61.97
4,2023,202480.0,Hampden Ct & Diversey Ave,41.93,-87.64,303,293,0,0,303,293,30,10.1,9.77,0.0,0.0,10.1,9.77
4,2023,319,Roscoe & Harlem,41.94,-87.81,3,4,0,0,3,4,4,0.75,1.0,0.0,0.0,0.75,1.0
4,2023,KA1504000148,Clark St & Elmdale Ave,41.99086044812557,-87.66972362995148,165,160,132,151,297,311,30,5.5,5.33,4.4,5.03,9.9,10.37
4,2023,SL-006,Wells St & 19th St,41.856802,-87.633879,82,80,54,69,136,149,30,2.73,2.67,1.8,2.3,4.53,4.97
4,2023,362.0,Lawndale Ave & 16th St,41.86,-87.72,3,1,0,0,3,1,2,1.5,0.5,0.0,0.0,1.5,0.5
4,2023,317,Long Ave & Belmont Ave,41.94,-87.76,23,26,0,0,23,26,19,1.21,1.37,0.0,0.0,1.21,1.37
4,2023,439,Campbell Ave & Irving Park Rd,41.95,-87.69,45,50,0,0,45,50,25,1.8,2.0,0.0,0.0,1.8,2.0
4,2023,13155,Racine Ave & Randolph St,41.884069,-87.656853,153,142,126,152,279,294,30,5.1,4.73,4.2,5.07,9.3,9.8
4,2023,RP-001,Warren Park West,42.001785,-87.688829,32,31,52,67,84,98,30,1.07,1.03,1.73,2.23,2.8,3.27
4,2023,343,Pulaski Rd & 51st St,41.8,-87.72,42,30,0,0,42,30,24,1.75,1.25,0.0,0.0,1.75,1.25
4,2023,13216,State St & 33rd St,41.834723353,-87.625785947,935,939,620,635,1555,1574,30,31.17,31.3,20.67,21.17,51.83,52.47
4,2023,SL-009,Clark St & 9th St (AMLI),41.870816,-87.631246,160,156,140,137,300,293,30,5.33,5.2,4.67,4.57,10.0,9.77
4,2023,809,Public Rack - Newcastle Ave & Belmont Ave,41.94,-87.8,2,2,0,0,2,2,3,0.67,0.67,0.0,0.0,0.67,0.67
4,2023,KA1504000113,Sacramento Blvd & Franklin Blvd,41.89046879243862,-87.70260751247406,20,19,14,16,34,35,19,1.05,1.0,0.74,0.84,1.79,1.84
4,2023,988,Public Rack - Western Ave & 110th St,41.69,-87.68,6,1,0,0,6,1,5,1.2,0.2,0.0,0.0,1.2,0.2
4,2023,20120,Stewart Ave & 83rd St,41.743717,-87.634088,13,12,8,7,21,19,16,0.81,0.75,0.5,0.44,1.31,1.19
4,2023,20227,Bradley Park,41.717878301935,-87.56459176540375,0,0,1,1,1,1,2,0.0,0.0,0.5,0.5,0.5,0.5
4,2023,844,Public Rack - Bishop St & 46th St,41.81,-87.66,1,1,0,0,1,1,1,1.0,1.0,0.0,0.0,1.0,1.0
4,2023,565,Public Rack - Austin Ave & Wrightwood Ave,41.93,-87.78,13,13,0,0,13,13,9,1.44,1.44,0.0,0.0,1.44,1.44
4,2023,560,Marshfield Ave & 59th St,41.786833,-87.666215,14,12,2,2,16,14,11,1.27,1.09,0.18,0.18,1.45,1.27
4,2023,360,Kilbourn & Roscoe,41.94,-87.74,47,34,0,0,47,34,22,2.14,1.55,0.0,0.0,2.14,1.55
4,2023,913,Public Rack - 532 E 43rd St,41.82,-87.61,2,1,0,0,2,1,1,2.0,1.0,0.0,0.0,2.0,1.0
4,2023,415,Western Ave & Lake St,41.88,-87.69,9,11,0,0,9,11,9,1.0,1.22,0.0,0.0,1.0,1.22
4,2023,657,Wood St & Augusta Blvd,41.899181,-87.6722,299,281,225,210,524,491,30,9.97,9.37,7.5,7.0,17.47,16.37
4,2023,RN-,Franklin St & Illinois St,41.89102331025185,-87.63547986745834,487,487,452,451,939,938,30,16.23,16.23,15.07,15.03,31.3,31.27
4,2023,KA1503000041,McClurg Ct & Erie St,41.894503,-87.617854,488,487,566,577,1054,1064,30,16.27,16.23,18.87,19.23,35.13,35.47
4,2023,KA1504000160,Francisco Ave & Foster Ave,41.97563272521,-87.7014194389,80,83,77,88,157,171,30,2.67,2.77,2.57,2.93,5.23,5.7
4,2023,930,Public Rack - Washtenaw Ave & Devon Ave,42.0,-87.7,27,31,0,0,27,31,26,1.04,1.19,0.0,0.0,1.04,1.19
4,2023,547,Public Rack - Cicero Ave & Wrightwood Ave,41.93,-87.75,20,19,0,0,20,19,20,1.0,0.95,0.0,0.0,1.0,0.95
4,2023,784,Public Rack - Brighton Park Branch Chicago Library,41.82,-87.7,4,4,0,0,4,4,4,1.0,1.0,0.0,0.0,1.0,1.0
4,2023,15544,Shedd Aquarium,41.86722595682,-87.6153553902,499,465,727,685,1226,1150,30,16.63,15.5,24.23,22.83,40.87,38.33
4,2023,KA1504000147,Winchester (Ravenswood) Ave & Balmoral Ave,41.979747,-87.6776245,99,113,45,63,144,176,30,3.3,3.77,1.5,2.1,4.8,5.87
4,2023,TA1307000160,Prairie Ave & Garfield Blvd,41.794833064,-87.618827105,46,33,55,42,101,75,30,1.53,1.1,1.83,1.4,3.37,2.5
4,2023,514,Ridge Blvd & Howard St,42.019276,-87.68452,37,41,31,38,68,79,30,1.23,1.37,1.03,1.27,2.27,2.63
4,2023,20255.0,N Damen Ave & W Chicago Ave,41.9,-87.68,48,29,0,0,48,29,25,1.92,1.16,0.0,0.0,1.92,1.16
4,2023,380,Fairfield Ave & 44th St,41.81,-87.69,49,39,0,0,49,39,23,2.13,1.7,0.0,0.0,2.13,1.7
4,2023,20205,Western Ave & 111th St,41.691260219,-87.681291103,13,10,28,25,41,35,25,0.52,0.4,1.12,1.0,1.64,1.4
4,2023,13288,Damen Ave & Charleston St,41.920082,-87.677855,334,338,162,172,496,510,30,11.13,11.27,5.4,5.73,16.53,17.0
4,2023,13276,Stockton Dr & Wrightwood Ave,41.93132,-87.638742,551,559,594,647,1145,1206,30,18.37,18.63,19.8,21.57,38.17,40.2
4,2023,TA1306000011,Wells St & Walton St,41.89993001,-87.63443007,316,274,556,330,872,604,30,10.53,9.13,18.53,11.0,29.07,20.13
4,2023,13134,Damen Ave & Madison St,41.881402731,-87.674906373,123,120,76,80,199,200,30,4.1,4.0,2.53,2.67,6.63,6.67
4,2023,742,Public Rack - Ashland Ave & 71st St,41.77,-87.66,1,1,0,0,1,1,1,1.0,1.0,0.0,0.0,1.0,1.0
4,2023,519,Public Rack - Kostner Ave & North Ave,41.91,-87.74,32,29,12,11,44,40,28,1.14,1.04,0.43,0.39,1.57,1.43
4,2023,851,Public Rack - Kostner Ave & Lake St,41.89,-87.74,1,4,0,0,1,4,5,0.2,0.8,0.0,0.0,0.2,0.8
4,2023,13028,900 W Harrison St,41.874753118,-87.649794221,702,668,568,512,1270,1180,30,23.4,22.27,18.93,17.07,42.33,39.33
4,2023,869,Public Rack - Homan Ave & 26th St,41.84,-87.71,1,1,0,0,1,1,2,0.5,0.5,0.0,0.0,0.5,0.5
4,2023,937,Public Rack - King Dr & 115th St,41.69,-87.61,7,6,0,0,7,6,8,0.88,0.75,0.0,0.0,0.88,0.75
4,2023,966,Public Rack - Laporte Ave & Armitage Ave,41.92,-87.75,3,3,0,0,3,3,5,0.6,0.6,0.0,0.0,0.6,0.6
4,2023,13265,Kingsbury St & Erie St,41.89380805624359,-87.64169722795485,751,700,718,658,1469,1358,30,25.03,23.33,23.93,21.93,48.97,45.27
4,2023,WL-011,Jefferson St & Monroe St,41.88019083333333,-87.6425745,496,472,362,325,858,797,30,16.53,15.73,12.07,10.83,28.6,26.57
4,2023,TA1309000023,Sheffield Ave & Wrightwood Ave,41.928712,-87.653833,624,614,557,522,1181,1136,30,20.8,20.47,18.57,17.4,39.37,37.87
4,2023,TA1307000143,Sedgwick St & Schiller St,41.907626,-87.638566,140,140,157,133,297,273,30,4.67,4.67,5.23,4.43,9.9,9.1
4,2023,20204,Kedzie Ave & 110th St,41.69239474587557,-87.70096063613892,2,1,21,23,23,24,19,0.11,0.05,1.11,1.21,1.21,1.26
4,2023,650,Eggleston Ave & 69th St,41.768898,-87.635876,4,4,63,60,67,64,28,0.14,0.14,2.25,2.14,2.39,2.29
4,2023,15443,Shields Ave & 28th Pl,41.842733,-87.635491,133,134,134,146,267,280,30,4.43,4.47,4.47,4.87,8.9,9.33
4,2023,KA1504000133,Rush St & Cedar St,41.902370214,-87.627851248,647,647,512,554,1159,1201,30,21.57,21.57,17.07,18.47,38.63,40.03
4,2023,KA1504000078,Lincoln Ave & Winona St,41.97491129677,-87.6925025594,125,124,57,67,182,191,30,4.17,4.13,1.9,2.23,6.07,6.37
4,2023,TA1307000117,Wabash Ave & Grand Ave,41.891466,-87.626761,805,775,889,924,1694,1699,30,26.83,25.83,29.63,30.8,56.47,56.63
4,2023,13271,Damen Ave & Clybourn Ave,41.931878833333336,-87.67780716666667,201,200,138,165,339,365,30,6.7,6.67,4.6,5.5,11.3,12.17
4,2023,15535,Desplaines St & Randolph St,41.884591666666665,-87.64461066666667,418,332,534,389,952,721,30,13.93,11.07,17.8,12.97,31.73,24.03
4,2023,515,Paulina St & Howard St,42.019159,-87.673573,81,71,119,88,200,159,30,2.7,2.37,3.97,2.93,6.67,5.3
4,2023,KA1504000126,Kedzie Ave & Leland Ave,41.966690302,-87.708165169,86,83,35,36,121,119,30,2.87,2.77,1.17,1.2,4.03,3.97
4,2023,655,Hoyne Ave & Balmoral Ave,41.979856968,-87.681983232,164,165,44,42,208,207,30,5.47,5.5,1.47,1.4,6.93,6.9
4,2023,chargingstx5,Lincoln Ave & Roscoe St*,41.9433502470174,-87.67066776752472,39,206,74,386,113,592,30,1.3,6.87,2.47,12.87,3.77,19.73
4,2023,TA1307000121,Halsted St & Polk St,41.871804476,-87.646622539,941,948,589,625,1530,1573,30,31.37,31.6,19.63,20.83,51.0,52.43
4,2023,TA1306000003,Desplaines St & Kinzie St,41.888635,-87.64456783333333,1018,793,814,569,1832,1362,30,33.93,26.43,27.13,18.97,61.07,45.4
4,2023,620,Orleans St & Chestnut St (NEXT Apts),41.898175836,-87.637589216,347,326,265,221,612,547,30,11.57,10.87,8.83,7.37,20.4,18.23
4,2023,446,Francisco Ave & Montrose Ave,41.96,-87.7,148,114,0,0,148,114,29,5.1,3.93,0.0,0.0,5.1,3.93
4,2023,KA1503000013,Princeton Ave & Garfield Blvd,41.795042396,-87.633146167,15,19,10,12,25,31,21,0.71,0.9,0.48,0.57,1.19,1.48
4,2023,KA1504000156,Clark St & Schreiber Ave,41.99925182186,-87.6713773393,139,143,111,123,250,266,30,4.63,4.77,3.7,4.1,8.33,8.87
4,2023,13164,Racine Ave & 18th St,41.858166,-87.656495,306,308,166,190,472,498,30,10.2,10.27,5.53,6.33,15.73,16.6
4,2023,13338,Mies van der Rohe Way & Chicago Ave,41.897138596,-87.621731997,524,519,526,572,1050,1091,30,17.47,17.3,17.53,19.07,35.0,36.37
4,2023,KA1503000014,Ellis Ave & 60th St,41.78509714636,-87.6010727606,844,814,2066,1954,2910,2768,30,28.13,27.13,68.87,65.13,97.0,92.27
4,2023,13294,Greenview Ave & Diversey Pkwy,41.93258963429789,-87.66593635082245,289,288,229,225,518,513,30,9.63,9.6,7.63,7.5,17.27,17.1
4,2023,13257,Campbell Ave & North Ave,41.91057539,-87.689561963,256,246,174,191,430,437,30,8.53,8.2,5.8,6.37,14.33,14.57
4,2023,13268,Damen Ave & Wellington Ave,41.935900807,-87.678494453,256,255,164,155,420,410,30,8.53,8.5,5.47,5.17,14.0,13.67
4,2023,331,Halsted St & Clybourn Ave,41.909628,-87.64809466666667,843,822,826,781,1669,1603,30,28.1,27.4,27.53,26.03,55.63,53.43
4,2023,13224,Ashland Ave & Blackhawk St,41.907066,-87.667252,396,400,288,305,684,705,30,13.2,13.33,9.6,10.17,22.8,23.5
4,2023,525,Glenwood Ave & Touhy Ave,42.012753367,-87.665993094,76,69,115,92,191,161,30,2.53,2.3,3.83,3.07,6.37,5.37
4,2023,LF-005,DuSable Lake Shore Dr & North Blvd,41.91171933333333,-87.62683916666667,734,734,1252,1357,1986,2091,30,24.47,24.47,41.73,45.23,66.2,69.7
4,2023,13430,LaSalle St & Illinois St,41.89085166666667,-87.6315515,984,940,804,753,1788,1693,30,32.8,31.33,26.8,25.1,59.6,56.43
4,2023,E006,Central St Metra,42.063598,-87.69873,60,63,34,48,94,111,30,2.0,2.1,1.13,1.6,3.13,3.7
4,2023,KA1503000043,Kingsbury St & Kinzie St,41.889178666666666,-87.63849066666667,1352,1262,1403,1239,2755,2501,30,45.07,42.07,46.77,41.3,91.83,83.37
4,2023,13266,Stave St & Armitage Ave,41.917738676,-87.691440463,206,205,133,129,339,334,30,6.87,6.83,4.43,4.3,11.3,11.13
4,2023,13045,Dearborn St & Erie St,41.893992,-87.629318,896,870,892,872,1788,1742,30,29.87,29.0,29.73,29.07,59.6,58.07
4,2023,18003,Fairbanks St & Superior St,41.895748,-87.620104,286,276,248,290,534,566,30,9.53,9.2,8.27,9.67,17.8,18.87
4,2023,605,University Library (NU),42.052939,-87.673447,164,161,163,194,327,355,30,5.47,5.37,5.43,6.47,10.9,11.83
4,2023,23003,Halsted St & Fulton St,41.89,-87.65,551,567,408,486,959,1053,30,18.37,18.9,13.6,16.2,31.97,35.1
4,2023,TA1308000045,Wallace St & 35th St,41.830638647,-87.641301036,93,93,48,55,141,148,30,3.1,3.1,1.6,1.83,4.7,4.93
4,2023,13075,Wentworth Ave & Cermak Rd,41.85308455741279,-87.63193130493164,213,205,209,258,422,463,28,7.61,7.32,7.46,9.21,15.07,16.54
4,2023,20101,Summit Ave & 86th St,41.737883833333335,-87.6449675,3,0,2,4,5,4,4,0.75,0.0,0.5,1.0,1.25,1.0
4,2023,KA1503000066,Wood St & 35th St,41.83010465416,-87.6702983089,57,59,26,15,83,74,29,1.97,2.03,0.9,0.52,2.86,2.55
4,2023,TA1309000055,Emerald Ave & 31st St,41.83823233333333,-87.6451295,278,283,156,178,434,461,30,9.27,9.43,5.2,5.93,14.47,15.37
4,2023,13427,Cityfront Plaza Dr & Pioneer Ct,41.890573,-87.622072,434,398,443,349,877,747,30,14.47,13.27,14.77,11.63,29.23,24.9
4,2023,15628,California Ave & Byron St,41.95216219326,-87.698051113,99,105,71,64,170,169,30,3.3,3.5,2.37,2.13,5.67,5.63
4,2023,638,Clinton St & Jackson Blvd,41.878367543,-87.641265035,827,829,759,845,1586,1674,30,27.57,27.63,25.3,28.17,52.87,55.8
4,2023,TA1306000007,Larrabee St & Menomonee St,41.91468,-87.64332,159,155,239,235,398,390,30,5.3,5.17,7.97,7.83,13.27,13.0
4,2023,KA1504000116,Larrabee St & Oak St,41.90021949323,-87.6429854676,257,253,270,296,527,549,30,8.57,8.43,9.0,9.87,17.57,18.3
4,2023,TA1305000039,Elston Ave & Cortland St,41.91643342912655,-87.66674637794495,401,399,281,261,682,660,30,13.37,13.3,9.37,8.7,22.73,22.0
4,2023,13158,Peoria St & Jackson Blvd,41.8776415962753,-87.64961779117584,704,641,810,673,1514,1314,30,23.47,21.37,27.0,22.43,50.47,43.8
4,2023,KA1503000064,Dusable Harbor,41.886976,-87.612813,481,444,687,630,1168,1074,30,16.03,14.8,22.9,21.0,38.93,35.8
4,2023,13037,Clinton St & Tilden St,41.875885,-87.640795,218,212,132,141,350,353,30,7.27,7.07,4.4,4.7,11.67,11.77
4,2023,15442,Ashland Ave & Archer Ave,41.83920868403,-87.6656098589,85,86,60,61,145,147,30,2.83,2.87,2.0,2.03,4.83,4.9
4,2023,TA1306000025,Racine Ave & Congress Pkwy,41.874610305,-87.657116652,365,303,324,290,689,593,31,11.77,9.77,10.45,9.35,22.23,19.13
4,2023,chargingstx4,Morgan St & Lake St*,41.88549170626906,-87.65228927135468,291,309,375,382,666,691,30,9.7,10.3,12.5,12.73,22.2,23.03
4,2023,661,Evanston Civic Center,42.05707407,-87.686536193,53,57,59,47,112,104,29,1.83,1.97,2.03,1.62,3.86,3.59
4,2023,TA1307000115,Clybourn Ave & Division St,41.904613,-87.640552,220,202,322,280,542,482,30,7.33,6.73,10.73,9.33,18.07,16.07
4,2023,KA1503000054,Cottage Grove Ave & 63rd St,41.780639,-87.60606766666666,39,38,68,67,107,105,30,1.3,1.27,2.27,2.23,3.57,3.5
4,2023,TA1309000001,Halsted St & Maxwell St,41.865174055,-87.64705658,563,571,388,421,951,992,30,18.77,19.03,12.93,14.03,31.7,33.07
4,2023,13138,Canal St & Jackson Blvd,41.877245,-87.639366,637,586,495,444,1132,1030,30,21.23,19.53,16.5,14.8,37.73,34.33
4,2023,445,Western Ave & Gunnison St,41.97,-87.69,68,67,0,0,68,67,28,2.43,2.39,0.0,0.0,2.43,2.39
4,2023,13006,LaSalle St & Washington St,41.882633686,-87.632532954,366,364,318,309,684,673,30,12.2,12.13,10.6,10.3,22.8,22.43
4,2023,TA1307000066,Damen Ave & Coulter St,41.8492,-87.67564,24,25,15,26,39,51,27,0.89,0.93,0.56,0.96,1.44,1.89
4,2023,13345,Calumet Ave & 35th St,41.83135416666666,-87.6180215,173,170,139,145,312,315,30,5.77,5.67,4.63,4.83,10.4,10.5
4,2023,TA1307000120,Green St & Madison St,41.88185932803823,-87.64926373958588,992,942,706,745,1698,1687,30,33.07,31.4,23.53,24.83,56.6,56.23
4,2023,TA1307000150,Pine Grove Ave & Waveland Ave,41.949288249,-87.646573544,646,625,827,775,1473,1400,30,21.53,20.83,27.57,25.83,49.1,46.67
4,2023,13241,Western Ave & Division St,41.902909398,-87.687396646,225,207,198,168,423,375,30,7.5,6.9,6.6,5.6,14.1,12.5
4,2023,TA1307000061,State St & Pearson St,41.897448,-87.628722,273,251,312,289,585,540,30,9.1,8.37,10.4,9.63,19.5,18.0
4,2023,13323,Broadway & Sheridan Rd,41.952833,-87.649993,602,576,567,529,1169,1105,30,20.07,19.2,18.9,17.63,38.97,36.83
4,2023,TA1307000062,Sedgwick St & Huron St,41.894657969,-87.638310075,483,391,571,395,1054,786,30,16.1,13.03,19.03,13.17,35.13,26.2
4,2023,604,Sheridan Rd & Noyes St (NU),42.058239,-87.677432,282,272,428,408,710,680,30,9.4,9.07,14.27,13.6,23.67,22.67
4,2023,TA1307000039,Clark St & Elm St,41.903087497,-87.631629229,1232,1190,1371,1303,2603,2493,30,41.07,39.67,45.7,43.43,86.77,83.1
4,2023,13307,Laflin St & Cullerton St,41.85491457576575,-87.66355991363525,157,157,76,79,233,236,30,5.23,5.23,2.53,2.63,7.77,7.87
4,2023,TA1305000020,Ogden Ave & Chicago Ave,41.896410823,-87.654006124,558,539,403,389,961,928,30,18.6,17.97,13.43,12.97,32.03,30.93
4,2023,TA1307000052,Sheffield Ave & Wellington Ave,41.9363555,-87.65263483333334,580,585,553,613,1133,1198,31,18.71,18.87,17.84,19.77,36.55,38.65
4,2023,RP-009,Sheridan Rd & Loyola Ave,42.00104377979,-87.6611982433,184,183,166,189,350,372,30,6.13,6.1,5.53,6.3,11.67,12.4
4,2023,517,Public Rack - Pulaski Rd & Armitage Ave,41.92,-87.73,69,63,58,34,127,97,30,2.3,2.1,1.93,1.13,4.23,3.23
4,2023,TA1307000140,Western Ave & Leland Ave,41.966399801840986,-87.68870428204536,370,377,248,254,618,631,30,12.33,12.57,8.27,8.47,20.6,21.03
4,2023,TA1309000010,Wabash Ave & 9th St,41.870776,-87.625977,458,450,566,567,1024,1017,30,15.27,15.0,18.87,18.9,34.13,33.9
4,2023,13089,Damen Ave & Cullerton St,41.854966518753926,-87.67569959163664,126,122,69,76,195,198,30,4.2,4.07,2.3,2.53,6.5,6.6
4,2023,TA1305000004,McCormick Place,41.851471782,-87.618864775,228,213,244,204,472,417,30,7.6,7.1,8.13,6.8,15.73,13.9
4,2023,13146,Clark St & Armitage Ave,41.918306,-87.636282,923,930,1061,1091,1984,2021,30,30.77,31.0,35.37,36.37,66.13,67.37
4,2023,TA1307000136,Clark St & Wellington Ave,41.936605666666665,-87.64769816666667,642,636,573,602,1215,1238,30,21.4,21.2,19.1,20.07,40.5,41.27
4,2023,TA1309000025,Halsted St & Roscoe St,41.94368266666667,-87.64893766666667,972,969,642,648,1614,1617,30,32.4,32.3,21.4,21.6,53.8,53.9
4,2023,13249,Ashland Ave & Belle Plaine Ave,41.956057,-87.668835,148,148,98,107,246,255,30,4.93,4.93,3.27,3.57,8.2,8.5
4,2023,KA1504000127,Manor Ave & Leland Ave,41.9658225,-87.70090533333334,97,97,76,72,173,169,30,3.23,3.23,2.53,2.4,5.77,5.63
4,2023,13431,Adler Planetarium,41.866095,-87.607267,444,391,602,528,1046,919,30,14.8,13.03,20.07,17.6,34.87,30.63
4,2023,499,Public Rack - Christiana Ave & Belmont Ave,41.94,-87.71,12,12,0,0,12,12,12,1.0,1.0,0.0,0.0,1.0,1.0
4,2023,323,Narragansett & Irving Park,41.95,-87.79,28,26,0,0,28,26,19,1.47,1.37,0.0,0.0,1.47,1.37
4,2023,396,Central Ave & Roscoe St,41.94,-87.77,25,15,0,0,25,15,14,1.79,1.07,0.0,0.0,1.79,1.07
4,2023,436,Kedzie Ave & George St,41.93,-87.71,104,85,0,0,104,85,28,3.71,3.04,0.0,0.0,3.71,3.04
4,2023,13398,Blackstone Ave & Hyde Park Blvd,41.802562,-87.590368,87,81,243,196,330,277,30,2.9,2.7,8.1,6.53,11.0,9.23
4,2023,15667,Western Ave & Monroe St,41.879803,-87.68601633333333,90,89,58,91,148,180,30,3.0,2.97,1.93,3.03,4.93,6.0
4,2023,TA1308000035,Lake Park Ave & 47th St,41.809443,-87.591875,59,61,109,148,168,209,30,1.97,2.03,3.63,4.93,5.6,6.97
4,2023,TA1305000037,Paulina Ave & North Ave,41.910407305,-87.670055747,268,265,217,234,485,499,30,8.93,8.83,7.23,7.8,16.17,16.63
4,2023,TA1308000007,MLK Jr Dr & 47th St,41.809830427,-87.616293788,16,16,24,31,40,47,27,0.59,0.59,0.89,1.15,1.48,1.74
4,2023,20224,Calumet Park,41.71370983035615,-87.53084421157837,0,0,12,11,12,11,10,0.0,0.0,1.2,1.1,1.2,1.1
4,2023,KA1503000040,Loomis St & Archer Ave,41.84161973,-87.65759325,71,70,32,32,103,102,29,2.45,2.41,1.1,1.1,3.55,3.52
4,2023,KA1503000007,Cornell Ave & Hyde Park Blvd,41.802406,-87.586924,150,154,404,361,554,515,30,5.0,5.13,13.47,12.03,18.47,17.17
4,2023,15653,Troy St & North Ave,41.9098155,-87.7053485,126,102,141,122,267,224,30,4.2,3.4,4.7,4.07,8.9,7.47
4,2023,13242,Milwaukee Ave & Rockwell St,41.92019556200566,-87.69265919923781,232,219,186,164,418,383,30,7.73,7.3,6.2,5.47,13.93,12.77
4,2023,358,Kilpatrick Ave & Parker Ave,41.93,-87.74,29,31,0,0,29,31,25,1.16,1.24,0.0,0.0,1.16,1.24
4,2023,15646,California Ave & Altgeld St,41.92669,-87.697668,134,134,146,164,280,298,30,4.47,4.47,4.87,5.47,9.33,9.93
4,2023,18062,Aberdeen St & Randolph St,41.884114,-87.654264,465,467,384,401,849,868,30,15.5,15.57,12.8,13.37,28.3,28.93
4,2023,13144,Seeley Ave & Roscoe St,41.94333899,-87.679694057,330,320,187,198,517,518,30,11.0,10.67,6.23,6.6,17.23,17.27
4,2023,498,Public Rack - Avondale Ave & Addison St,41.95,-87.72,7,7,0,0,7,7,7,1.0,1.0,0.0,0.0,1.0,1.0
4,2023,13243,Milwaukee Ave & Wabansia Ave,41.91261316666667,-87.68135383333333,519,529,404,431,923,960,30,17.3,17.63,13.47,14.37,30.77,32.0
4,2023,15446,Racine Ave & 35th St,41.83065021,-87.656039,83,86,29,32,112,118,30,2.77,2.87,0.97,1.07,3.73,3.93
4,2023,KA1504000161,St. Louis Ave & Balmoral Ave,41.980279326,-87.716153979,94,86,44,50,138,136,30,3.13,2.87,1.47,1.67,4.6,4.53
4,2023,15655,Albany Ave & Bloomingdale Ave,41.914027,-87.705126,207,204,236,160,443,364,31,6.68,6.58,7.61,5.16,14.29,11.74
4,2023,13136,Damen Ave & Division St,41.9032605,-87.67845466666667,424,429,243,270,667,699,30,14.13,14.3,8.1,9.0,22.23,23.3
4,2023,KA1503000034,LaSalle St & Adams St,41.87978866666667,-87.63206816666667,123,124,169,190,292,314,29,4.24,4.28,5.83,6.55,10.07,10.83
4,2023,TA1308000038,Cottage Grove Ave & Oakwood Blvd,41.822985,-87.6071,35,34,52,61,87,95,26,1.35,1.31,2.0,2.35,3.35,3.65
4,2023,KA1503000004,Lake Park Ave & 35th St,41.831295252,-87.608720541,87,87,117,122,204,209,29,3.0,3.0,4.03,4.21,7.03,7.21
4,2023,18067,Walsh Park,41.914360404,-87.667864323,293,266,323,231,616,497,30,9.77,8.87,10.77,7.7,20.53,16.57
4,2023,13285,Wood St & Taylor St (Temp),41.869265218438194,-87.67373085021973,284,265,322,211,606,476,30,9.47,8.83,10.73,7.03,20.2,15.87
4,2023,15668,Western Ave & Congress Pkwy,41.874560595,-87.68634963,77,69,113,82,190,151,30,2.57,2.3,3.77,2.73,6.33,5.03
4,2023,341,Archer Ave & 43rd St,41.82,-87.7,14,7,0,0,14,7,10,1.4,0.7,0.0,0.0,1.4,0.7
4,2023,836,Public Rack - Kedzie Ave & Archer Ave,41.81,-87.7,4,5,0,0,4,5,6,0.67,0.83,0.0,0.0,0.67,0.83
4,2023,chargingstx0,Wilton Ave & Diversey Pkwy*,41.932418,-87.652705,110,97,162,142,272,239,28,3.93,3.46,5.79,5.07,9.71,8.54
4,2023,825,Public Rack - Kedzie Ave & 54th St - SW,41.8,-87.7,3,3,0,0,3,3,5,0.6,0.6,0.0,0.0,0.6,0.6
4,2023,18069,Cherry Ave & Blackhawk St,41.907221,-87.655618,133,111,45,46,178,157,29,4.59,3.83,1.55,1.59,6.14,5.41
4,2023,16912,Cicero Ave & Flournoy St,41.872131,-87.746619,4,7,1,1,5,8,9,0.44,0.78,0.11,0.11,0.56,0.89
4,2023,16918,Austin Blvd & Madison St,41.880281,-87.774453,52,53,8,9,60,62,26,2.0,2.04,0.31,0.35,2.31,2.38
4,2023,WL-008,Clinton St & Roosevelt Rd,41.8671177825,-87.6410879593,340,344,205,237,545,581,30,11.33,11.47,6.83,7.9,18.17,19.37
4,2023,935,Public Rack - Lorel Ave & Grand Ave,41.92,-87.76,5,2,0,0,5,2,5,1.0,0.4,0.0,0.0,1.0,0.4
4,2023,431,Western Ave & Grace St,41.95,-87.69,123,129,0,0,123,129,30,4.1,4.3,0.0,0.0,4.1,4.3
4,2023,346,Kedzie Ave & 57th St,41.79,-87.7,35,19,0,0,35,19,20,1.75,0.95,0.0,0.0,1.75,0.95
4,2023,351,Mulligan Ave & Wellington Ave,41.93,-87.78,23,8,0,0,23,8,16,1.44,0.5,0.0,0.0,1.44,0.5
4,2023,KA1503000053,MLK Jr Dr & 63rd St,41.780086517,-87.615992308,9,5,7,4,16,9,14,0.64,0.36,0.5,0.29,1.14,0.64
4,2023,20102,Loomis St & 89th St,41.7324815,-87.65807216666667,3,1,0,5,3,6,7,0.43,0.14,0.0,0.71,0.43,0.86
4,2023,452,Richmond St & Lincoln Ave,41.99,-87.7,16,29,0,0,16,29,18,0.89,1.61,0.0,0.0,0.89,1.61
4,2023,653B,Stony Island Ave & 63rd St,41.78,-87.59,2,2,21,11,23,13,17,0.12,0.12,1.24,0.65,1.35,0.76
4,2023,505,Public Rack - Milwaukee Ave & Haussen Ct,41.94,-87.72,31,34,0,0,31,34,27,1.15,1.26,0.0,0.0,1.15,1.26
4,2023,RP-004,Oakley Ave & Touhy Ave,42.012342,-87.688243,33,38,42,45,75,83,28,1.18,1.36,1.5,1.61,2.68,2.96
4,2023,KA1503000019,Stony Island Ave & 75th St,41.7586696704,-87.586882871,8,9,13,12,21,21,17,0.47,0.53,0.76,0.71,1.24,1.24
4,2023,20121,Loomis Blvd & 84th St,41.74148652861805,-87.65841007232666,0,0,13,2,13,2,11,0.0,0.0,1.18,0.18,1.18,0.18
4,2023,325,Harlem Ave & Grace St,41.95,-87.81,3,1,0,0,3,1,2,1.5,0.5,0.0,0.0,1.5,0.5
4,2023,458,Washtenaw Ave & Peterson Ave,41.99,-87.7,38,35,0,0,38,35,27,1.41,1.3,0.0,0.0,1.41,1.3
4,2023,327,Plainfield & Irving Park,41.95,-87.83,8,8,0,0,8,8,6,1.33,1.33,0.0,0.0,1.33,1.33
4,2023,393,Oketo Ave & Addison St,41.94,-87.81,5,9,0,0,5,9,7,0.71,1.29,0.0,0.0,0.71,1.29
4,2023,TA1307000161,Halsted St & 37th St,41.827059,-87.64572,22,22,11,13,33,35,24,0.92,0.92,0.46,0.54,1.38,1.46
4,2023,16948,Ashland Ave & 63rd St,41.779374,-87.664843,11,11,3,1,14,12,10,1.1,1.1,0.3,0.1,1.4,1.2
4,2023,832,Public Rack - Christiana Ave & Archer Ave,41.81,-87.71,8,10,0,0,8,10,10,0.8,1.0,0.0,0.0,0.8,1.0
4,2023,20125,Halsted St & 104th St,41.70513978893236,-87.6424241065979,0,0,5,5,5,5,7,0.0,0.0,0.71,0.71,0.71,0.71
4,2023,16940,Ashland Ave & 50th St,41.803067207,-87.664727569,21,23,10,11,31,34,23,0.91,1.0,0.43,0.48,1.35,1.48
4,2023,KA1504000102,Fairfield Ave & Roosevelt Rd,41.866641998,-87.694522023,27,24,3,4,30,28,21,1.29,1.14,0.14,0.19,1.43,1.33
4,2023,16933,Morgan St & Pershing Rd,41.823613,-87.650931,4,5,8,9,12,14,16,0.25,0.31,0.5,0.56,0.75,0.88
4,2023,15585,Budlong Woods Library,41.98366470886,-87.6964225611,50,46,29,22,79,68,29,1.72,1.59,1.0,0.76,2.72,2.34
4,2023,379,Rockwell St & Archer Ave,41.82,-87.69,31,23,0,0,31,23,21,1.48,1.1,0.0,0.0,1.48,1.1
4,2023,16907,Central Park Blvd & 5th Ave,41.875679,-87.71547,4,5,4,5,8,10,11,0.36,0.45,0.36,0.45,0.73,0.91
4,2023,20238,Greenwood Ave & 97th St,41.718729019,-87.59697628,21,21,7,15,28,36,25,0.84,0.84,0.28,0.6,1.12,1.44
4,2023,20119,Elizabeth St & 92nd St,41.726856709,-87.654320955,13,14,7,6,20,20,18,0.72,0.78,0.39,0.33,1.11,1.11
4,2023,13081,Ogden Ave & Congress Pkwy,41.87501,-87.67328,128,106,190,148,318,254,30,4.27,3.53,6.33,4.93,10.6,8.47
4,2023,13102,Calumet Ave & 18th St,41.85761755293753,-87.61941075325012,227,235,309,357,536,592,30,7.57,7.83,10.3,11.9,17.87,19.73
4,2023,420,Washtenaw Ave & Polk St,41.87,-87.69,26,27,0,0,26,27,23,1.13,1.17,0.0,0.0,1.13,1.17
4,2023,462,Lincoln Ave & Peterson Ave,41.99,-87.71,31,30,0,0,31,30,23,1.35,1.3,0.0,0.0,1.35,1.3
4,2023,15599,Calumet Ave & 71st St,41.76550800581,-87.616917925,4,4,7,4,11,8,9,0.44,0.44,0.78,0.44,1.22,0.89
4,2023,KA1503000075,DuSable Museum,41.791504025,-87.607857823,25,22,38,46,63,68,25,1.0,0.88,1.52,1.84,2.52,2.72
4,2023,995,Public Rack - King Dr & 71st St,41.77,-87.62,1,3,0,0,1,3,4,0.25,0.75,0.0,0.0,0.25,0.75
4,2023,20211,Eberhart Ave & 131st St,41.658413151101065,-87.61071089698817,0,0,6,5,6,5,4,0.0,0.0,1.5,1.25,1.5,1.25
4,2023,20232,Big Marsh Park,41.685877,-87.573824,0,0,10,9,10,9,10,0.0,0.0,1.0,0.9,1.0,0.9
4,2023,651,Michigan Ave & 71st St,41.7653234,-87.621742129,13,14,6,12,19,26,22,0.59,0.64,0.27,0.55,0.86,1.18
4,2023,402,Kenneth Ave & 50th St,41.8,-87.73,16,20,0,0,16,20,13,1.23,1.54,0.0,0.0,1.23,1.54
4,2023,426,California & 16th St,41.86,-87.7,11,15,0,0,11,15,12,0.92,1.25,0.0,0.0,0.92,1.25
4,2023,20212,Altgeld Gardens,41.657076716,-87.598887324,16,6,10,7,26,13,15,1.07,0.4,0.67,0.47,1.73,0.87
4,2023,KA1503000024,Yates Blvd & 75th St,41.758768,-87.56644,3,4,9,7,12,11,15,0.2,0.27,0.6,0.47,0.8,0.73
4,2023,16932,Ashland Ave & Pershing Rd,41.823465,-87.665577,4,5,17,19,21,24,20,0.2,0.25,0.85,0.95,1.05,1.2
4,2023,KA1503000047,Perry Ave & 69th St,41.76929308995,-87.6281959291,28,23,11,12,39,35,24,1.17,0.96,0.46,0.5,1.62,1.46
4,2023,491,Public Rack - Kedzie Ave & Argyle St,41.97,-87.71,32,34,0,0,32,34,23,1.39,1.48,0.0,0.0,1.39,1.48
4,2023,TA1308000006,Damen Ave & Grand Ave,41.892408967,-87.6769104,342,318,182,167,524,485,30,11.4,10.6,6.07,5.57,17.47,16.17
4,2023,TA1307000048,Fort Dearborn Dr & 31st St,41.838556,-87.608218,149,136,361,356,510,492,30,4.97,4.53,12.03,11.87,17.0,16.4
4,2023,13068,Western Ave & Winnebago Ave,41.915507674,-87.687014937,406,391,411,371,817,762,30,13.53,13.03,13.7,12.37,27.23,25.4
4,2023,833,Public Rack - Pulaski Rd & 44th St,41.81,-87.72,14,13,0,0,14,13,12,1.17,1.08,0.0,0.0,1.17,1.08
4,2023,TA1306000008,Larrabee St & North Ave,41.91021,-87.6435,299,293,288,233,587,526,30,9.97,9.77,9.6,7.77,19.57,17.53
4,2023,SL-011,Wells St & Polk St,41.872743845,-87.633881569,424,405,394,319,818,724,30,14.13,13.5,13.13,10.63,27.27,24.13
4,2023,20234,Ashland Ave & 78th St,41.75220484941116,-87.66369938850403,3,3,5,6,8,9,10,0.3,0.3,0.5,0.6,0.8,0.9
4,2023,22001,Wells St & Institute Pl,41.89737986072316,-87.63442039489746,162,152,255,228,417,380,30,5.4,5.07,8.5,7.6,13.9,12.67
4,2023,15530,Rush St & Superior St,41.895811439,-87.626061678,504,499,583,570,1087,1069,30,16.8,16.63,19.43,19.0,36.23,35.63
4,2023,13354,Ashland Ave & 13th St,41.865252256,-87.666473389,150,149,144,168,294,317,30,5.0,4.97,4.8,5.6,9.8,10.57
4,2023,KA1503000044,Rush St & Hubbard St,41.890173,-87.626185,389,393,347,371,736,764,30,12.97,13.1,11.57,12.37,24.53,25.47
4,2023,TA1308000019,Racine Ave & Belmont Ave,41.939743,-87.658865,542,545,449,431,991,976,30,18.07,18.17,14.97,14.37,33.03,32.53
4,2023,623,Michigan Ave & 8th St,41.87252733333333,-87.6238635,468,419,719,550,1187,969,30,15.6,13.97,23.97,18.33,39.57,32.3
4,2023,TA1306000009,Larrabee St & Kingsbury St,41.897764,-87.642884,941,930,669,676,1610,1606,30,31.37,31.0,22.3,22.53,53.67,53.53
4,2023,TA1305000041,Damen Ave & Pierce Ave,41.9093960065,-87.6776919292,927,954,667,742,1594,1696,30,30.9,31.8,22.23,24.73,53.13,56.53
4,2023,TA1307000107,Sheridan Rd & Montrose Ave,41.96161416666666,-87.6546555,635,627,434,467,1069,1094,30,21.17,20.9,14.47,15.57,35.63,36.47
4,2023,13157,Aberdeen St & Jackson Blvd,41.87772613,-87.65478743,569,545,568,489,1137,1034,30,18.97,18.17,18.93,16.3,37.9,34.47
4,2023,13304,Racine Ave & 15th St,41.861267,-87.656625,123,130,123,104,246,234,30,4.1,4.33,4.1,3.47,8.2,7.8
4,2023,TA1309000058,Lincoln Ave & Fullerton Ave,41.92413283333333,-87.6462375,865,865,697,714,1562,1579,30,28.83,28.83,23.23,23.8,52.07,52.63
4,2023,520,Greenview Ave & Jarvis Ave,42.01598227,-87.668649077,151,156,136,133,287,289,30,5.03,5.2,4.53,4.43,9.57,9.63
4,2023,13192,Halsted St & Dickens Ave,41.920017481,-87.648779392,698,708,488,499,1186,1207,30,23.27,23.6,16.27,16.63,39.53,40.23
4,2023,13058,Dayton St & North Ave,41.910610199,-87.649489641,439,426,402,398,841,824,30,14.63,14.2,13.4,13.27,28.03,27.47
4,2023,KA1503000051,Halsted St & 47th Pl,41.80813391481,-87.6456165545,15,12,10,15,25,27,21,0.71,0.57,0.48,0.71,1.19,1.29
4,2023,15575,Broadway & Thorndale Ave,41.98972216666667,-87.66010633333333,322,314,256,264,578,578,30,10.73,10.47,8.53,8.8,19.27,19.27
4,2023,13253,Lincoln Ave & Waveland Ave,41.948807836,-87.675314665,156,150,170,141,326,291,30,5.2,5.0,5.67,4.7,10.87,9.7
4,2023,TA1305000030,Clark St & Randolph St,41.884156346,-87.631964445,503,484,548,546,1051,1030,30,16.77,16.13,18.27,18.2,35.03,34.33
4,2023,13154,Sheffield Ave & Kingsbury St,41.910522,-87.653106,562,574,407,478,969,1052,30,18.73,19.13,13.57,15.93,32.3,35.07
4,2023,KA1504000140,Winchester Ave & Elston Ave,41.92409085038,-87.6764600747,153,154,121,125,274,279,30,5.1,5.13,4.03,4.17,9.13,9.3
4,2023,13353,Ada St & Washington Blvd,41.88283,-87.661206,259,269,216,229,475,498,30,8.63,8.97,7.2,7.63,15.83,16.6
4,2023,428,Milwaukee Ave & Fullerton Ave,41.92,-87.7,321,273,0,0,321,273,30,10.7,9.1,0.0,0.0,10.7,9.1
4,2023,SL-008,Federal St & Polk St,41.872074842,-87.629570246,539,527,774,776,1313,1303,30,17.97,17.57,25.8,25.87,43.77,43.43
4,2023,KA1504000171,Marine Dr & Ainslie St,41.971627831,-87.65014565,305,297,185,193,490,490,30,10.17,9.9,6.17,6.43,16.33,16.33
4,2023,13135,Blue Island Ave & 18th St,41.8575125,-87.6616465,265,268,209,226,474,494,30,8.83,8.93,6.97,7.53,15.8,16.47
4,2023,13160,May St & Taylor St,41.86945045,-87.655502558,568,557,414,395,982,952,30,18.93,18.57,13.8,13.17,32.73,31.73
4,2023,TA1307000006,Southport Ave & Wellington Ave,41.935834408,-87.663664699,598,599,495,461,1093,1060,30,19.93,19.97,16.5,15.37,36.43,35.33
4,2023,TA1305000025,Franklin St & Jackson Blvd,41.877658844,-87.635048628,645,629,538,576,1183,1205,31,20.81,20.29,17.35,18.58,38.16,38.87
4,2023,444,N Shore Channel Trail & Argyle St,41.97,-87.7,80,75,0,0,80,75,28,2.86,2.68,0.0,0.0,2.86,2.68
4,2023,13194,Ogden Ave & Race Ave,41.891795,-87.658751,380,374,304,323,684,697,30,12.67,12.47,10.13,10.77,22.8,23.23
4,2023,TA1309000039,DuSable Lake Shore Dr & Diversey Pkwy,41.93263433333333,-87.63642033333333,733,719,678,742,1411,1461,30,24.43,23.97,22.6,24.73,47.03,48.7
4,2023,TA1309000026,Lincoln Ave & Belle Plaine Ave,41.956025362,-87.680298924,225,221,197,218,422,439,30,7.5,7.37,6.57,7.27,14.07,14.63
4,2023,TA1305000011,Michigan Ave & Lake St,41.886229873,-87.624392271,790,782,872,897,1662,1679,30,26.33,26.07,29.07,29.9,55.4,55.97
4,2023,KA1503000031,Cottage Grove Ave & 67th St,41.77372095205,-87.60563486,10,10,13,12,23,22,19,0.53,0.53,0.68,0.63,1.21,1.16
4,2023,331.0,Pulaski Rd & 21st St,41.85,-87.72,2,3,0,0,2,3,5,0.4,0.6,0.0,0.0,0.4,0.6
4,2023,15491,63rd St Beach,41.78091096424803,-87.57632374763489,6,3,26,20,32,23,16,0.38,0.19,1.62,1.25,2.0,1.44
4,2023,KA1504000164,Keystone Ave & Montrose Ave,41.961111307,-87.729000688,58,66,45,62,103,128,27,2.15,2.44,1.67,2.3,3.81,4.74
4,2023,TA1307000044,Clinton St & 18th St,41.8578955,-87.6408525,125,126,73,99,198,225,30,4.17,4.2,2.43,3.3,6.6,7.5
4,2023,TA1309000059,Racine Ave & Wrightwood Ave,41.92887795,-87.658948421,239,238,297,258,536,496,30,7.97,7.93,9.9,8.6,17.87,16.53
4,2023,KA1504000141,Pulaski Rd & Eddy St (Temp),41.946264,-87.731023,22,22,26,16,48,38,25,0.88,0.88,1.04,0.64,1.92,1.52
4,2023,chargingstx1,Bissell St & Armitage Ave*,41.918413997,-87.652214766,360,386,561,590,921,976,28,12.86,13.79,20.04,21.07,32.89,34.86
4,2023,590,Kilbourn Ave & Irving Park Rd,41.953758836,-87.740646005,27,33,25,28,52,61,25,1.08,1.32,1.0,1.12,2.08,2.44
4,2023,TA1306000026,Racine Ave & Fullerton Ave,41.925566,-87.658416,823,796,571,578,1394,1374,30,27.43,26.53,19.03,19.27,46.47,45.8
4,2023,312,Lockwood Ave & Wrightwood Ave,41.93,-87.76,65,61,0,0,65,61,26,2.5,2.35,0.0,0.0,2.5,2.35
4,2023,384,Kedzie Ave & 52nd St,41.8,-87.7,26,18,0,0,26,18,18,1.44,1.0,0.0,0.0,1.44,1.0
4,2023,KA1504000139,Monticello Ave & Irving Park Rd,41.953998,-87.71910083333333,100,97,65,59,165,156,30,3.33,3.23,2.17,1.97,5.5,5.2
4,2023,chargingstx07,Wentworth Ave & Cermak Rd*,41.853214418519656,-87.63187229633331,88,92,106,144,194,236,19,4.63,4.84,5.58,7.58,10.21,12.42
4,2023,KA1504000080,Washtenaw Ave & Lawrence Ave,41.968987,-87.696027,113,111,121,122,234,233,30,3.77,3.7,4.03,4.07,7.8,7.77
4,2023,559,Racine Ave & Garfield Blvd,41.794228,-87.655073,10,9,9,8,19,17,14,0.71,0.64,0.64,0.57,1.36,1.21
4,2023,TA1308000026,Wentworth Ave & 24th St (Temp),41.85008369347577,-87.6321405172348,75,79,92,100,167,179,30,2.5,2.63,3.07,3.33,5.57,5.97
4,2023,13389,Clarendon Ave & Junior Ter,41.961001158,-87.64962554,450,452,305,316,755,768,30,15.0,15.07,10.17,10.53,25.17,25.6
4,2023,TA1305000009,Clark St & Ida B Wells Dr,41.876010895,-87.630643725,153,145,268,235,421,380,30,5.1,4.83,8.93,7.83,14.03,12.67
4,2023,13217,Calumet Ave & 33rd St,41.8349,-87.61793,428,433,341,324,769,757,30,14.27,14.43,11.37,10.8,25.63,25.23
4,2023,13213,State St & 29th St,41.841707,-87.626938,30,32,51,51,81,83,29,1.03,1.1,1.76,1.76,2.79,2.86
4,2023,15687,Central Park Ave & 24th St,41.84807837,-87.715064645,23,17,10,12,33,29,21,1.1,0.81,0.48,0.57,1.57,1.38
